markers= [
  {
    "name": "400001 Sahayog, 5, Mint Road, Opp Gpo, Fort",
    "lat": 18.937084,
    "lng": 72.83681
  },
  {
    "name": "400001 Pavwala Bldg., 161,  Modi Street, Fort",
    "lat": 18.9350598,
    "lng": 72.8364776
  },
  {
    "name": "400001 Saint George Hostel, P D'Mello Road, Fort",
    "lat": 18.940534,
    "lng": 72.838142
  },
  {
    "name": "400001 Parikh House, Baraji Street, Fort",
    "lat": 18.9345189,
    "lng": 72.8371021
  },
  {
    "name": "400001 Perigreen House, 26 Kumtha Street, Opp.Maharaja Restaurant, Ballard Pier, Fort",
    "lat": 18.9365568,
    "lng": 72.8384268
  },
  {
    "name": "400005 Ganeshmurthi Nagar Part No 2, Captain Prakash Pethe Marg, Colaba",
    "lat": 18.9179494,
    "lng": 72.8250608
  },
  {
    "name": "400005 Ganeshmurthi Nagar Part No 1, 3, Captain Prakash Pethe Marg, Colaba",
    "lat": 18.9179289,
    "lng": 72.8247587
  },
  {
    "name": "400005 Shivshakti Nagar, Free Press Journal Road, Nariman Point, Colaba",
    "lat": 18.924775,
    "lng": 72.8251447
  },
  {
    "name": "400005 Sunder Nagar, Indumati Sakrikar Marg, Near Colaba Market, Colaba",
    "lat": 18.9197182,
    "lng": 72.8298531
  },
  {
    "name": "400005 Geeta Nagar, Dr Homi Bhabha Road, Near Navy Nagar, Colaba",
    "lat": 18.9072667,
    "lng": 72.8094898
  },
  {
    "name": "400005 Grant Bldg., Arthur Bunder Road, Colaba",
    "lat": 18.9185442,
    "lng": 72.8300845
  },
  {
    "name": "400005 Railway Colony, Capt. Prakash Pethe Marg, Colaba",
    "lat": 18.9192543,
    "lng": 72.82566
  },
  {
    "name": "400005 Namdar Manzil, 4Th Pasta Lane, Colaba",
    "lat": 18.9174923,
    "lng": 72.8268302
  },
  {
    "name": "400005 Ambedkar Nagar, Capt. Prakash Pethe Marg, Colaba",
    "lat": 18.9134577,
    "lng": 72.8208046
  },
  {
    "name": "400005 Mourya Mandir Bpt Hutment, Jamashed Bunder, Colaba",
    "lat": 18.9152525,
    "lng": 72.8305903
  },
  {
    "name": "400005 Azad Nagari, Lala Nigam Road, Colaba",
    "lat": 18.9171013,
    "lng": 72.8288065
  },
  {
    "name": "400020 Birla Matoshree Quarters, Bombay Hospital Premises, Vitthaldas Thakrsi Marg, Marine Lines",
    "lat": 18.940388,
    "lng": 72.8279162
  },
  {
    "name": "400003 Nobel Tower, Zakeria Masjid Street, Near Hotel Hayat, Mandvi",
    "lat": 18.9554088,
    "lng": 72.8347697
  },
  {
    "name": "400003 Hutment, Sant Tukaram Road, Near Railway Footover Bridge, Masjid Railway Station (E)",
    "lat": 18.9518278,
    "lng": 72.8382898
  },
  {
    "name": "400003 Dontaad Street, Near Zakeria Masjid, Pydhonie",
    "lat": 18.953268,
    "lng": 72.8350143
  },
  {
    "name": "400003 Hazira Masion, Samuel Street, Opp. Hotel Al-Rehmaniya, Masjid Railway Station (W)",
    "lat": 21.1784184,
    "lng": 72.6587856
  },
  {
    "name": "400009 K J Gandhi Warehouse, Masjid Siding Road, Near Shankar Vilas Hindu Hotel, Masjid Railway Station (E)",
    "lat": 18.9501833,
    "lng": 72.838921
  },
  {
    "name": "400009 Kgn Chs, Imamwada Road, Near Cafe Kausar, Umerkhadi",
    "lat": 18.9590406,
    "lng": 72.8328873
  },
  {
    "name": "400009 Noor Building, Nishanpada Road, Near Noor Masjid, Umerkhadi",
    "lat": 18.9583993,
    "lng": 72.8354307
  },
  {
    "name": "400009 Police Quarters, Imamwada Road, Near Memonwada Fire Station, Bhendi Bazar",
    "lat": 18.9579624,
    "lng": 72.8327018
  },
  {
    "name": "400009 Bismillah Building, Zakeria Masjid Street, Khadak, Dongri",
    "lat": 18.9549518,
    "lng": 72.8344932
  },
  {
    "name": "400009 Sydenham B.I.T. Chawl, Ibrahim Rahimtula Road, Near Hp Petrol Pump, Umerkhadi",
    "lat": 18.960154,
    "lng": 72.8391317
  },
  {
    "name": "400009 City Arcade, Samant Bhai Nanji Marg, Near Kgn Homoeopathic Health Clinic, Dongri",
    "lat": 18.9591302,
    "lng": 72.8363128
  },
  {
    "name": "400009 Rehmatbhai Habib House, Navroji Hill Road No.2, Behind Habib Hospital, Dongri",
    "lat": 18.9597935,
    "lng": 72.8368875
  },
  {
    "name": "400009 Aga Khan Building, Tatanpura Street, Opp Dar-Ul-Madinah Islamic English Medium School, Dongri",
    "lat": 18.9582963,
    "lng": 72.838941
  },
  {
    "name": "400009 Mcgm B Ward Labour Staff Quarters, Babula Tank Cross Lane, Mcgm B Ward, Umerkhadi",
    "lat": 18.9615112,
    "lng": 72.8333242
  },
  {
    "name": "400009 Laxminarayan Chs, Imamwada Rd, Near Mughal Masjid, Umerkhadi",
    "lat": 18.9593674,
    "lng": 72.8333531
  },
  {
    "name": "400009 Jolly Chamber Bldg, Navroji Hill Road No. 1, Near Cafe Islam, Dongri",
    "lat": 18.9589707,
    "lng": 72.8377555
  },
  {
    "name": "400009 Police Line Building, Sardar Vallabhbhai Patel Road, Opp. Memonwada Fire Station, Bhendi Bazar",
    "lat": 18.9579624,
    "lng": 72.8327018
  },
  {
    "name": "400009 Dastagir Masion, Nishanpada Cross Lane, Near Bombay Central Dairy, Dongri",
    "lat": 18.9563883,
    "lng": 72.835781
  },
  {
    "name": "400009 Madavi Police Qrts., Mohd Ali Road, Opp. Mandvi Post Office, Bhendi Bazar",
    "lat": 18.9568126,
    "lng": 72.8323813
  },
  {
    "name": "400003 L D Mansion, Jss Rd, Dhobi Talao",
    "lat": 18.9531926,
    "lng": 72.8353005
  },
  {
    "name": "400003 Suryadarshan Building B Wing, Santsena Marg, Second Kumbharwada, Girgaon",
    "lat": 19.020496,
    "lng": 72.8432698
  },
  {
    "name": "400003 Fitwala Building, Chimna Bucher Street, Null Bazar",
    "lat": 18.959576,
    "lng": 72.829436
  },
  {
    "name": "400003 Keshav Nursing Building, Mahadev Shankar Seth Lane, Chira Bazar",
    "lat": 18.9630892,
    "lng": 72.8145229
  },
  {
    "name": "400003 Building No 122, Ali Umar Street, Marine Lines",
    "lat": 18.954869,
    "lng": 72.8308179
  },
  {
    "name": "400003 Hotel Delight, I R Road, Bhendi Bazar, Marine Lines",
    "lat": 18.9573819,
    "lng": 72.832094
  },
  {
    "name": "400003 Bori Chawl, Kapreshwar Marg, Fanaswadi, Kalbadevi",
    "lat": 18.958442,
    "lng": 72.8244067
  },
  {
    "name": "400003 Chongarmal Vokarmal Chawl, Dadi Santuk Lane, Bohri Chawl, Chira Bazar",
    "lat": 18.9470749,
    "lng": 72.8260794
  },
  {
    "name": "400003 Khemka Bhavan, Fanaswadi, Fanaswadi, Kalbadevi",
    "lat": 18.9512234,
    "lng": 72.8261378
  },
  {
    "name": "400003 Bapu Khote Street, Nullbazar Police Chowky, Null Bazar",
    "lat": 18.9570362,
    "lng": 72.8291805
  },
  {
    "name": "400003 Kgn Guesthouse, Masjid Street, Masjid Street, Mandavi",
    "lat": 18.9494091,
    "lng": 72.8358745
  },
  {
    "name": "400003 Bori House, Islampura, Charni Road",
    "lat": 18.9577804,
    "lng": 72.8267965
  },
  {
    "name": "400003 Dhobi Bldg, 3Rd Kumbharwada, Kumbharwada, Charni Rd",
    "lat": 18.9597997,
    "lng": 72.827361
  },
  {
    "name": "400003 Sajjad Mansion, Chimna Buchar Street, Don Taki, Charni Road",
    "lat": 18.9615597,
    "lng": 72.8286923
  },
  {
    "name": "400003 Bldg No 46, 1St Bhoiwada, Bhuleshwar, Charni Road",
    "lat": 18.9517545,
    "lng": 72.8183688
  },
  {
    "name": "400003 Bldg No 78, Bada Jagdish Mandir, Bhuleshwar, Charni Road",
    "lat": 18.9531926,
    "lng": 72.8353005
  },
  {
    "name": "400003 Mahavir Mansion, Gulalwadi, Gulalwadi, Charni Road",
    "lat": 18.9517545,
    "lng": 72.8183688
  },
  {
    "name": "400003 Khemakaer Chawl, Fanaswadi, Fanaswadi, Charni Road",
    "lat": 18.9517545,
    "lng": 72.8183688
  },
  {
    "name": "400003 Bldg No 68, Kazi Street, Mandavi Post Office, Charni Road",
    "lat": 18.9568126,
    "lng": 72.8323813
  },
  {
    "name": "400003 Shriji Bhavan, Gazdar Street, Gazdar Street, Charni Road",
    "lat": 18.9482867,
    "lng": 72.8238612
  },
  {
    "name": "400003 Madan House, Dr M B Velkar Street, Waka Muhalla, Marine Lines",
    "lat": 18.9475518,
    "lng": 72.8276907
  },
  {
    "name": "400004 Khotachi Wadi, Jss Road, Dhobi Ghat, Girgaon",
    "lat": 18.954786,
    "lng": 72.8196883
  },
  {
    "name": "400004 Mali Bhavan, Girgaon, 8Th Khetwadi, Girgaon",
    "lat": 18.9593054,
    "lng": 72.8235922
  },
  {
    "name": "400004 Rainbow Heights,  Khotachiwadi, V P Road, Grant Road (W), Girgaon",
    "lat": 18.9569807,
    "lng": 72.8205984
  },
  {
    "name": "400004 Gulshan Talkies Building, P B Marg, Chor Bazar, Grant Road",
    "lat": 18.9602024,
    "lng": 72.8244107
  },
  {
    "name": "400004 Khemraj Bhavan Building, Khetwadi Back Road, Khambata Lane, Khetwadi",
    "lat": 18.9600798,
    "lng": 72.823642
  },
  {
    "name": "400004 Kishor Bhavan, Vp Road, Girgaon",
    "lat": 18.95815,
    "lng": 72.822298
  },
  {
    "name": "400007 Mithaiwala Mansion, Grant Road, Near Balwas Hotel, Khetwadi",
    "lat": 18.961593,
    "lng": 72.8212696
  },
  {
    "name": "400007 Nemani Building, N S Patkar Marg, Girgaon Chowpatty",
    "lat": 18.9564005,
    "lng": 72.813074
  },
  {
    "name": "400007 Karai Estate, K N Road, Gaodevi, Grant Road",
    "lat": 18.9665794,
    "lng": 72.8133702
  },
  {
    "name": "400007 Kalyan Building, Sadashiv Cross Lane, Kandawadi, Grant Rd",
    "lat": 18.9549438,
    "lng": 72.8223064
  },
  {
    "name": "400007 Jai Hari Building, V N Marg, Gawalia Tank, Grant Rd",
    "lat": 19.0710021,
    "lng": 72.9119796
  },
  {
    "name": "400007 Auburn House Building, Forjett Street, Grant Rd",
    "lat": 18.9647066,
    "lng": 72.8113544
  },
  {
    "name": "400007 Avishkar Building, Grant Road, Grant Rd",
    "lat": 18.9642302,
    "lng": 72.815798
  },
  {
    "name": "400007 Amorina Heigts Chs, Grant Road, Bhaji Galli, Grant Road (W)",
    "lat": 18.9630636,
    "lng": 72.8149028
  },
  {
    "name": "400007 Firoza Mansion, Lamington Road, Shapur Baug, Grant Road",
    "lat": 18.9595882,
    "lng": 72.8172203
  },
  {
    "name": "400007 Tardeo Court Building, J D Marg, Bhatia Hospital, Tardeo",
    "lat": 18.9659857,
    "lng": 72.8135393
  },
  {
    "name": "400007 Navyug Mansion, Frere Bridge, Nanachowk, Grant Road",
    "lat": 18.9618649,
    "lng": 72.8143101
  },
  {
    "name": "400007 Ratan Annex Building, J D Marg, Grant Road",
    "lat": 18.964332,
    "lng": 72.814893
  },
  {
    "name": "400007 Tulsiwadi Building, 10Th Khetwadi Lane, Girgaon",
    "lat": 18.9607682,
    "lng": 72.8226624
  },
  {
    "name": "400007 Kanta Building, M S Ali Road, Bharat Nagar, Grant Road",
    "lat": 18.9621114,
    "lng": 72.8219581
  },
  {
    "name": "400008 Kailash Apartment, Jbb Rd, Dalal Estate, Mumbai Central",
    "lat": 18.9677964,
    "lng": 72.821939
  },
  {
    "name": "400008 Batata Chawl, P B Marg, Grant Road, Grant Rd",
    "lat": 18.9630543,
    "lng": 72.8215794
  },
  {
    "name": "400008 Lokhandwala Chawl, Arab Lane, Grant Road",
    "lat": 18.9639357,
    "lng": 72.8228257
  },
  {
    "name": "400008 Delhi Darbar Hotel, P B Marg, Grant Road, Grant Rd",
    "lat": 18.9613605,
    "lng": 72.8235254
  },
  {
    "name": "400008 Bismillah Building,  Omkar Nivas, P B Marg, Grant Road",
    "lat": 18.9614187,
    "lng": 72.8281485
  },
  {
    "name": "400008 Noor Manzil, 6Th Kumbharwada, Chor Bazar, Kamathipura",
    "lat": 18.961031,
    "lng": 72.8260643
  },
  {
    "name": "400008 Lokhandwala Chawl, Bapty Road, Arab Galli, Grant Road",
    "lat": 18.9653927,
    "lng": 72.8182417
  },
  {
    "name": "400009 Batliwala Compound, Bapty Road, Faujiya Hospital, Grant Road",
    "lat": 18.9638262,
    "lng": 72.8236958
  },
  {
    "name": "400026 Asha Nagar Zopadapatti, Nepean Sea Road, Priyadarshani Park, Nepean Sea Road",
    "lat": 18.9570666,
    "lng": 72.7989051
  },
  {
    "name": "400026 Nalanda Building, Peddar Road, Jaslok Hospital, Peddar Road",
    "lat": 18.966944,
    "lng": 72.8075465
  },
  {
    "name": "400026 Shyam Niwas Building, Bhulabai Desai Road, Breach Candy Hospital, Cumballa Hil",
    "lat": 18.972711,
    "lng": 72.804394
  },
  {
    "name": "400026 Vallabh Apartment, Bhulabai Desai Road, Breach Candy Hospital, Cumballa Hill",
    "lat": 18.972711,
    "lng": 72.804394
  },
  {
    "name": "400026 Casa Khorakiwala Bunglow,  Vakil Lane, Dr G D Marg, Rusian Cultural Central Lane, Pedder Road",
    "lat": 18.969556,
    "lng": 72.8101673
  },
  {
    "name": "400026 Stable Building, Bhulabhai Desai Rd, Breach Candy Hospital, Malbar Hill",
    "lat": 18.972711,
    "lng": 72.804394
  },
  {
    "name": "400034 Milan Building, Tardeo Rd, Ac Market, Tardeo",
    "lat": 18.9730514,
    "lng": 72.814993
  },
  {
    "name": "400034 Dmd Jhopadpatti, Tardeo Rd, Tulsiwadi, Tardeo",
    "lat": 18.9743341,
    "lng": 72.813413
  },
  {
    "name": "400034 Transit Camp Building, Bhanjibhai Rathod Marg, Tulsiwadi, Mumbai Central",
    "lat": 18.9763957,
    "lng": 72.8184145
  },
  {
    "name": "400034 Janta Nagar, J D Marg, Tardeo",
    "lat": 18.9723041,
    "lng": 72.8130059
  },
  {
    "name": "400034 Tulsiwadi Zopadpatti, Bhanjibhai Rathod Marg, Mata Mandir, Tardeo",
    "lat": 18.9763957,
    "lng": 72.8184145
  },
  {
    "name": "400076 Spenta Tower, Forjett Street, Gowalia Tank, Grant Road",
    "lat": 18.9638738,
    "lng": 72.8103967
  },
  {
    "name": "400008 Bmc Bldg., Chandramani Buddhvihar Marg, Two Tank, Kamathipura",
    "lat": 18.962957,
    "lng": 72.8278743
  },
  {
    "name": "400008 666 Tenament, B J Marg, Jocob Circle, Byculla",
    "lat": 18.9807447,
    "lng": 72.8270215
  },
  {
    "name": "400008 Shirinbhai Chawl, Morland Road, Mumbai Central",
    "lat": 18.9721559,
    "lng": 72.8259705
  },
  {
    "name": "400008 Shakkarwala Bldg, Baban Gully,  Sankhali Street, Madanpura, Agripada",
    "lat": 15.5582868,
    "lng": 74.0123851
  },
  {
    "name": "400008 Anwarshet Ki Chawl, Badlu Rangari Street, Salvation Army, Byculla",
    "lat": 18.9736378,
    "lng": 72.8291409
  },
  {
    "name": "400008 Panch Khate Chawl, Byculla",
    "lat": 18.9744096,
    "lng": 72.8323391
  },
  {
    "name": "400008 Patra Chawl, B. J. Marg, Byculla",
    "lat": 18.9753596,
    "lng": 72.8312175
  },
  {
    "name": "400008 Bismilla Arcade, Sankhali Stree, Huda Masjid, Byculla",
    "lat": 18.9730231,
    "lng": 72.8294662
  },
  {
    "name": "400008 Nayee Chawl, 3Rd Ghelabhai Lane, Mandapura",
    "lat": 18.9716581,
    "lng": 72.8269844
  },
  {
    "name": "400008 7Th Lane, Kamathipura",
    "lat": 18.964976,
    "lng": 72.8260382
  },
  {
    "name": "400008 Kasam Hathi Chawl, Kamathipura 1St Lane, Kamathipura",
    "lat": 18.9628838,
    "lng": 72.8260565
  },
  {
    "name": "400008 Bambkhana, M.A. Road, Kamathipura(Eye Hospital), Kamathipura",
    "lat": 18.9619906,
    "lng": 72.826518
  },
  {
    "name": "400008 Mustafa Manzil, Peerkhan Street, Opp Bmc School, Nagpada",
    "lat": 18.9659298,
    "lng": 72.8307076
  },
  {
    "name": "400008 2Nd & 4Th Lane, Kamathipura",
    "lat": 18.9634416,
    "lng": 72.8257604
  },
  {
    "name": "400008 Fire Brigade Office, Shaikh Hafizuddin Marg, Behind Bmc E Ward Office, Byculla",
    "lat": 18.9718778,
    "lng": 72.8313269
  },
  {
    "name": "400008 Aksa Manzil, M A Road Madanpura, Ghosh Bazar, Byculla",
    "lat": 18.9705424,
    "lng": 72.8280025
  },
  {
    "name": "400008 Merchant Building, Badlu Rangari Street, Asha Dhan, Byculla",
    "lat": 18.9720215,
    "lng": 72.8288694
  },
  {
    "name": "400008 Kamthipura, 9Th Gulli, Kamthipura, Byculla",
    "lat": 18.9655696,
    "lng": 72.8261254
  },
  {
    "name": "400008 7Th Gully, Kamthipura, Byculla",
    "lat": 18.9648916,
    "lng": 72.8261411
  },
  {
    "name": "400008 Acharwala Building, Undriya Street Nagpada, Nagpada, Byculla",
    "lat": 18.962274,
    "lng": 72.8301248
  },
  {
    "name": "400008 Haji Building,  Opposite Garden Hall, Vasil Khan Marg,  Ahbedhi Bakhri Retha Bakri, Nagpada, Byculla",
    "lat": 18.9652566,
    "lng": 72.8295224
  },
  {
    "name": "400008 Bmc Chawl,  Milind Nagar, Tank Pakadi Road, Opposite Shamim Palace, Byculla",
    "lat": 18.9755095,
    "lng": 72.8280764
  },
  {
    "name": "400008 Bavala Building, Megraj Sethi Marg, Near Badlu Rangari Street,  Huda Masjid,",
    "lat": 18.988824,
    "lng": 72.834143
  },
  {
    "name": "400008 Hiraji Govindji Bldg., Sir J J Road, Richardson Crudas, Byculla",
    "lat": 18.966793,
    "lng": 72.8332684
  },
  {
    "name": "400008 Arkediya Bldg, Near J J Road, Byculla",
    "lat": 18.9685162,
    "lng": 72.8325124
  },
  {
    "name": "400008 Sidharth Nagar, Nagpada, Eye Hospital, Byculla",
    "lat": 18.9619906,
    "lng": 72.826518
  },
  {
    "name": "400008 Old Boys Hostel J J Compound Quarters, Jj Road, Jj Hospital, Byculla",
    "lat": 18.9639366,
    "lng": 72.8334328
  },
  {
    "name": "400008 Bootvala Building Roadside Saloon, Dimtimkar Road Nagpada, Opposite Ahmed Solar School, Byculla",
    "lat": 18.9656126,
    "lng": 72.830147
  },
  {
    "name": "400008 Chasmawali Chawl Ghosht Bajar, Mohb. U Rajja Road Madanpura, Byculla",
    "lat": 18.9703745,
    "lng": 72.8271764
  },
  {
    "name": "400008 Suhag Palace Ymca Ground, Agripada, Ymca Ground, Byculla",
    "lat": 18.9721213,
    "lng": 72.824776
  },
  {
    "name": "400008 Mt Section B Block Near Sevaniketan Petrol Pump, Sheafered Road, Shankar Mandir, Byculla",
    "lat": 18.9679201,
    "lng": 72.8325414
  },
  {
    "name": "400008 Mt Real Building 2Tank, Ma Road, Police Chowki, Byculla",
    "lat": 18.9754852,
    "lng": 72.8274008
  },
  {
    "name": "400008 Building No.101, 6Th Lane, Shankar Pupala Road, Nakoda Medical Store, Byculla",
    "lat": 18.9671396,
    "lng": 72.8286571
  },
  {
    "name": "400008 Mombatti Manzil, Mohd Umar Razzak Road, Ghoshbazar Opp. Mohd Razzak School, Byculla",
    "lat": 18.97063,
    "lng": 72.8263224
  },
  {
    "name": "400008 Chawl No.21,  Kazipura, M.A.Road, Next To Sagar Hotel, Byculla",
    "lat": 18.9637153,
    "lng": 72.8298879
  },
  {
    "name": "400008 Jamunadas Building, 2Taki, Nagpada, Near V.P. Road Police Station, Nagpada",
    "lat": 18.9670153,
    "lng": 72.8292274
  },
  {
    "name": "400010 Tulsiwadi Chawl, Gunpowder Road, Mazgaon",
    "lat": 18.969653,
    "lng": 72.8419127
  },
  {
    "name": "400010 Sanjay Gandhi Nagar, J J Marg, Railway Compound, Mazgaon",
    "lat": 18.96298,
    "lng": 72.8323312
  },
  {
    "name": "400010 Sana Height, Barkat Ali Virani Marg, Nagpada",
    "lat": 18.9637026,
    "lng": 72.8306849
  },
  {
    "name": "400010 Takdeer Niwas, Brahmadev Khot Marg, Mazgaon",
    "lat": 18.9666318,
    "lng": 72.8467064
  },
  {
    "name": "400010 Nesbit Hall, Nesbit Road, Opp Sbi, Mazgaon",
    "lat": 18.9688061,
    "lng": 72.8373989
  },
  {
    "name": "400010 Belvedar Hill, Shivdas Chapsi Marg, Next To St. Peter School, Mazgaon",
    "lat": 18.9676876,
    "lng": 72.8404124
  },
  {
    "name": "400010 Lakdi Bander Motor Line Daru Khana, Motor Line Daru Khana, Udipi Hotel, Mazgaon",
    "lat": 18.9744289,
    "lng": 72.8483632
  },
  {
    "name": "400010 Byculla Police Line Quarters, Hansraj Lane, Byculla Police Station, Byculla East",
    "lat": 18.9736085,
    "lng": 72.8340163
  },
  {
    "name": "400010 Kawla Bundar, Reay Road, Near Mariamma Mandar,  New Tank Bundar Road, Reay Road",
    "lat": 18.9774518,
    "lng": 72.8441593
  },
  {
    "name": "400010 Vishal Tower, Love Lane Motishah Lane, Near Suprabhat Hotel, Mazgaon",
    "lat": 18.9720628,
    "lng": 72.8373445
  },
  {
    "name": "400010 New Irani Chawl, Rambhau Bhogle Marg Ghodpdeo, Opposite Piramal Construction , Mazgaon",
    "lat": 18.9728223,
    "lng": 72.8403065
  },
  {
    "name": "400010 Ajay Industrial Estate, Anjirwadi, Ganesh Mandir, Mazgaon",
    "lat": 18.963298,
    "lng": 72.843294
  },
  {
    "name": "400010 Prince Ali Hall Chawl, Nesbit Road, Near Prince Ali Khan Hospital, Mazgaon",
    "lat": 18.9708409,
    "lng": 72.8365499
  },
  {
    "name": "400010 Bit Chawl No. 2, Love Lane Road, Mcgm Despensary, Mazgaon",
    "lat": 18.9726431,
    "lng": 72.8364129
  },
  {
    "name": "400010 Shinde Chawl Nariyalwadi, Rambhau Bhogle Marg, Kedar Hospital, Mazgaon",
    "lat": 18.9769784,
    "lng": 72.8414784
  },
  {
    "name": "400010 Sunni Kabrasthan Reay Road(Inside), Sant Savta Marg, Drk Chowki, Raey Road",
    "lat": 18.9750339,
    "lng": 72.8425842
  },
  {
    "name": "400010 Bit Talwadi Chawl, Saint Merry Road, Talwadi Municipalty School, Mazgaon",
    "lat": 18.9693314,
    "lng": 72.8359007
  },
  {
    "name": "400010 Bit Chawl, Tadwadi Mazgaon Transit Team, Icici Bank, Mazgaon",
    "lat": 18.9649123,
    "lng": 72.8418849
  },
  {
    "name": "400010 Tadwadi Bit Chawl No.5, St. Marry Road, Mazgaon Municipal School, Byculla",
    "lat": 18.9674969,
    "lng": 72.8377344
  },
  {
    "name": "400010 Khodadat Chawl D'Leema Street(Bakery), Pralahad Chendavankar Marg, Rosery School, Mazgaon",
    "lat": 18.9670087,
    "lng": 72.8449898
  },
  {
    "name": "400010 Kawla Bunder Pakhija Gully, Raey Road, Jeevandhara Balvadi, Raey Road",
    "lat": 18.9774518,
    "lng": 72.8441593
  },
  {
    "name": "400010 Saheb Gully, Dr. Mascarence Road, Behind Tank Square Dispensary, Mazgaon",
    "lat": 18.9701884,
    "lng": 72.8459619
  },
  {
    "name": "400010 Tariya House,  39/A,  Navanagar, Dockyard Road, Dockyard Station, Mazgaon",
    "lat": 18.9670056,
    "lng": 72.8479262
  },
  {
    "name": "400011 Khusnuma Apartment / Bit Chawl, M A Road / M. S. Ansari Marg, Kalapani, Agripada",
    "lat": 18.9754852,
    "lng": 72.8274008
  },
  {
    "name": "400011 Prabhat Building, R B Chandorkar Marg, Agripada Police Staion, Agripada",
    "lat": 18.9769806,
    "lng": 72.8244792
  },
  {
    "name": "400011 Hawabai Chawl, N. M. Joshi Marg, Arthur Road Naka, Chinchpokli",
    "lat": 18.9865695,
    "lng": 72.8318074
  },
  {
    "name": "400011 B. J. Marg, Kanjarwada, Byculla",
    "lat": 18.9765903,
    "lng": 72.8302246
  },
  {
    "name": "400011 Bit Chawl, Madhavrao Gangan Marg, Near Fancy Market, Agripada",
    "lat": 18.9748849,
    "lng": 72.8267395
  },
  {
    "name": "400011 Transit Camp, Tank Pakhadi Street, Kalapani, Mominpura",
    "lat": 18.9810451,
    "lng": 72.8267579
  },
  {
    "name": "400011 Karim Building, 3Rd Ghelabhai Lane, Madanpura, Madanpura",
    "lat": 18.97213,
    "lng": 72.827938
  },
  {
    "name": "400011 Kermani Building (Anand Estate), N. M. Joshi Marg, Arthur Road Naka, Chinchpokli",
    "lat": 18.9861103,
    "lng": 72.8316247
  },
  {
    "name": "400011 Transist Camp, Tank Pakadi Street, Mominpura",
    "lat": 18.9810451,
    "lng": 72.8267579
  },
  {
    "name": "400011 Dagdi Chawal, B.J. Marg, Dagadi Chawl, Dagadi Chawl",
    "lat": 18.978777,
    "lng": 72.8285352
  },
  {
    "name": "400011 Maruti Gully, N.M Joshi Marg, Byculla Stn., Buyculla",
    "lat": 18.9768324,
    "lng": 72.8321744
  },
  {
    "name": "400011 Bit Chawl Agripada, Mejhraj Sethi Marg, Jhula Maidan, Byculla",
    "lat": 18.9744584,
    "lng": 72.8270665
  },
  {
    "name": "400011 Chavhan Mension, Tank Pakadi Road, Opposite Khatao Mill, Byculla",
    "lat": 18.9748197,
    "lng": 72.8300647
  },
  {
    "name": "400011 Bage Usman Heights, Sheikh Hafizuddin Marg, Behind E Ward, Byculla",
    "lat": 18.9718778,
    "lng": 72.8313269
  },
  {
    "name": "400011 Bage Rabbani Appartment, Megraj Sethi Marg, Badliwala Charitable Dispensary,Byculla",
    "lat": 18.9736116,
    "lng": 72.8292895
  },
  {
    "name": "400011 Islamia Housing Society, Navroj Minar, Clare Road, Saint Agnes High School,Byculla",
    "lat": 18.9710101,
    "lng": 72.830453
  },
  {
    "name": "400011 Rasul Jiva Compound, Kk Road 7Th Rasta, Jacob Circle, Byculla",
    "lat": 18.9803593,
    "lng": 72.8291465
  },
  {
    "name": "400011 Peer Bhai Mension, Morland Road, Sahara Medical Store Halim Manjil, Byculla",
    "lat": 18.9746223,
    "lng": 72.8267943
  },
  {
    "name": "400011 Doodh Wala Complex, Belasis Road, Near Bombay Central Bus Depot, Byculla",
    "lat": 18.96875,
    "lng": 72.8219557
  },
  {
    "name": "400011 Naya Nagar, M .A Road, Best Quarters, Byculla",
    "lat": 18.9810451,
    "lng": 72.8267579
  },
  {
    "name": "400011 Dubhash Buiding, Bapurao Jagtap Marg, Lakhpati Hotel, Byculla",
    "lat": 18.9764055,
    "lng": 72.8303358
  },
  {
    "name": "400011 Mandar Nikatan,  N.M. Marg Joshi, M.C.G.M. Dispancery, Byculla",
    "lat": 18.9806847,
    "lng": 72.8317581
  },
  {
    "name": "400011 Ar-Rayyan Tower, M.A.Road, Agripada, Near Zulha Madian, Byculla",
    "lat": 8.9617103,
    "lng": 8.9617103
  },
  {
    "name": "400011 Chandramani,  Buddha Vihar, Kamathi Pura, Nar Bharat Gas Agency, Byculla",
    "lat": 18.9645247,
    "lng": 72.827943
  },
  {
    "name": "400011 Noorami Chawl, M A Road, Hari Masjid, Byculla",
    "lat": 18.9754852,
    "lng": 72.8274008
  },
  {
    "name": "400011 Hari Jayram Building, Sakali Street, Jhula Maidan, Byculla",
    "lat": 18.9744584,
    "lng": 72.8270665
  },
  {
    "name": "400011 Sagar Classes, Clair Road, Saint Agnes School, Byculla",
    "lat": 18.9710101,
    "lng": 72.830453
  },
  {
    "name": "400011 New Police Line Agripada, Agripada, Jai Bajrang Krida Mandal,  Near Old Police Line Opposite Unity Park, Byculla",
    "lat": 18.9763161,
    "lng": 72.8270934
  },
  {
    "name": "400011 Madina Compound, 7Th Rasta,  Bapurao Jagtap Marg, Opposite 666 Tenament, Byculla",
    "lat": 18.978882,
    "lng": 72.8285133
  },
  {
    "name": "400011 Parijat Building Sunder Gully Naka, B J Marg, Opposite Shivshakti Building,Byculla",
    "lat": 18.9755525,
    "lng": 72.8308923
  },
  {
    "name": "400011 Badlu Rangari Street Patra Chawl, Megraj Sethi Marg, Souter Street Health Post, Byculla",
    "lat": 18.9736378,
    "lng": 72.8291409
  },
  {
    "name": "400011 Kamathipura 4Th Gully, Laxmikant Bar,  Near Mns Office, Byculla",
    "lat": 18.9648916,
    "lng": 72.8261411
  },
  {
    "name": "400011 Ghas Gully Bhimjyot Building Near Patil Shop Near Italian Building, Nair Road, Iti College, Byculla",
    "lat": 18.9759,
    "lng": 72.8226
  },
  {
    "name": "400011 Laxmi Residency, Station Road, Near Maruti Gully. Opposite Byculla Station West, Byculla",
    "lat": 18.978315,
    "lng": 72.8317163
  },
  {
    "name": "400011 Rangwala Mansion,  Agripada Fancy Market, Agripada, Opposite Jhula Maidan, Byculla",
    "lat": 18.9744584,
    "lng": 72.8270665
  },
  {
    "name": "400011 Gate No. 5 Patra Chawl, Tank Pakadi Road, Katau Mill, Byculla",
    "lat": 18.974973,
    "lng": 72.8305551
  },
  {
    "name": "400011 Meghraj City Zopdi, Near Fire Brigade, Byculla",
    "lat": 18.9736116,
    "lng": 72.8292895
  },
  {
    "name": "400011 Pansare Chawl, Arthur Road, Chinchpokli Railway Station, Byculla",
    "lat": 18.9851452,
    "lng": 72.8295767
  },
  {
    "name": "400011 Modern Mill Zopdi, Sane Guruji Marg, Vaishali Nagar, Byculla",
    "lat": 18.9847131,
    "lng": 72.8299869
  },
  {
    "name": "400011 Ksa Heights, 1St Sakali Street, Near Zumma Masjid, Byculla",
    "lat": 18.9725767,
    "lng": 72.8300556
  },
  {
    "name": "400011 Bit Chawl Ground Floor, Meghraj Sethi Marg, Andrew Church, Byculla",
    "lat": 18.9738487,
    "lng": 72.8266964
  },
  {
    "name": "400011 Kismat Manzil, Badlu Rangari Street, Behind E Ward, Byculla",
    "lat": 18.9718778,
    "lng": 72.8313269
  },
  {
    "name": "400011 Pandur Vala Mahal, 2Nd Sakali Street, Near Ripon Tower, Byculla",
    "lat": 18.9754852,
    "lng": 72.8274008
  },
  {
    "name": "400011 Raja Bahadur Building, Nagpada Junction, Sagar Hotel, Byculla",
    "lat": 18.9650239,
    "lng": 72.8289394
  },
  {
    "name": "400011 New Lambi Chawl,  D Block, Kamathipura 5Th Lane, Byculla",
    "lat": 18.9632053,
    "lng": 72.8277765
  },
  {
    "name": "400011 Moti Mension, Sir J J Road, Opposite Police Hospital, Byculla",
    "lat": 18.9695993,
    "lng": 72.8327095
  },
  {
    "name": "400011 Meri Mahal, Nagpada, Byculla",
    "lat": 18.9641028,
    "lng": 72.8305238
  },
  {
    "name": "400011 Ashirwad Niwas,  Kamathipura, 8Th Gully, Opposite Macchi Market, Byculla",
    "lat": 18.9648916,
    "lng": 72.8261411
  },
  {
    "name": "400011 Kamlesh Jaidev Building, 5Th Gully Kamathipura, Kamathipura, Byculla",
    "lat": 18.9648916,
    "lng": 72.8261411
  },
  {
    "name": "400011 Blue Heaven Bldg.,  Near Gulistan Bldg., Agripada, Agripapa Municipal School , Byculla",
    "lat": 18.9747037,
    "lng": 72.8252163
  },
  {
    "name": "400011 Rbi Staff Quarters, Ymca Road, Maratha Mandir, Byculla",
    "lat": 18.9705298,
    "lng": 72.8228042
  },
  {
    "name": "400011 Adam Siddiqui Chawl, Ghosh Bazar, Near Hari Masjid, Byculla",
    "lat": 18.9810451,
    "lng": 72.8267579
  },
  {
    "name": "400011 Badliwala Apparement, Cross Road,  Rippon Road, Near Husaini Baug,  Opp. Hari Masjid, Byculla",
    "lat": 18.9740406,
    "lng": 72.8372572
  },
  {
    "name": "400011 New Agakhan Bldg., M.A Road, Agripada, Byculla",
    "lat": 18.9820636,
    "lng": 72.8264028
  },
  {
    "name": "400011 12 Sahara Palace, Sakli Street, Byculla",
    "lat": 18.97256,
    "lng": 72.8282904
  },
  {
    "name": "400011 Isha Mention, B.J. Marg, Lakpati Hotel, Byculla",
    "lat": 18.9765903,
    "lng": 72.8302246
  },
  {
    "name": "400011 Sagar Building Sunder Gully, Bj Marg, Khatau Mill Naka, Byculla",
    "lat": 18.9754074,
    "lng": 72.8305461
  },
  {
    "name": "400011 Chaitanya Building, Bjmarg, Khatau Mill Naka, Byculla",
    "lat": 18.9756477,
    "lng": 72.8304768
  },
  {
    "name": "400011 Kinjal Residency Agripda, Agripada, Opposite Mtnl Office, Byculla",
    "lat": 18.9762873,
    "lng": 72.8257228
  },
  {
    "name": "400011 Redimani Hsg, Clair Road, Opposite Bata Showroom, Byculla",
    "lat": 18.9699987,
    "lng": 72.8302623
  },
  {
    "name": "400011 Jubilee Compound, Sheikh Haffizuddin Marg, Near Ashadham, Byculla",
    "lat": 18.9721083,
    "lng": 72.8299365
  },
  {
    "name": "400011 Shivneri Hostel Byculla West, Station Road, Byculla Station West, Byculla",
    "lat": 18.9753156,
    "lng": 72.8314693
  },
  {
    "name": "400011 New Tank Bander Darukhana, Raey Road, Near Dr. Sudarshan Clinic, Byculla",
    "lat": 18.9701884,
    "lng": 72.845962
  },
  {
    "name": "400011 Danish Villabajar Madanpura, 3Rd Gelabai Street, Ghosht Bajar, Byculla",
    "lat": 18.9703745,
    "lng": 72.8271764
  },
  {
    "name": "400011 Nilkanth Building Bakri Adda, Nm Joshi Marg Chinchpokli, Opposite Bmc Press, Byculla",
    "lat": 18.983301,
    "lng": 72.8317725
  },
  {
    "name": "400011 Farjan Appt., Badlu Rangari Street Sheikh Haffizudin Marg, Behind E Ward Office, Byculla",
    "lat": 18.9718778,
    "lng": 72.8313269
  },
  {
    "name": "400011 Pansare Chawl, Nm Joshi Marg Chinchpokli, Chinchpokli, Byculla",
    "lat": 18.9920227,
    "lng": 72.8314767
  },
  {
    "name": "400011 Baya Park Janata Sevak, Byculla Station Road, Byculla Station, Byculla",
    "lat": 18.9771208,
    "lng": 72.8307456
  },
  {
    "name": "400011 Gharkul Building 1St Cross Lane Behind Bele Shop, Byculla Station Road, Opp.City Trust, Byculla",
    "lat": 18.9779015,
    "lng": 72.8313107
  },
  {
    "name": "400011 Suryaji Compound, Tank Pakhadi Road, Lucky Compound, Byculla",
    "lat": 18.9743545,
    "lng": 72.8285324
  },
  {
    "name": "400011 Afrishower Building, Sakhli Street, Behind E Ward Office, Byculla",
    "lat": 18.9718778,
    "lng": 72.8313269
  },
  {
    "name": "400011 B.I.T. Chawl Agripada,  Fancy Market, Agripada, Zula Maidan, Byculla",
    "lat": 18.9748849,
    "lng": 72.8267395
  },
  {
    "name": "400011 Nilgiri H.S.G.Soci. Agripada, Agripada, Opp. M.T.N.L. Office, Byculla",
    "lat": 18.9810451,
    "lng": 72.8267579
  },
  {
    "name": "400011 Topaz Tower, Nair Road, Near Nair Hospital, Byculla",
    "lat": 18.975427,
    "lng": 72.823287
  },
  {
    "name": "400011 Santosh Bhavan, Meghraj Shetty Marg, B.M.C. Meghraj Shetty School, Byculla",
    "lat": 18.9739772,
    "lng": 72.8276064
  },
  {
    "name": "400011 Arihant Heights, Hindustan Masjd, Byculla",
    "lat": 18.9752353,
    "lng": 72.8318778
  },
  {
    "name": "400011 Pani Kahte Chawl 564, N M Joshi Marg, Opposite To S Bridge Municipal School,Byculla",
    "lat": 18.9791583,
    "lng": 72.8320363
  },
  {
    "name": "400012 Arham Tower, Dattaram Lad Marg, Chintamani Ganpati Utsav, Chinchpokli",
    "lat": 18.9875555,
    "lng": 72.8336849
  },
  {
    "name": "400012 Dattakripa Building Chinchpokli, Dr. B A Road, Voltas House, Chinchpokli",
    "lat": 18.9866983,
    "lng": 72.8354228
  },
  {
    "name": "400027 Ram Nagar A, Dr. B A Road Byculla East, Opposite Rani Bagh, Byculla East",
    "lat": 18.97871,
    "lng": 72.8351211
  },
  {
    "name": "400027 Nasmi House, 6Th Chamber Lane, Palace Cinema, Byculla East",
    "lat": 18.9759324,
    "lng": 72.8331947
  },
  {
    "name": "400027 Khan Building, Sant Savta Marg, Balaji Hospital, Byculla",
    "lat": 18.97727,
    "lng": 72.835352
  },
  {
    "name": "400027 Jerbai Baug Byculla East, Opposite Byculla Bridge, Byculla",
    "lat": 18.9745072,
    "lng": 72.8340128
  },
  {
    "name": "400027 Railway Nurses Quarters Opposite Rani Baug, Dr. B A Road, Railway Hospital, Byculla",
    "lat": 18.9803317,
    "lng": 72.8337021
  },
  {
    "name": "400027 Police Office Quarters, Susex Road, Spice Hotel, Byculla",
    "lat": 18.9736085,
    "lng": 72.8340163
  },
  {
    "name": "400033 Heramb Darashan Building, Dp Wadi Road, Kapreshwar Mandir, Byculla",
    "lat": 18.9523358,
    "lng": 72.8254241
  },
  {
    "name": "400033 Mhada Colony, Ram Bhau Bhogle Marg, Batliboy Compound Ground, Ghodapdeo",
    "lat": 18.9822434,
    "lng": 72.840843
  },
  {
    "name": "400019 Old Police Line, Matunga Central",
    "lat": 19.0269012,
    "lng": 72.8553773
  },
  {
    "name": "400019 Alt Block No.3, Mancherji Joshi Road,  Dadar Parsi Colony, Dadar East",
    "lat": 19.0188693,
    "lng": 72.8516181
  },
  {
    "name": "400022 New Mhada Colony, Near Shukla Hotel, Sion Koliwada",
    "lat": 19.0360309,
    "lng": 72.8718556
  },
  {
    "name": "400022 Navratna Bldg, Mhada Colony, Kokari Agar, Sion",
    "lat": 19.0365038,
    "lng": 72.8712355
  },
  {
    "name": "400022 Hanuman Chawl, Near Raoli Camp, Sion Koliwada",
    "lat": 19.0357375,
    "lng": 72.8686745
  },
  {
    "name": "400022 Beas Mumbai, 21,  Sion East",
    "lat": 19.0425604,
    "lng": 72.8638089
  },
  {
    "name": "400022 Bldg No. M9, Pratiksha Nagar, Sion",
    "lat": 19.041904,
    "lng": 72.8692849
  },
  {
    "name": "400022 Bmc Colony, Sardar Nagar, Sion",
    "lat": 19.0382728,
    "lng": 72.8652097
  },
  {
    "name": "400022 Kokani Nagar, Jay Maharastra Road, Sion Koliwada, Sion",
    "lat": 19.031909,
    "lng": 72.859595
  },
  {
    "name": "400022 Police Officer Bldg, Pratikshanagar, Sion",
    "lat": 19.0424948,
    "lng": 72.8746225
  },
  {
    "name": "400022 Seva Samiti Bldg, Sion",
    "lat": 19.0337041,
    "lng": 72.8653093
  },
  {
    "name": "400022 , Pratiksha Nagar, Sion",
    "lat": 19.0420838,
    "lng": 72.8695851
  },
  {
    "name": "400022 Bmc Bldg.No.G, Bhandarwada, Sion",
    "lat": 19.0425604,
    "lng": 72.8638089
  },
  {
    "name": "400022 Ratan Sagar, Flank Road, Near Shanmukhanand Hall, Sion",
    "lat": 19.0311556,
    "lng": 72.8599713
  },
  {
    "name": "400022 , Pratiksha Nagar, Sion",
    "lat": 19.0420838,
    "lng": 72.8695851
  },
  {
    "name": "400022 Antop Hill Church,  Near Shitaladevi Temple,  Gtb Nagar,  Sion, Near Shital adevi Temple,  Gtb Nagar, Sion",
    "lat": 19.0357936,
    "lng": 72.8655789
  },
  {
    "name": "400022 Parijat Chs, Pratiksha Nagar, Sion",
    "lat": 19.0423142,
    "lng": 72.8720633
  },
  {
    "name": "400022 Nisarg Chs, Pratiksha Nagar, Sion",
    "lat": 19.0428095,
    "lng": 72.8735902
  },
  {
    "name": "400022 , Sunder Kamala Nagar,  Near Kings Circle, Sion",
    "lat": 19.0274124,
    "lng": 72.8552261
  },
  {
    "name": "400022 Kamraj Nagar, Kokari Agar,  Sion Koliwada, Sion",
    "lat": 19.0403577,
    "lng": 72.8644712
  },
  {
    "name": "400022 Shanta Niwas, Gujrat Society, Sion",
    "lat": 19.0389617,
    "lng": 72.8608397
  },
  {
    "name": "400022 Sardar Nagar 3, Near Panchwati Bakery,  Sion Koliwada, Sion",
    "lat": 19.0403577,
    "lng": 72.8644712
  },
  {
    "name": "400022 Raoli Camp,  Nehru Nagar, Mrd Sion Koliwada, Sion",
    "lat": 19.0357375,
    "lng": 72.8686745
  },
  {
    "name": "400037 Sangam Nagar, S P Road, Antop Hill, Wadala East",
    "lat": 19.0218052,
    "lng": 72.8677119
  },
  {
    "name": "400037 Bharatiya Kamala Nagar, S P Road, Near Karbala Msjid,  Antop Hill, Wadala East",
    "lat": 19.0277218,
    "lng": 72.8727047
  },
  {
    "name": "400037 Himmat Nagar, Sp Road, Near Madina Masjid, Wadala East",
    "lat": 19.0088678,
    "lng": 72.8573828
  },
  {
    "name": "400037 Siddharth Nagar, Koraba Mithagar, Wadala",
    "lat": 19.0146928,
    "lng": 72.864408
  },
  {
    "name": "400037 Lal Mati,  Kismat Nagar, Wadala",
    "lat": 19.0257475,
    "lng": 72.8696944
  },
  {
    "name": "400037 Bhaiyasaheb Nagar, 90Feet Road, Barkat Ali Naka, Wadala East",
    "lat": 19.0186086,
    "lng": 72.8618788
  },
  {
    "name": "400037 Bpt New Colony, Mbpt Hospital, Wadala East",
    "lat": 19.012747,
    "lng": 72.8613887
  },
  {
    "name": "400037 Mhada Colony, Near Gtb Monorail Station, Wadala East",
    "lat": 19.0367365,
    "lng": 72.8708585
  },
  {
    "name": "400037 Omkar Chawl, Ganesh Nagar, Wadala East",
    "lat": 19.0190658,
    "lng": 72.8690865
  },
  {
    "name": "400037 Chindhi Gully, Near Nurani Masjid, Wadala",
    "lat": 19.0257475,
    "lng": 72.8696944
  },
  {
    "name": "400037 Rajiv Gandhi Nagar, Bpt Railway Line,  Gate No. 4, Wadala",
    "lat": 19.0222585,
    "lng": 72.860738
  },
  {
    "name": "400037 Girdhar Tambe Nagar,  Korba Mithagar, B.A.D Road, Wadala East",
    "lat": 19.0144995,
    "lng": 72.8618577
  },
  {
    "name": "400037 Shivshankar Nagar, Jai Bhavani Temple,  Wadala (E), Wadala",
    "lat": 19.0200732,
    "lng": 72.8683481
  },
  {
    "name": "400037 Ramdas Chawl,  Near Sai Baba Mandir, Antop Hill, Wadala",
    "lat": 19.0283439,
    "lng": 72.869804
  },
  {
    "name": "400037 Rama Mata Wadi, Korba Mithagar., Wadala",
    "lat": 19.01419,
    "lng": 72.864763
  },
  {
    "name": "400037 Sector 2,  Kane Nagar, Cgs Colony Antophill, Wadala",
    "lat": 19.0276528,
    "lng": 72.8637396
  },
  {
    "name": "400037 Garib Nawaz Nagar, Kokari Agar, Antop Hill",
    "lat": 19.03242,
    "lng": 72.871213
  },
  {
    "name": "400037 The Bayagroove,  Sai Darshan Bldg., Smd Road, Near Antop Hill Post Office,Wadala",
    "lat": 19.0242035,
    "lng": 72.8640254
  },
  {
    "name": "400037 Azad Mohalla, Sp Road, Shanti Nagar,  Near Gausiya Masjid, Antop Hill",
    "lat": 19.0225539,
    "lng": 72.8730958
  },
  {
    "name": "400037 Shaikh Misree Marg, Sai Baba Mandir,  Vijay Nagar, Antop Hill, Wadala",
    "lat": 19.0294441,
    "lng": 72.8669399
  },
  {
    "name": "400037 Motilal Nehru Nagar, Antop Hill, Wadala",
    "lat": 19.0304677,
    "lng": 72.8700096
  },
  {
    "name": "400037 Chandani Agagar, S. M. Road, Chandani Agagar",
    "lat": 19.0253686,
    "lng": 72.8716271
  },
  {
    "name": "400037 Sangmeshwar Chawl, Wadala",
    "lat": 19.0257475,
    "lng": 72.8696944
  },
  {
    "name": "400037 Mahatma Gandhi Nagar, Sector 3,  Cgs Colony,  Near Kane Nagar School, Antop Hill,  Wadala",
    "lat": 19.0308084,
    "lng": 72.8622558
  },
  {
    "name": "400037 Basant Mahal, Barakat Ali Road, Wadala",
    "lat": 19.0188666,
    "lng": 72.8629712
  },
  {
    "name": "400037 Navhind Karauli Mandal, Wadala",
    "lat": 19.0257475,
    "lng": 72.8696944
  },
  {
    "name": "400037 Barkat Ali Nagar, Dp Road, Wadala (E)",
    "lat": 19.018494,
    "lng": 72.866057
  },
  {
    "name": "400012 Ahura Chs, Dr.S.S. Roa Road, Parel",
    "lat": 18.9970393,
    "lng": 72.8400635
  },
  {
    "name": "400012 Mizoram House Sun Tower, G D Ambekar Road, Bhoiwada, Parel",
    "lat": 19.0062811,
    "lng": 72.8467953
  },
  {
    "name": "400012 Mamta Bldg, Jer Bai Wadia Road, Near Bhoiwada, Parel",
    "lat": 19.0045997,
    "lng": 72.8493739
  },
  {
    "name": "400012 Aadhar Blg,  Shramik Niwas,  Vikrant Sadan, Sane Guruji Marg, Gas Company Lane, Chinchpokli",
    "lat": 18.9894347,
    "lng": 72.8333849
  },
  {
    "name": "400012 Railway Colony, Railway Colony Road, Near Central Railway Locomotive Workshop, Parel",
    "lat": 19.0015698,
    "lng": 72.8363795
  },
  {
    "name": "400012 Vitthal Chavan Marg, Parel",
    "lat": 19.0051908,
    "lng": 72.8378417
  },
  {
    "name": "400012 Ug Pg Hostel Rooms/Nurses Quarters,  Kem Hospital Campus, E Borges Road, Parel",
    "lat": 19.0014532,
    "lng": 72.8429332
  },
  {
    "name": "400012 Sudam Bhavan, Dr Baba Saheb Ambedkar Road, Lalbaug",
    "lat": 18.9894375,
    "lng": 72.835651
  },
  {
    "name": "400012 Khapridevi Chs, Near Rashtriya Majdoor Sangh, Parel",
    "lat": 19.0038786,
    "lng": 72.8466976
  },
  {
    "name": "400012 Matoshri Tower, Jer Bai Wadia Road, Bhoiwada, Parel",
    "lat": 19.0052085,
    "lng": 72.8484762
  },
  {
    "name": "400012 Meghwadi, Dr S S Rao Road, Near Incometax Office, Lalbaug",
    "lat": 18.9953399,
    "lng": 72.8382595
  },
  {
    "name": "400012 Peru Compound, Near Gas Company, Lalbaug",
    "lat": 18.990782,
    "lng": 72.8350266
  },
  {
    "name": "400012 Transit Camp, Shankar Tanaji Ghadi Marg, Behind Suntower, Bhoiwada",
    "lat": 19.0062723,
    "lng": 72.8468179
  },
  {
    "name": "400012 Pwd Chawl Godown, Annabhau Sathe Nagar, Bhoiwada",
    "lat": 19.0048419,
    "lng": 72.8460091
  },
  {
    "name": "400012 Itc Grand, Parel",
    "lat": 18.9981731,
    "lng": 72.8388143
  },
  {
    "name": "400012 Javeri House, Dr. Batliwala Road, Parel",
    "lat": 19.0034095,
    "lng": 72.8401716
  },
  {
    "name": "400012 Bhuvaneshwar Bldg, Dr. Walimbe Marg, Parel",
    "lat": 18.9996542,
    "lng": 72.8434867
  },
  {
    "name": "400012 Yashwant Bldg., Dr. S.S.Rao Rd., Parel",
    "lat": 18.9964078,
    "lng": 72.8403192
  },
  {
    "name": "400012 Batatawala Mansion, Ganesh Gully, Lalbaug",
    "lat": 18.9939787,
    "lng": 72.8368007
  },
  {
    "name": "400012 Amrutvel Chs, Ganesh Galli, Lalbaug",
    "lat": 18.9936109,
    "lng": 72.8370649
  },
  {
    "name": "400012 Habid Terrace, Dr Baba Saheb Ambedkar Marg, Lalbaug",
    "lat": 18.9945068,
    "lng": 72.8367912
  },
  {
    "name": "400012 Best Quaters, V Shantaram Road, Gurudam Kripa Housing Society, Parel",
    "lat": 19.004856,
    "lng": 72.8382935
  },
  {
    "name": "400012 Mehaboob Chawl, Sewree Cross Road, Sewree",
    "lat": 19.003839,
    "lng": 72.8545641
  },
  {
    "name": "400012 Bharat Nagar, Hindu Smashanbhumi Road, Bhoiwada",
    "lat": 19.007195,
    "lng": 72.8504776
  },
  {
    "name": "400012 Muthelia Regency, Hakoba Bus Stop, Lalbaug",
    "lat": 29.604195,
    "lng": -95.228684
  },
  {
    "name": "400012 Iqbal/Kasim Bldg.,  Maharashtra Guest House, Dr Baba Saheb Ambedkar Marg, Parel",
    "lat": 19.0068441,
    "lng": 72.8404186
  },
  {
    "name": "400012 Bohari Chwal, N.L.Paralkar Marg, Parel",
    "lat": 18.9997193,
    "lng": 72.8452476
  },
  {
    "name": "400014 Janabai Building, Sadhna Hotel, Dadar (East)",
    "lat": 19.0143453,
    "lng": 72.8428319
  },
  {
    "name": "400014 Kohinoor Mills Compound, M.J. Phule Road, Naigaon, Dadar (E)",
    "lat": 19.0122704,
    "lng": 72.8461639
  },
  {
    "name": "400014 New Transit Camp, Dada Saheb Phalke Road, Gautam Nagar, Dadar",
    "lat": 19.0135897,
    "lng": 72.8424627
  },
  {
    "name": "400014 Abhishek Soc., Spring Mill, Naigaon, Dadar",
    "lat": 19.0086082,
    "lng": 72.8475966
  },
  {
    "name": "400014 Gautam Nagar Bldg,  Dr. Dadasaheb Falake Road, Dadar",
    "lat": 19.0124439,
    "lng": 72.8411938
  },
  {
    "name": "400014 Ahmed Sailor Compd, Opp New Bdd Chawl, Naigaon, Dadar",
    "lat": 19.0128729,
    "lng": 72.8464492
  },
  {
    "name": "400014 Old Bdd Chawl, Mj Phule Marg, Naigon, Dadar",
    "lat": 19.0128729,
    "lng": 72.8464492
  },
  {
    "name": "400014 Bdd Chawl, Naigaon, Dadar",
    "lat": 19.0124187,
    "lng": 72.8463784
  },
  {
    "name": "400014 Patel Blg., Hindmata, Dadar",
    "lat": 19.0102369,
    "lng": 72.8423166
  },
  {
    "name": "400015 Irani Chawl No 8, Sewree Cross Road, Opp Dr.Khatri Clinic, Sewree",
    "lat": 19.0057765,
    "lng": 72.8547969
  },
  {
    "name": "400015 Sarifa Manzil, Sewree Cross Road, Behind Dyaneshwar Vidyalay, Sewree",
    "lat": 19.007607,
    "lng": 72.8545892
  },
  {
    "name": "400015 Bahare Madina, Wadala, Near R A Kidwai Road Police Station, Sewree",
    "lat": 19.0047529,
    "lng": 72.854239
  },
  {
    "name": "400015 Maharashtra Housing Board,  Dyaneshwar Nagar, R A Kidwai Road, Sewree",
    "lat": 19.0028938,
    "lng": 72.8538598
  },
  {
    "name": "400015 Officers Quarters, R A Kidwai Road, Char Rast, Sewree",
    "lat": 19.0033228,
    "lng": 72.8539185
  },
  {
    "name": "400015 Ashwamedh Chs, D G Mahajani Road, Sewree, Sewree",
    "lat": 19.0014723,
    "lng": 72.8527999
  },
  {
    "name": "400015 Dyaneshwar Nagar, D G Mahajani Road, Sewree",
    "lat": 19.0020254,
    "lng": 72.8530884
  },
  {
    "name": "400015 Gtb Hostel,  G T B Hospital, Jer Bai Wadia Road, Sewree",
    "lat": 19.0049832,
    "lng": 72.8520824
  },
  {
    "name": "400015 Hirji Baug Chs, Jer Bai Wadia Road, Sewree",
    "lat": 19.0056953,
    "lng": 72.8464128
  },
  {
    "name": "400015 Dyaneshwar Nagar Vasahat, Jer Bai Wadia Rd, Sewree",
    "lat": 19.0056953,
    "lng": 72.8464128
  },
  {
    "name": "400015 Ashok Gardens, Takorsey Jivraj Marg, Swan Mill Compound, Sewree",
    "lat": 18.9943882,
    "lng": 72.8486487
  },
  {
    "name": "400015 Bhavya Apts, Acharya Donde Marg, Sewree",
    "lat": 18.9990312,
    "lng": 72.8498171
  },
  {
    "name": "400015 Pathan Masjid Compound, Sewree Cross Road, Sewree",
    "lat": 19.0075453,
    "lng": 72.8545958
  },
  {
    "name": "400015 Banubai Chawl No. 5, Sewree",
    "lat": 19.0014985,
    "lng": 72.8549642
  },
  {
    "name": "400015 Tokarasi Baithi Chawl, Tj Rd, Gopal Baug, Sewree",
    "lat": 18.9948292,
    "lng": 72.8487745
  },
  {
    "name": "400015 Rupji Gandhi Chawl,  Gaadi Adda, Near Hanuman Mandir, Sewree",
    "lat": 18.99505,
    "lng": 72.853873
  },
  {
    "name": "400015 Patra Chawl,  Nakawachi Wadi, Takorsey Jivraj Marg, Sewree",
    "lat": 18.9960872,
    "lng": 72.8528356
  },
  {
    "name": "400015 Indira Railway Hutments, Haji Bunder Road, Sewree",
    "lat": 18.988402,
    "lng": 72.8564455
  },
  {
    "name": "400015 Global Hospital Nurse Quarters, Takorsey Jivraj Marg, Sewree",
    "lat": 33.7543199,
    "lng": -117.8328955
  },
  {
    "name": "400015 S.P.Compound, Dr S.S.Rao Road, Sewree",
    "lat": 18.9990762,
    "lng": 72.8416762
  },
  {
    "name": "400031 Rahat Nagar, Sewree Cross Road, Behind Dr.Gada'S Clinic, Wadala",
    "lat": 19.0065153,
    "lng": 72.8545613
  },
  {
    "name": "400031 Municipal Chawl, Sewree Cross Road, Near Railwy Gate No 6, Wadala",
    "lat": 19.0065153,
    "lng": 72.8545613
  },
  {
    "name": "400031 Bmc Chawl, Near Janta Floor Mill, Wadala",
    "lat": 19.0132891,
    "lng": 72.8548981
  },
  {
    "name": "400031 Kidwai Nagar Colony Bld, Ra Kidwai Marg, Near Hari Masjid, Wadala",
    "lat": 19.0160207,
    "lng": 72.8588041
  },
  {
    "name": "400031 Shivshahi Prakalp,  Mhada Building, Near Rak Police Chowkyy, Wadala",
    "lat": 25.8006926,
    "lng": 55.9761994
  },
  {
    "name": "400033 Bdlb Colony, Shrikant Hadkar Marg, Kalachowky, Kalachowky",
    "lat": 18.9879253,
    "lng": 72.8434242
  },
  {
    "name": "400033 Amar Veer Seva Sangh, Jijamata Nagar, Kalachowky",
    "lat": 18.9894081,
    "lng": 72.8423166
  },
  {
    "name": "400033 Vineet Nagar, Kalachowky",
    "lat": 18.986843,
    "lng": 72.8422919
  },
  {
    "name": "400033 Abhudyay Nagar, Kalachowky",
    "lat": 18.9901964,
    "lng": 72.8430551
  },
  {
    "name": "400033 Parshuram Nagar, G D Ambekar Marg, Kalachowky",
    "lat": 18.9929396,
    "lng": 72.8437734
  },
  {
    "name": "400033 Jijamata Nagar, D Ambedkr Marg, Kalachowki",
    "lat": 18.9884386,
    "lng": 72.8359426
  },
  {
    "name": "400033 Sita Sadan,  Dattaram Laad Marg, Klachowky",
    "lat": 18.9885828,
    "lng": 72.837435
  },
  {
    "name": "400033 Jijamata Nagar, Ambedkar Marg, Shubechha, Klachowky",
    "lat": 18.9894259,
    "lng": 72.8411621
  },
  {
    "name": "400033 Vighnaria Building, G D Ambekar Marg, Tank Road, Klachowky",
    "lat": 19.0019282,
    "lng": 72.8468615
  },
  {
    "name": "400033 Mangalmurti Chs,  Dattaram Lad Marg, Kalachouki",
    "lat": 18.9882057,
    "lng": 72.8386525
  },
  {
    "name": "400033 Vighnaharta Bldg., G.D. Ambekar Marg, Kalachouki",
    "lat": 18.9890809,
    "lng": 72.8413443
  },
  {
    "name": "400016 Unique Height, Mmc Road, Opp Canosa High School, Mahim",
    "lat": 19.0393991,
    "lng": 72.8432708
  },
  {
    "name": "400016 Emeralbe Court, Opp Canosa High School, Mahim",
    "lat": 19.0393991,
    "lng": 72.8432708
  },
  {
    "name": "400016 Shanti Society,  Mogul Lane, Mahim",
    "lat": 19.0364976,
    "lng": 72.8467009
  },
  {
    "name": "400016 Social Nagar Ajmani Cristle Chowl, Dharavi",
    "lat": 19.0430421,
    "lng": 72.8605943
  },
  {
    "name": "400016 Mapla Chs,  Bhandar Gali, Seeta Ram Kirmarg, Near Lokmanya Highschool, Mahim W",
    "lat": 19.0351419,
    "lng": 72.8418553
  },
  {
    "name": "400016 Navin Mahim Police Vasahat, Mahim",
    "lat": 19.0422001,
    "lng": 72.8391157
  },
  {
    "name": "400016 New Mahim Police Colony, Mahim",
    "lat": 19.046081,
    "lng": 72.841578
  },
  {
    "name": "400016 Mahim Killa Compound, Mahim W",
    "lat": 19.038438,
    "lng": 72.841991
  },
  {
    "name": "400016 New Mahim Policecolony, Mahim W",
    "lat": 19.046081,
    "lng": 72.841578
  },
  {
    "name": "400016 , Walkar Wadi, Mahim",
    "lat": 19.0389455,
    "lng": 72.8420546
  },
  {
    "name": "400017 Doctor Baliga Nagar, Jasmin Mill Road, Opp Sbi Branch, Dharavi",
    "lat": 19.0400414,
    "lng": 72.8498379
  },
  {
    "name": "400017 Vaibhav Apartment, Dharavi Main Road, Opposite Abhudaya Bank, Dharavi",
    "lat": 19.0436389,
    "lng": 72.8499579
  },
  {
    "name": "400017 Shakti Chawl,  Mukund Nagar,  Dambavi Company, Dharavi",
    "lat": 19.0480354,
    "lng": 19.0480354
  },
  {
    "name": "400017 Saubhagya Apartment, S.K.Bole Road, Dadar-West",
    "lat": 19.0191525,
    "lng": 72.8378411
  },
  {
    "name": "400017 Ibrahimiya Masjid, 60 Ft Road, Madina Nagar, Near Dr Kamal Kazis Clinic, Dadar",
    "lat": 19.0416569,
    "lng": 72.8507978
  },
  {
    "name": "400017 Shakti Chawl,  Mukund Nagar, Dambar Company, Dharavi",
    "lat": 19.0480354,
    "lng": 72.8563262
  },
  {
    "name": "400017 Janta Society, Opp Abhudaya Bank, Dharavi",
    "lat": 19.0436389,
    "lng": 72.8499579
  },
  {
    "name": "400017 Sion Social Nagar, M.G Road, Near Mariamma Mandir, Abjuman Gausiya Line, Dharavi",
    "lat": 19.0368613,
    "lng": 72.871647
  },
  {
    "name": "400017 Muslim Nagar, Near Gusiya Masjid, Dharavi",
    "lat": 19.0396969,
    "lng": 72.8536912
  },
  {
    "name": "400017 U M Thevar Nagar, Back Chawl, Kalyanwadi, Dharavi",
    "lat": 19.0452888,
    "lng": 72.8500897
  },
  {
    "name": "400017 Mukund Nagar, Near Ongc, Dharavi",
    "lat": 19.0486206,
    "lng": 72.8576206
  },
  {
    "name": "400017 Diamond Apartment, Jasmine Mill Road, Dharavi",
    "lat": 19.0417865,
    "lng": 72.8482255
  },
  {
    "name": "400017 Veer Lahuji Vasahat Rahiwasi Sangh, Near Taj Hotel, Dharavi",
    "lat": 19.0455916,
    "lng": 72.8537063
  },
  {
    "name": "400017 Pmgp Colony, Dharavi",
    "lat": 19.0508525,
    "lng": 72.8615174
  },
  {
    "name": "400017 Ganesh Chawl, Near Hotel Priyanka, Next To Mukund Nagar, Dharavi",
    "lat": 19.0503649,
    "lng": 72.8567107
  },
  {
    "name": "400017 Nityanand Society, Mukund Nagar, Dharavi",
    "lat": 19.0422354,
    "lng": 72.8945814
  },
  {
    "name": "400017 Sanjay Chawl Society, Dharavi",
    "lat": 19.0440556,
    "lng": 72.8544563
  },
  {
    "name": "400017 Murgan Chawl,  Shetwadi, 60 Feet Road, Dharavi",
    "lat": 19.0410725,
    "lng": 72.8504077
  },
  {
    "name": "400017 Madarsa Galli, Near Kirana Shop, Dharavi",
    "lat": 19.0427358,
    "lng": 72.8586983
  },
  {
    "name": "400017 Gurukrupa Society,  Opp. Plaza, Dadar (W)",
    "lat": 19.0220121,
    "lng": 72.842044
  },
  {
    "name": "400017 Mj Road Social Nagar, Madrshi Mandir, Dharavi",
    "lat": 19.0440951,
    "lng": 72.8607747
  },
  {
    "name": "400017 Keleba Park I, Near Madarsa Dharav, Dharavi",
    "lat": 19.0455916,
    "lng": 72.8537063
  },
  {
    "name": "400017 Gosia Chawl Kela Wakhar, Near Madrasi Mandir, Dharavi",
    "lat": 19.0455916,
    "lng": 72.8537063
  },
  {
    "name": "400017 Keleba Park Sion, Near Maduara, Dharavi",
    "lat": 19.0522583,
    "lng": 72.8627641
  },
  {
    "name": "400017 Kumbhar Wada Murum Road, 90Th Road, Dharavi",
    "lat": 19.0376839,
    "lng": 72.8552404
  },
  {
    "name": "400017 Ambedkar Nagar, Rajiv Gandhi Nagar, Behind Kamgar Stadium, Dadar West",
    "lat": 19.0411624,
    "lng": 72.857825
  },
  {
    "name": "400017 Kasarwadi Municipal Chawl, Shivaji Park, Dadar West",
    "lat": 19.0462117,
    "lng": 72.8617868
  },
  {
    "name": "400017 Neharu Chawl,  Sion,  Dharavi, Dabar Comp., Dharavi",
    "lat": 19.0435781,
    "lng": 72.8577327
  },
  {
    "name": "400017 Indira Qureshi Nagar, 60Feet Road, Dharavi",
    "lat": 19.059906,
    "lng": 72.8773938
  },
  {
    "name": "400017 Gulmohar Chawl, Sant Kaka Marg, Dharavi",
    "lat": 19.0455916,
    "lng": 72.8537063
  },
  {
    "name": "400017 Kalyanwadi,  Katu Cahwl, Dharavi",
    "lat": 19.0455916,
    "lng": 72.8537063
  },
  {
    "name": "400017 Mukund Nagar,  Nityanand Chawl, Dharavi",
    "lat": 19.0480303,
    "lng": 72.8585203
  },
  {
    "name": "400017 Hayat Compound, Dharavi",
    "lat": 19.043956,
    "lng": 72.849327
  },
  {
    "name": "400017 Santoshi Chawl, Kunchikurve Nagar, Dharavi",
    "lat": 19.078862,
    "lng": 72.876213
  },
  {
    "name": "400017 Oceana Appartment,  Kuluskard, Shivaji Park, Dadar West",
    "lat": 19.0262255,
    "lng": 72.835562
  },
  {
    "name": "400017 Tilwa Banglow, Janabai Teju Chawl, Dharavi",
    "lat": 19.0455916,
    "lng": 72.8537063
  },
  {
    "name": "400017 Naik Nagar Saibaba Gali, Lbs Marg, Dharavi",
    "lat": 19.0542017,
    "lng": 72.868179
  },
  {
    "name": "400017 Netaji Building,  Kalyanwadi, Dharavi",
    "lat": 19.0455916,
    "lng": 72.8537063
  },
  {
    "name": "400017 Transit Camp, 90 Feet Road, Near Nagari Chemist, Dharavi",
    "lat": 19.0429721,
    "lng": 72.8573008
  },
  {
    "name": "400017 Khamba Devi,  Mukund Nagar,  Sion,  New Maharashtra Bldg, 90 Feet, Dharavi",
    "lat": 19.0430343,
    "lng": 72.8570919
  },
  {
    "name": "400017 Sairaj Nagar, 90 Feet Rd, Dharavi",
    "lat": 19.0430343,
    "lng": 72.8570919
  },
  {
    "name": "400017 Shiv Shakti Nagar, Dharavi",
    "lat": 19.0433166,
    "lng": 72.8516755
  },
  {
    "name": "400017 Transit Camp Rajiv Gandhi Nagar, Dharavi",
    "lat": 19.0418807,
    "lng": 72.857825
  },
  {
    "name": "400017 Dabbawala Camp,  Ramji Mauji Chawl, 90 Feet Rd, Dharavi",
    "lat": 19.0430343,
    "lng": 72.8570919
  },
  {
    "name": "400017 Mahatma Gandhi Chawl Social Nagar, 90 Feet Rd, Dharavi",
    "lat": 19.0431287,
    "lng": 72.8573624
  },
  {
    "name": "400017 Prakash Nagar, Mahim W",
    "lat": 19.0329419,
    "lng": 72.8450377
  },
  {
    "name": "400017 Kalyanwadi, Dharavi",
    "lat": 19.0452888,
    "lng": 72.8500897
  },
  {
    "name": "400017 Samta Nagar, Dr.Ambedkar Road, Matunga",
    "lat": 19.0364933,
    "lng": 72.8601767
  },
  {
    "name": "400017 Kunchi Karve Nagar, Dharavi",
    "lat": 19.0393959,
    "lng": 72.852471
  },
  {
    "name": "400017 Kumbharwada,  Dekdji Masjid,  Laxmi Chawl, Dharavi",
    "lat": 19.0404056,
    "lng": 72.8540754
  },
  {
    "name": "400017 West Chawl, Near Abhudaya Bank, Dharavi",
    "lat": 19.0436389,
    "lng": 72.8499579
  },
  {
    "name": "400017 Suryodaya Society, T Junction, Dharavi",
    "lat": 19.047595,
    "lng": 72.852795
  },
  {
    "name": "400017 Shiv Shakti Nagar,  New Municipal Chawl, Cross Rd, Dharavi",
    "lat": 19.0462117,
    "lng": 72.8617868
  },
  {
    "name": "400017 Kamal Neharu Nagar, 90 Feet Raod, Opp. Kamaraj School, Dharavi",
    "lat": 19.0419158,
    "lng": 72.8553445
  },
  {
    "name": "400017 Netaji Chs,  Thevar Nagar, T Junction, Dharavi",
    "lat": 19.0454037,
    "lng": 72.8500248
  },
  {
    "name": "400017 Shet Wadi,  Murgan Chawl, 60 Feet Road, Dharavi",
    "lat": 19.0416841,
    "lng": 72.8550571
  },
  {
    "name": "400017 Punwala Chawl, Main Rd, Dharavi",
    "lat": 19.0391258,
    "lng": 72.8497496
  },
  {
    "name": "400017 Akg Ngr, 60 Feet Rd, Near Usmaniya Hotel, Dharavi",
    "lat": 19.040483,
    "lng": 72.851117
  },
  {
    "name": "400017 Shiv Shakti Nagar, Dhorwada, Santkakay Marg, Dharavi",
    "lat": 19.0455916,
    "lng": 72.8537063
  },
  {
    "name": "400017 Sajiben Banerji Chawl Kurtiwadi, Kakayya Marg, Dharavi",
    "lat": 19.0441167,
    "lng": 72.8544509
  },
  {
    "name": "400017 Khatijabee Chawl Baba Masjid, Dharavi",
    "lat": 19.0455916,
    "lng": 72.8537063
  },
  {
    "name": "400017 Shiv Shakti Nagar,  Khada Hanuman, Dharavi",
    "lat": 19.0455916,
    "lng": 72.8537063
  },
  {
    "name": "400017 Sanaullah Compound,  Sion Mahim Link Rd, Opp To Dillar Hotel, Dharavi",
    "lat": 19.0456749,
    "lng": 72.8473025
  },
  {
    "name": "400017 Chamba Bazaar,  Samad Patel Chawl, Dharavi",
    "lat": 19.0445293,
    "lng": 72.852254
  },
  {
    "name": "400017 Kamid Nehru Nagar,  K V Chitle Path, Dharavi",
    "lat": 19.0455916,
    "lng": 72.8537063
  },
  {
    "name": "400017 Dharavi,  Nagari Compound, Dharavi",
    "lat": 19.0805523,
    "lng": 72.8407703
  },
  {
    "name": "400017 Satabdi Tower Pmgp Colony, Dharavi",
    "lat": 19.0504077,
    "lng": 72.8625472
  },
  {
    "name": "400017 Shahid Bhagat Singh Nagar Kumbharwada, Dharavi",
    "lat": 19.0379269,
    "lng": 72.8560564
  },
  {
    "name": "400017 Hakim Chawl,  Socil Nagar,  Sion, Dharavi",
    "lat": 19.0409083,
    "lng": 72.8589165
  },
  {
    "name": "400017 Seth Wadi Chawl, 60 Feet Road, Mahim East",
    "lat": 19.0410725,
    "lng": 72.8504077
  },
  {
    "name": "400017 P Wing Netaji Dharbar Chs, Dharavi",
    "lat": 19.0455916,
    "lng": 72.8537063
  },
  {
    "name": "400017 Lokmanya Tilak Nagar, Dharavi Cross Road, Dharavi,  Mumbai",
    "lat": 19.0425948,
    "lng": 72.8533025
  },
  {
    "name": "400017 Mukund Nagar,  A-Ward, Dharavi",
    "lat": 19.0480303,
    "lng": 72.8585203
  },
  {
    "name": "400017 Padma Gopal Vilas Chawl, Dharavi",
    "lat": 19.0385401,
    "lng": 72.8538595
  },
  {
    "name": "400017 Basweshwar Ngr, Dharavi Cross Rd, Dharavi",
    "lat": 19.0438896,
    "lng": 72.8549025
  },
  {
    "name": "400017 Manzi Wadi Gopal Mistri Compd, Cross Rd, Dharavi",
    "lat": 19.0455916,
    "lng": 72.8537063
  },
  {
    "name": "400017 Gautam Chawl, Shiv Shakti Nagar, Cross Road Dharavi, Dharavi",
    "lat": 19.0425948,
    "lng": 72.8533025
  },
  {
    "name": "400017 P. N. G.P Colony, Near Dharavi Bus Stop, Dharavi",
    "lat": 19.0504251,
    "lng": 72.8587781
  },
  {
    "name": "400019 Matunga Labour Camp,  Uday Society, 60 Feet Road, Matunga",
    "lat": 19.038278,
    "lng": 72.8531346
  },
  {
    "name": "400019 Kshetrapaleshwar,  Shahu Nagar, Jasmill Road, Matunga Labour Camp, Matunga",
    "lat": 19.0394781,
    "lng": 72.8507402
  },
  {
    "name": "400019 Matunga Labour Camp, Matunga",
    "lat": 19.0370086,
    "lng": 72.8519172
  },
  {
    "name": "400028 Dinkar Apartment, Veer Sawarkar Marg, Behind Suryavanshi Hall, Dadar West",
    "lat": 19.0232513,
    "lng": 72.8340227
  },
  {
    "name": "400028 Tavade Bldg, K.V. Chitale Path, Dadar West",
    "lat": 19.0181381,
    "lng": 72.8376582
  },
  {
    "name": "400028 Sushrusha Quarter,  Shivaji Park,  Dadar",
    "lat": 19.0234063,
    "lng": 72.8378245
  },
  {
    "name": "400028 Kulkarni Hights, K.V. Chitale Path, Dadar West",
    "lat": 19.0180039,
    "lng": 72.8374638
  },
  {
    "name": "400028 Kulkarni Hights, Raheja Marg, New Raheja Hospital, Dadar West",
    "lat": 19.0180039,
    "lng": 72.8374638
  },
  {
    "name": "400028 Madhukendra, N C Kelkar Road, Dadar West",
    "lat": 19.0212313,
    "lng": 72.8413306
  },
  {
    "name": "400028 Khapari Dev Chawl, Senapati Bapat Marg, Near Railway Sation, Dadar",
    "lat": 19.0180803,
    "lng": 72.8420976
  },
  {
    "name": "400011 D Committee, Ganesh Nagar,  Jr Boricha Marg, Dhobighat Bmc School, Ganesh Nagar,  Behind Arthur Road Jail",
    "lat": 18.9878657,
    "lng": 72.827173
  },
  {
    "name": "400011 Shramik Ekta Building,  J R Boricha Marg, Behind Arthur Road Jail, J R Boricha Marg",
    "lat": 18.9851452,
    "lng": 72.8295767
  },
  {
    "name": "400011 Bada Dhobighat, Saatrasta, Near Mahalaxmi Station, Saatrasta",
    "lat": 18.9807362,
    "lng": 72.8265158
  },
  {
    "name": "400011 Bmc Colony,  Meghanagar, Arthur Road, Near Arthur Road Jail, Saatrasta",
    "lat": 18.9851452,
    "lng": 72.8295767
  },
  {
    "name": "400011 Zoeb House, Saatrasta, Near Mahalaxmi Dhobighat",
    "lat": 18.9822455,
    "lng": 72.8255146
  },
  {
    "name": "400013 Lokhandwala Residency, Ln Pappan Marg, Near Four Seasons Hotel, Worli",
    "lat": 18.9942981,
    "lng": 72.8203148
  },
  {
    "name": "400013 Bdd,  Nm Joshi Marg, N M Joshi Marg, Near Nm Joshi Marg, Lower Parel",
    "lat": 18.991418,
    "lng": 72.830998
  },
  {
    "name": "400013 Century Quartets, P B Marg, Mahindra Towers, Worli",
    "lat": 19.0060133,
    "lng": 72.8216127
  },
  {
    "name": "400013 Times Network Building, Pb Marg, Kamala Mill Campus, Lower Parel",
    "lat": 19.0038854,
    "lng": 72.8274534
  },
  {
    "name": "400013 Pamanand Carsandas Chawl, Veer Santaji Lane,",
    "lat": 18.997788,
    "lng": 72.8252614
  },
  {
    "name": "400013 Shivkrupa Building, S, Balaji Pawar Marg, Currey Road, Currey Road",
    "lat": 18.9968818,
    "lng": 72.8322579
  },
  {
    "name": "400013 Veera House, Elphinstone Road, Elphinstone, Elphinstone",
    "lat": 19.0077897,
    "lng": 72.8339576
  },
  {
    "name": "400013 Panchaganga Building, Nm Joshi Marg, Opposite Baula Wadi Masjid, Lower Parel",
    "lat": 18.9919497,
    "lng": 72.8317462
  },
  {
    "name": "400013 Bdd 12, N M Joshi Marg, Lower Parel",
    "lat": 18.991418,
    "lng": 72.830998
  },
  {
    "name": "400013 Khimji Nagji, Senapati Bapat Marg, Opposite Phoenix Tower, Lower Parel",
    "lat": 18.9953494,
    "lng": 72.826218
  },
  {
    "name": "400013 Bdd, Nm Joshi Marg, Near Nm Joshi Marg Police Station, Lower Parel",
    "lat": 18.991418,
    "lng": 72.830998
  },
  {
    "name": "400013 Century Quarters, P B Marg, Mahindra Towers, Worli",
    "lat": 19.0060133,
    "lng": 72.8216127
  },
  {
    "name": "400013 C Committee,  Ganesh Nagar, J R Boricha Marg, Near Arthur Road Jail, Saatrasta",
    "lat": 18.9851452,
    "lng": 72.8295767
  },
  {
    "name": "400013 Devgiri, Nm Joshi Marg, Near Currey Road Station, Currey Road",
    "lat": 18.9949905,
    "lng": 72.8328531
  },
  {
    "name": "400013 Shanti Niwas, Fitwala Road, Elphinston Station, Elphinstone",
    "lat": 19.0080523,
    "lng": 72.8344915
  },
  {
    "name": "400013 Anand Niketan, Fitwala Road, Elphinston Station, Elphinstone",
    "lat": 19.0075159,
    "lng": 72.8359669
  },
  {
    "name": "400013 Ganraj Apartment, J R Boricha Marg, Near Arthur Road Jail, Saatrasta",
    "lat": 18.9851452,
    "lng": 72.8295767
  },
  {
    "name": "400013 Irani Chawl, Gk Marg, Lower Parel, Lower Parel",
    "lat": 18.9984641,
    "lng": 72.823275
  },
  {
    "name": "400013 Sadguru Darshan, Fitwala Road, Elphinston, Elphinston",
    "lat": 19.0060211,
    "lng": 72.8398836
  },
  {
    "name": "400013 32 Tenament, Sane Guruji Marg, Chinchpokli W, Chinchpokli W",
    "lat": 18.9883712,
    "lng": 72.8332622
  },
  {
    "name": "400013 Bhawani Mata, Nm Joshi Marg, Lower Parel, Lower Parel",
    "lat": 19.0072721,
    "lng": 72.8317491
  },
  {
    "name": "400013 Mogul House, Nm Joshi Marg, Chinchpokli, Chinchpokli",
    "lat": 18.9887961,
    "lng": 72.8318616
  },
  {
    "name": "400014 Vishwajyoti Sadan, Senapati Bapat Marg, Elphinstone",
    "lat": 19.0083945,
    "lng": 72.8327879
  },
  {
    "name": "400018 Bdd, Gm Bhosle Marg, 0, Worli",
    "lat": 19.0056839,
    "lng": 72.8211728
  },
  {
    "name": "400018 Kombdi Galli,  Siddharth Nagar, Dr. A B Road, Poddar Hospital, Worli",
    "lat": 18.9898795,
    "lng": 72.8152277
  },
  {
    "name": "400018 Bdd, Gm Bhosle Marg, 0, Worli",
    "lat": 19.0056839,
    "lng": 72.8211728
  },
  {
    "name": "400018 Bdd 111 Worli, Ss Amrutwar Marg, Worli",
    "lat": 18.9980314,
    "lng": 72.8276151
  },
  {
    "name": "400018 Jari Mari Sadan, Worli Hill Road, Worli",
    "lat": 18.9968204,
    "lng": 72.8148576
  },
  {
    "name": "400018 Jijamata Nagar C Ward, E Moses Road, Jijamata Nagar, Worli",
    "lat": 18.9927276,
    "lng": 72.8203426
  },
  {
    "name": "400018 Jijamata Nagar D Ward, E Moses Road, Jijamata Nagar, Worli",
    "lat": 18.9929205,
    "lng": 72.8203366
  },
  {
    "name": "400018 Anand Nagar, E Moses Road, Jijamata Nagar, Worli",
    "lat": 18.9921621,
    "lng": 72.8190977
  },
  {
    "name": "400018 Mata Ramabai Ambedkar Nagar, E Moses Road, Jijamata Nagar, Worli",
    "lat": 18.9919341,
    "lng": 72.8177724
  },
  {
    "name": "400018 V P Nagar, E Moses Road, Jijamata Nagar, Worli",
    "lat": 18.9929205,
    "lng": 72.8203366
  },
  {
    "name": "400018 Lokhandwala Residency, L.R.Papan Marg, Four Season Hotel, Worli",
    "lat": 18.9961184,
    "lng": 72.8217756
  },
  {
    "name": "400018 V P Nagar,  Lotus, A B Road, Nsci Club, Worli",
    "lat": 18.9862285,
    "lng": 72.814939
  },
  {
    "name": "400018 Bhaiyasaheb Ambedkar Nagar, E Moses Road, Nehru Planetorium, Worli",
    "lat": 18.9900593,
    "lng": 72.8147973
  },
  {
    "name": "400018 Bdd Chawl, Bansode Marg, Near Ambedkar School, Worli",
    "lat": 19.001385,
    "lng": 72.8227891
  },
  {
    "name": "400018 Suryadarshan Building, E Moses Road, Jijamata Nagr,  Worli, Worli",
    "lat": 18.9929205,
    "lng": 72.8203366
  },
  {
    "name": "400018 Bhaiyasaheb Ambedkar Nagar, A B Road, Nehru Planitorium, Worli",
    "lat": 18.9900593,
    "lng": 72.8147973
  },
  {
    "name": "400018 Prem Nagar, Dr. Annie Besant Road, Near Worli Naka, Worli",
    "lat": 18.9985414,
    "lng": 72.8172586
  },
  {
    "name": "400018 Worli Bdd, Bhagoji Waghmare Marg, Worli",
    "lat": 19.0035613,
    "lng": 72.8213444
  },
  {
    "name": "400018 Worli Bdd, Gm Bhosle Marg, Worli, Worli",
    "lat": 19.0025994,
    "lng": 72.8195359
  },
  {
    "name": "400018 Pwd Zopadpatti, Bhagoji Waghmare Marg, Opp Bdd Chawl 118, Worli",
    "lat": 19.0035613,
    "lng": 72.8213444
  },
  {
    "name": "400018 Lady Ratan Tower, D.S.Road, Opp Muncipal Estate, Worli",
    "lat": 18.9931325,
    "lng": 72.8222459
  },
  {
    "name": "400018 Sai Dham, D.S.Road, Durga Temple, Worli",
    "lat": 19.0178558,
    "lng": 72.8573727
  },
  {
    "name": "400018 Atomica Chs, Worli Hill Road, Podar Ort Pre- Primary School, Worli",
    "lat": 18.9952448,
    "lng": 72.8144819
  },
  {
    "name": "400018 Motilal Nagar, Dr.A.B.Road, Aganwadi, Worli",
    "lat": 18.9899495,
    "lng": 72.815403
  },
  {
    "name": "400018 Ashtvinayak Building,  Rahiwasi Gandhi Nagar, L.N.Papan Marg, Sai Ganesh Temple, Worli",
    "lat": 18.9959062,
    "lng": 72.8209659
  },
  {
    "name": "400025 Saathi Aasra Chs, New Prabhadevi Road, Saamna Press, Prabhadevi",
    "lat": 19.009704,
    "lng": 72.829802
  },
  {
    "name": "400025 Prabhadevi Sra, Rajabhau Desai Marg, Ahuja Towers, Prabhadevi",
    "lat": 19.0118877,
    "lng": 72.8255459
  },
  {
    "name": "400025 Siddhi Prabha Building, Sayani Road, Opposite Ravindra Natya Mandir, Prabhadevi",
    "lat": 19.0152703,
    "lng": 72.8297414
  },
  {
    "name": "400025 Anand Chaya Society, Tata Press Lane, Prabha Nagar Society, Prabhadevi",
    "lat": 19.0164365,
    "lng": 72.8272687
  },
  {
    "name": "400025 The Enclave, Appa Saheb Marathe Marg, Balasaheb Thackeray Ias Academy, Prabhadevi",
    "lat": 19.0123515,
    "lng": 72.8287101
  },
  {
    "name": "400025 Utkarsh Society, J A Marg, Off Sayani Road, Prabhadevi",
    "lat": 19.0123781,
    "lng": 72.8302095
  },
  {
    "name": "400025 Siddique Mohammad Chawl, Old Prabhadevi Road, Prabhadevi",
    "lat": 19.0149893,
    "lng": 72.8253309
  },
  {
    "name": "400025 Charak Building, Off Veer Savarkar Marg, Chavanni Maidan, Prabhadevi",
    "lat": 19.0134949,
    "lng": 72.8267654
  },
  {
    "name": "400025 Kamgar Nagar 2, New Prabhadevi Road, Kamgar Nagar 2, Prabhadevi",
    "lat": 19.0106956,
    "lng": 72.8284395
  },
  {
    "name": "400025 Texila Society, Twin Towers Lane, Prabhadevi",
    "lat": 19.0173805,
    "lng": 72.8280213
  },
  {
    "name": "400025 Purav House, Old Prabhadevi Road, Prabhadevi",
    "lat": 19.0164005,
    "lng": 72.8245707
  },
  {
    "name": "400025 Kamgar Nagar 1, New Prabhadevi Road, Kamgar Nagar 1, Prabhadevi",
    "lat": 19.0100917,
    "lng": 72.8275577
  },
  {
    "name": "400025 Satyavijay Chs, Hatiskar Marg, Old Prabhadevi Road, Prabhadevi",
    "lat": 19.0171049,
    "lng": 72.8240944
  },
  {
    "name": "400025 Adeshwar Building,  Khedgully, Sayani Road, Khedgully, Prabhadevi",
    "lat": 19.0134527,
    "lng": 72.8314992
  },
  {
    "name": "400025 Gandhar Building, Sayani Road, Near Rashtravadi Office, Prabhadevi",
    "lat": 19.0125588,
    "lng": 72.8306075
  },
  {
    "name": "400030 Kalikhan House,  Dhramraj Bhandu Cottage, Kesari Nath Buva Bhay Marg, Worli Village, Worli Village",
    "lat": 19.018923,
    "lng": 72.8184981
  },
  {
    "name": "400030 Arun Prakash Sangh, Kesari Nath Buva Bhay Marg, Worli Village, Worli Village",
    "lat": 19.0198335,
    "lng": 72.8172152
  },
  {
    "name": "400030 Arun Prakash Sangh,  Kranti Lane, Kesari Nath Buva Bhay Marg, Worli Village , Worli Village",
    "lat": 19.018923,
    "lng": 72.8184981
  },
  {
    "name": "400030 Behind Bpt Quartar, Kesari Nath Buva Bhay Marg, Behind Bpt Quarters,  Sai Baba Mandir, Janata Colony",
    "lat": 19.0176731,
    "lng": 72.8195136
  },
  {
    "name": "400030 Nr Bazar Gally, Kesari Nath Buva Bhay Marg, Worli Village, Worli Village",
    "lat": 19.018923,
    "lng": 72.8184981
  },
  {
    "name": "400030 Nr Bazar Lane, Kesari Nath Buva Bhay Marg, Near Fish Market, Worli Village",
    "lat": 19.018923,
    "lng": 72.8184981
  },
  {
    "name": "400030 Daware House, Kesari Nath Buva Bhay Marg, Sonapur Lane, Worli Village",
    "lat": 19.0211826,
    "lng": 72.8165091
  },
  {
    "name": "400030 Madkar House, Kesari Nath Buva Bhay Marg, Shreeram Lane, Worli Village",
    "lat": 19.018923,
    "lng": 72.8184981
  },
  {
    "name": "400030 Jana Nakhwa House, Kesari Nath Buva Bhay Marg, Gonta Lane, Worli Village",
    "lat": 19.0215985,
    "lng": 72.818139
  },
  {
    "name": "400030 Adarsh Nagar, Kesari Nath Buva Bhay Marg, Worli Village, Adarsh Nagar",
    "lat": 19.0147332,
    "lng": 72.8216371
  },
  {
    "name": "400030 Navneet Chowk,  Janata Colony, Kesari Nath Buva Bhay Marg, Worli Village, Janata Colony",
    "lat": 19.018923,
    "lng": 72.8184981
  },
  {
    "name": "400030 Navtarun Rahivashi Seva Sangh, Kesari Nath Buva Bhay Marg, Worli Village, Worli Village",
    "lat": 19.0015838,
    "lng": 72.8199296
  },
  {
    "name": "400030 Adarsh Nagar, Kesari Nath Buva Bhay Marg, Worli Village, Adarsh Nagar",
    "lat": 19.0147332,
    "lng": 72.8216371
  },
  {
    "name": "400030 Guru Datta Band Pathak, Kesari Nath Buva Bhay Marg, Behind 169 Busstop, Janata Colony",
    "lat": 19.0225731,
    "lng": 72.8172785
  },
  {
    "name": "400030 Adarsh Nagar, Kesari Nath Buva Bhay Marg, Adarsh Nagar, Adarsh Nagar",
    "lat": 19.0185886,
    "lng": 72.8188249
  },
  {
    "name": "400030 Gonta Lane, Sale House, Kesari Nath Buva Bhay Marg, Worli Village, Worli Village",
    "lat": 19.0215985,
    "lng": 72.818139
  },
  {
    "name": "400030 Adarsh Nagar, Kesari Nath Buva Bhay Marg, Worli Village, Adarsh Nagar",
    "lat": 19.0147332,
    "lng": 72.8216371
  },
  {
    "name": "400030 Adarsh Nagar, Kesari Nath Buva Bhay Marg, Worli Village, Adarsh Nagar",
    "lat": 19.0147332,
    "lng": 72.8216371
  },
  {
    "name": "400030 Devicha Oota, Janata Colony, Nr Big Hanuman Mandir, Kesari Nath Buva Bhay Marg, Behind Big Hanuman Mandir, Worli Village",
    "lat": 19.018923,
    "lng": 72.8184981
  },
  {
    "name": "400030 Katkar House, Kesari Nath Buva Bhay Marg, Worli Village, Worli Village",
    "lat": 19.018923,
    "lng": 72.8184981
  },
  {
    "name": "400030 Bpt Quarter, Kesari Nath Buva Bhay Marg, Worli Koliwada, Worli Village",
    "lat": 19.018923,
    "lng": 72.8184981
  },
  {
    "name": "400030 Ladkubai Chawal,  Pakhari Lane, Kesari Nath Buva Bhay Marg, Worli Koliwada,Worli Village",
    "lat": 19.0192948,
    "lng": 72.817824
  },
  {
    "name": "400030 Amar Sandesh,  Janata Colony, Kesari Nath Buva Bhay Marg, Worli Village, Janata Colony",
    "lat": 19.018923,
    "lng": 72.8184981
  },
  {
    "name": "400030 Hirasheth Chawal, Kesari Nath Buva Bhay Marg, Worli Koliwada, Worli Village",
    "lat": 19.018923,
    "lng": 72.8184981
  },
  {
    "name": "400030 Vikas Lane, Kesari Nath Buva Bhay Marg, Worli Village, Worli Village",
    "lat": 19.018923,
    "lng": 72.8184981
  },
  {
    "name": "400030 Achanak Krida Mandal, Kesari Nath Buva Bhay Marg, Worli Village, Worli Village",
    "lat": 19.0201258,
    "lng": 72.8166386
  },
  {
    "name": "400030 Varas Lane, Kesari Nath Buva Bhay Marg, Worli Village, Worli Village",
    "lat": 19.0171088,
    "lng": 72.8185834
  },
  {
    "name": "400030 Shivaji Nagar, Sasmira Marg, Sasmira College, Worli",
    "lat": 19.0104735,
    "lng": 72.8199137
  },
  {
    "name": "400030 Malkani Mahal,  Adarsh Nagar, Century Bazar, Worli Village",
    "lat": 19.0127975,
    "lng": 72.8223224
  },
  {
    "name": "400030 Near Janseva Balwadi, Kesarinath Buva Bhaye Marg, Golfadevi Road, Worli Koliwada",
    "lat": 19.0220964,
    "lng": 72.8175802
  },
  {
    "name": "400030 Transist Camp,  Mahakli Nagar, Hardikar Marg, Nr Sacred Heart School, Worli Koliwada",
    "lat": 19.0148034,
    "lng": 72.8193039
  },
  {
    "name": "400030 Gondekar House,  Golfadevi Road, Kesarinath Buva Bhaye Marg, Nr Golfadevi Temple, Worli Village",
    "lat": 19.0207648,
    "lng": 72.8172675
  },
  {
    "name": "400034 Goverment Colony, Haji Ali",
    "lat": 18.9802767,
    "lng": 72.8142511
  },
  {
    "name": "400051 Mk Patel Nagar, Naupada, Gulzar Nagar,  Bandra East",
    "lat": 19.0592646,
    "lng": 72.8404703
  },
  {
    "name": "400051 Nalanda Building, Aliyawar Jang Margh, Bandra East",
    "lat": 19.0678825,
    "lng": 72.8475063
  },
  {
    "name": "400051 Bharat Nagar East, Bkc, Bandra East",
    "lat": 19.0648073,
    "lng": 72.859485
  },
  {
    "name": "400051 Garib Nagar, Near Gate No. 18, Bandra East",
    "lat": 19.0556619,
    "lng": 72.8415249
  },
  {
    "name": "400051 Malan Galli, Behram Nagar,  Bandra East",
    "lat": 19.0552694,
    "lng": 72.8421051
  },
  {
    "name": "400051 Enabuy Galli, Behram Nagar,  Bandra East",
    "lat": 19.05961,
    "lng": 72.8552983
  },
  {
    "name": "400051 Siddharth Colony, Vijay Nagar,  Bandra East",
    "lat": 19.067758,
    "lng": 72.8481784
  },
  {
    "name": "400051 , Kherwadi,  Bandra East",
    "lat": 19.0586788,
    "lng": 72.8443768
  },
  {
    "name": "400051 Pragati Chawl, Shantilal Compound,  Khar (E)",
    "lat": 19.0643986,
    "lng": 72.8439321
  },
  {
    "name": "400051 ,  Jawahar Nagar,  Khar (E)",
    "lat": 19.0683073,
    "lng": 72.8449014
  },
  {
    "name": "400051 Gulmohar,  New Mig Colony,  Kherwadi,  Bandra East",
    "lat": 19.0580955,
    "lng": 72.8436091
  },
  {
    "name": "400051 Shivaji Nagar, Kherwadi,  Bandra East",
    "lat": 19.0611097,
    "lng": 72.8428705
  },
  {
    "name": "400051 Lohar Chawl, Shivaji Nagar,  Kherwadi,  Bandra East",
    "lat": 19.0611097,
    "lng": 72.8428705
  },
  {
    "name": "400051 New Momin Building (Sra), Behram Nagar,  Bandra East",
    "lat": 19.0544426,
    "lng": 72.8421097
  },
  {
    "name": "400051 Kadam Chawl, Teachers Colony,  Bandra East",
    "lat": 19.0701256,
    "lng": 72.8474254
  },
  {
    "name": "400051 Gandhi Nagar, Near Mig Club, Bandra (E)",
    "lat": 19.0575086,
    "lng": 72.8479929
  },
  {
    "name": "400051 Market Compound, Bharat Nagar,  Bandra (E)",
    "lat": 19.0657168,
    "lng": 72.8551034
  },
  {
    "name": "400051 Shasakiya, Vasahat, Nearkhearwadi Police Station, Bandra (E)",
    "lat": 19.0659476,
    "lng": 72.8502416
  },
  {
    "name": "400051 Kolsewadi Galli, Ak Marg,  Behram Nagar, Bandra (E)",
    "lat": 19.0547074,
    "lng": 72.8425543
  },
  {
    "name": "400051 Kherwadi, Dayama Marg, Bandra (E)",
    "lat": 19.06291,
    "lng": 72.842455
  },
  {
    "name": "400051 Shahjeevan Chs, Kher Nagar, Mhb Colony, Bandra (E)",
    "lat": 19.061133,
    "lng": 72.846583
  },
  {
    "name": "400055 Hinga Galli, Beharam Nagar, Bandra East",
    "lat": 19.0803885,
    "lng": 72.8468571
  },
  {
    "name": "400055 Basera Soc, Bkc, Bandra East",
    "lat": 19.062464,
    "lng": 72.858188
  },
  {
    "name": "400055 Rajak Chawl, Opp. Golden Bakery, Bandra East",
    "lat": 19.0567414,
    "lng": 72.8416511
  },
  {
    "name": "400055 Makran Galli,  Behram Nagar, Bandra East",
    "lat": 19.0803885,
    "lng": 72.8468571
  },
  {
    "name": "400055 Kunchikorve Nagar,  Kalina, Santacruz East",
    "lat": 19.0618698,
    "lng": 72.8383276
  },
  {
    "name": "400055 Deepnarayan Shukla Chawl, Near Tabela, Santacruz East",
    "lat": 19.0803885,
    "lng": 72.8468571
  },
  {
    "name": "400055 Dyaneshwar Nagar, Bandra East",
    "lat": 19.0652541,
    "lng": 72.8526522
  },
  {
    "name": "400055 Gajanan Rahivasi Sangh,  New Agripada, Santacruz East",
    "lat": 19.086855,
    "lng": 72.845545
  },
  {
    "name": "400055 Jai Ma Sharada Rahivasi Sevak,  Dnyaneshwar Nagar, Nalaside, Bandra East",
    "lat": 19.0678032,
    "lng": 72.8507249
  },
  {
    "name": "400055 Mahakali Shivshankar Nagar, New Agripada, Santacruz East",
    "lat": 19.0856942,
    "lng": 72.8463168
  },
  {
    "name": "400055 Sanjivani Society,  Jawar Nagar, Golibar Rd, Khar East",
    "lat": 19.0719387,
    "lng": 72.8450967
  },
  {
    "name": "400055 Garib Nagar, Bandra East",
    "lat": 19.0553207,
    "lng": 72.8414857
  },
  {
    "name": "400055 Bharat Nagar, Bandra East",
    "lat": 19.0648073,
    "lng": 72.859485
  },
  {
    "name": "400055 Sudhir Apartment,  Yashwant Nagar, Vakola Pipeline, Santacruz East",
    "lat": 19.0766091,
    "lng": 72.8535269
  },
  {
    "name": "400055 Prabhat Colony,  Navpada, Santacruz East",
    "lat": 19.0871685,
    "lng": 72.8430551
  },
  {
    "name": "400055 Pathar Nagar, Bandra East",
    "lat": 19.0633392,
    "lng": 72.8569461
  },
  {
    "name": "400055 Telugu Niwas Seva Committee, Golibar 6Th Road, Santacruz East",
    "lat": 19.079334,
    "lng": 72.8429432
  },
  {
    "name": "400055 Kolekalyan Police Vasahat, Kadamwadi, Santacruz East",
    "lat": 19.0771317,
    "lng": 72.8575902
  },
  {
    "name": "400055 Gokul Chs,  Kalanagar, Road No 2., Near Mig Cricket Club, Bandra East",
    "lat": 19.0589049,
    "lng": 72.8475323
  },
  {
    "name": "400055 Hanuman Tekdi, Golibar, Santacruz East",
    "lat": 19.0765335,
    "lng": 72.8445321
  },
  {
    "name": "400055 Indira Nagar Gav Devi Pipeline, Lobo Chawl,  Vakola, Santacruz East",
    "lat": 19.0824437,
    "lng": 72.8522009
  },
  {
    "name": "400055 , Near Niramal Nagar Police Chowky, Khar East",
    "lat": 19.0660036,
    "lng": 72.8447688
  },
  {
    "name": "400055 Titanic Building,  Govt Colony, Maharastra Nager, Bandra East",
    "lat": 19.0803885,
    "lng": 72.8468571
  },
  {
    "name": "400055 Sant Dnyaneshwar Nagar, Bandra East",
    "lat": 19.0630805,
    "lng": 72.8541326
  },
  {
    "name": "400055 Adarsh Seva Sangh Committie, Vakola Pipeline,  Subhash Nagar, Santacruz East",
    "lat": 19.0824437,
    "lng": 72.8522009
  },
  {
    "name": "400055 Dnyaneshwar Nagar, Galli No 75, Bandra East",
    "lat": 19.0803885,
    "lng": 72.8468571
  },
  {
    "name": "400055 Bharat Nagar, Valmiki Nagar, Bandra East",
    "lat": 19.0659847,
    "lng": 72.8594875
  },
  {
    "name": "400055 Asian Hear Institution, Bandra Kurla Complex, Bandra East",
    "lat": 19.0655735,
    "lng": 72.8609409
  },
  {
    "name": "400055 Kamala Habitat, Sundar Nagar, Santacruz East",
    "lat": 19.0745995,
    "lng": 72.8630713
  },
  {
    "name": "400055 Laxmi Sadan, Vakola Masjid, Santacruz East",
    "lat": 19.081838,
    "lng": 72.855654
  },
  {
    "name": "400055 Gov. Colony, Bandra East",
    "lat": 19.0605737,
    "lng": 72.8504402
  },
  {
    "name": "400055 Jawaharnagar, Santacruz East",
    "lat": 19.0683073,
    "lng": 72.8449014
  },
  {
    "name": "400055 Bhinde Shop,  Kherwadi Road, Opp Hotel Cafe Sahil, Bandra East",
    "lat": 19.0571796,
    "lng": 72.8418889
  },
  {
    "name": "400055 Mansoon Manjil, Naupada, Opp Public Bridge, Bandra East",
    "lat": 19.121755,
    "lng": 72.8470618
  },
  {
    "name": "400055 Dilshad Manzil, Naupada, Bandra Terminius, Bandra East",
    "lat": 19.0635747,
    "lng": 72.8404703
  },
  {
    "name": "400055 Raja Bashinde Chawl, Kalina, Santacruz East",
    "lat": 19.0803885,
    "lng": 72.8468571
  },
  {
    "name": "400055 Maharastra Nager, Bandra East",
    "lat": 19.0803885,
    "lng": 72.8468571
  },
  {
    "name": "400055 Manohar Compound, Near Ratna Hotel, Khar East, Khar East",
    "lat": 19.068513,
    "lng": 72.8420429
  },
  {
    "name": "400055 Khatija Bhai Chapel, Golibar Majsid Road, Near Railway Line, Santacruz East",
    "lat": 19.0757665,
    "lng": 72.8409138
  },
  {
    "name": "400055 Resident Quart, V N Desai Hospital, Santacruz East",
    "lat": 19.0788205,
    "lng": 72.8450327
  },
  {
    "name": "400055 Gaiwali Chapel,  Gate No 4,  Daory Nagar, Santacruz East",
    "lat": 19.0803885,
    "lng": 72.8468571
  },
  {
    "name": "400055 Gaikar Chawl, Shri Krishna Nagar, Santacruz East",
    "lat": 19.0803885,
    "lng": 72.8468571
  },
  {
    "name": "400055 Vijay Nagar, Mhb Colony, Bandra East",
    "lat": 19.0286425,
    "lng": 72.8718767
  },
  {
    "name": "400055 Bharat Nagar, Bandra East",
    "lat": 19.0648073,
    "lng": 72.859485
  },
  {
    "name": "400055 Bkc, Bharat Nagar, Bandra East",
    "lat": 19.0648073,
    "lng": 72.859485
  },
  {
    "name": "400055 Sai Nath Chawl,  Committee, 6Th Road,  Golibar, Near V.N. Desai Hospital, Santacruz East",
    "lat": 19.0788205,
    "lng": 72.8450327
  },
  {
    "name": "400055 Sanjeevani Chs, Golibar Road,  Jawhar Nagar, Santacruz East",
    "lat": 19.0726482,
    "lng": 72.8442637
  },
  {
    "name": "400055 Trimurti Chawl, Bharadwaj Nagar,  Santacruz East",
    "lat": 19.0800005,
    "lng": 72.8544803
  },
  {
    "name": "400055 Police Chawl,  Maratha Colony, Indira Nagar,  Khar East",
    "lat": 19.0735214,
    "lng": 72.8455416
  },
  {
    "name": "400055 Hajiki Chawl Behram Nagar,  Noor Jha Gate, Bandra East",
    "lat": 19.0803885,
    "lng": 72.8468571
  },
  {
    "name": "400055 Kalina Military Compound, Kalina, Santacruz East",
    "lat": 19.081813,
    "lng": 72.8581419
  },
  {
    "name": "400055 Ram Raj Sharma Chawl, Ambedkar Road, Near Nirmal Nagar Police Station, Khar East",
    "lat": 19.0660036,
    "lng": 72.8447688
  },
  {
    "name": "400055 Navjivan Rahiwasi Sangh, Dawari Ngar,  Gate No 1,  Santacruz East",
    "lat": 19.0796099,
    "lng": 72.848924
  },
  {
    "name": "400055 Indira Nagar, Gaondevi,  Vakola,  Santacruz (E)",
    "lat": 19.0844341,
    "lng": 72.8548586
  },
  {
    "name": "400055 Regency Hotel, Western Express Highway, Vakola Junction, Santacruz East",
    "lat": 19.0797313,
    "lng": 72.8464174
  },
  {
    "name": "400055 Rizvi Building, Shastri Nagar,  Santacruz East",
    "lat": 19.0778853,
    "lng": 72.8701851
  },
  {
    "name": "400055 Siddhivinayak Rahiwasi Sangh, Santacruz East",
    "lat": 19.0168159,
    "lng": 72.8302491
  },
  {
    "name": "400055 Kalyani Niwas, Neharu Road, Vakola Masjid, Santacruz East",
    "lat": 19.0815458,
    "lng": 72.8554061
  },
  {
    "name": "400055 Vigneshwar Rishikesh Marg, Vakola Pipeline, Gaondevi,  Santacruz East",
    "lat": 19.0844341,
    "lng": 72.8548586
  },
  {
    "name": "400055 Sai Kreeda Mandal,  Near Subway, Bhurutwaj Nagar,  Aagripada,  Santacruz East",
    "lat": 19.0860135,
    "lng": 72.8460091
  },
  {
    "name": "400055 Siddhivinyak Rahiwasi Sangh, Agripada,  Santacruz East",
    "lat": 19.0860135,
    "lng": 72.8460091
  },
  {
    "name": "400055 Nav Vikas Chawl, Golibar 5Th Road, Santacruz East",
    "lat": 19.078728,
    "lng": 72.84286
  },
  {
    "name": "400055 Rabia Bi Ki Chaw, Golibar Masjid Road, Railway Line,  Santacruz East",
    "lat": 19.0750984,
    "lng": 72.842303
  },
  {
    "name": "400055 Dongar Bhartiya Chawl, St. Merry Church,  Santacruz East",
    "lat": 19.0456311,
    "lng": 72.8566745
  },
  {
    "name": "400055 Doctor Chawl, Gate No. 3, Daowre Nagar,  Santacruz East",
    "lat": 19.0803885,
    "lng": 72.8468571
  },
  {
    "name": "400055 G. C. Appartment, Near Bharat Co. Op. Bank, Santacruz East",
    "lat": 19.0805105,
    "lng": 72.8508574
  },
  {
    "name": "400055 Rambahdur Yadav Chawl, Golibar,  Santacruz East",
    "lat": 19.0773446,
    "lng": 72.8439249
  },
  {
    "name": "400055 Sonawne Chawl, Hanuman Tekdi,  Santacruz East",
    "lat": 19.0765335,
    "lng": 72.8445321
  },
  {
    "name": "400055 Kamlakar Patil Chawl, Near Gaon Devi Mandir, New Agripada,  Santacruz (East)",
    "lat": 19.08559,
    "lng": 72.845901
  },
  {
    "name": "400055 Shri Ram Chawl Committee, 6Th Road, Hanuman Tekdi,  Santacruz (East)",
    "lat": 19.079334,
    "lng": 72.8429432
  },
  {
    "name": "400055 Baburao Gupta Chawl, Hanuman Tekdi,  Santacruz (East)",
    "lat": 19.0765335,
    "lng": 72.8445321
  },
  {
    "name": "400055 Aziz Chawl, 7Th Road, Golibar,  Santacruz (East)",
    "lat": 19.0770493,
    "lng": 72.8425412
  },
  {
    "name": "400055 Gate No. 2, Near Buddha Vihar, Hanuman Tekdi,  Santacruz (East)",
    "lat": 19.0765335,
    "lng": 72.8445321
  },
  {
    "name": "400055 Hanman Tekdi,  Gate No 2, Sarnath Vihar, Santacruz East",
    "lat": 19.0771314,
    "lng": 72.8465438
  },
  {
    "name": "400055 Sagar Regency Bldg, Dhobhighat, Vakola, Santacruz East",
    "lat": 19.082859,
    "lng": 72.8484785
  },
  {
    "name": "400055 Linnett Chsl, Kalina, Santacruz East",
    "lat": 19.0803885,
    "lng": 72.8468571
  },
  {
    "name": "400055 Dathaguru Rahi Vasi Seva Sangh, Ram Shankar Chawl, Pipeline, Khar East",
    "lat": 19.0716597,
    "lng": 72.8439889
  },
  {
    "name": "400098 Kunchikurve Nagar, Kalina,  Santacruz (E)",
    "lat": 19.0772351,
    "lng": 72.870748
  },
  {
    "name": "400098 Ghadiyal Chawl, Shashi Nagar,  Kalina,  Santacruz East",
    "lat": 19.0731479,
    "lng": 72.8415025
  },
  {
    "name": "400098 Gold Star Appartment,  C.S.T. Road, Santacruz East",
    "lat": 19.0744458,
    "lng": 72.8707427
  },
  {
    "name": "400098 Shri Ram Tailor Chawl, Shastri Nagar,  Kalina,  Santacruz East",
    "lat": 19.077981,
    "lng": 72.874809
  },
  {
    "name": "400098 Vishwakarma Chawl, Kadam Wadi,  Kalina,  Santacruz (East)",
    "lat": 19.0785189,
    "lng": 72.857825
  },
  {
    "name": "400050 K'Sara Bldg, Perry Road, Opp Bank Of India, Bandra (West)",
    "lat": 19.048251,
    "lng": 72.826151
  },
  {
    "name": "400050 Slaughter House Compound, Maharashtra Road, Near Bandra Bus Depot, Bandra (West)",
    "lat": 19.0535533,
    "lng": 72.8384855
  },
  {
    "name": "400050 God Gifts Tower, Hill Road, Lucky Hotel, Bandra (West)",
    "lat": 19.0538922,
    "lng": 72.8377147
  },
  {
    "name": "400050 Niravana Apartment, 4Th Road, Opp Bhabha Hospital, Bandra (West)",
    "lat": 19.0574544,
    "lng": 72.833645
  },
  {
    "name": "400050 Lokhandwala Building, S.V. Road, Near Bandra Talao, Bandra (West)",
    "lat": 19.0555745,
    "lng": 72.8380239
  },
  {
    "name": "400050 Maulanan Baba Lane, S.V. Road, Behind Jama Masjid, Bandra (West)",
    "lat": 19.0556616,
    "lng": 72.8367235
  },
  {
    "name": "400050 Ranwar Village, Veronica Street, Ranwar Sqaure, Bandra (West)",
    "lat": 19.0527463,
    "lng": 72.8277819
  },
  {
    "name": "400050 Lilavati Hostel, K C Marg, Bandra Reclamation, Bandra (West)",
    "lat": 19.0516491,
    "lng": 72.8314451
  },
  {
    "name": "400050 Jamate-E-Jamooriya Chs, K C Marg, Bandra Reclamation, Bandra (West)",
    "lat": 19.0514802,
    "lng": 72.8311603
  },
  {
    "name": "400050 Hardik Villa, Sherly Rajan Road, Near Rizvi College, Bandra (West)",
    "lat": 19.0672758,
    "lng": 72.8252467
  },
  {
    "name": "400050 Madamwadi Chawl, Madhavrao Sawant Road, Lucky Hotel, Bandra (West)",
    "lat": 19.0538922,
    "lng": 72.8377147
  },
  {
    "name": "400050 Ali Yavar Jung National Institute Of Speech And Hearing Disabilities (Divyangjan) Hostel, K C Marg, Bandra Reclamation, Bandra (West)",
    "lat": 19.0516221,
    "lng": 72.8355377
  },
  {
    "name": "400050 Khokar Mansion, D'Monte Street, Bandra (West)",
    "lat": 19.0543697,
    "lng": 72.8336883
  },
  {
    "name": "400050 Nargis Dutt Nagar, K C Marg, Bandra Reclamation, Bandra (West)",
    "lat": 19.051638,
    "lng": 72.8314355
  },
  {
    "name": "400050 Amrit Building, Carter Road, Cafe Coffee Day Hotel, Bandra (West)",
    "lat": 19.0705215,
    "lng": 72.82271
  },
  {
    "name": "400050 Rajiv Nagar, Bazar Road, Near Noorani Masjid, Bandra (West)",
    "lat": 19.0543697,
    "lng": 72.8336883
  },
  {
    "name": "400052 Ellora Apartment, 4Th Road, Opposite D Sharma Punjab Hotel, Khar (West)",
    "lat": 19.068389,
    "lng": 72.8386531
  },
  {
    "name": "400052 Warinpada, Ram Mandir Road, Khar Danda, Khar (West)",
    "lat": 19.074729,
    "lng": 72.8228243
  },
  {
    "name": "400052 Rajgruha Chs, 20Th Road, Khar (W)",
    "lat": 19.0725952,
    "lng": 72.8281241
  },
  {
    "name": "400052 Lumbini Chs, 20Th Road, Khar (W)",
    "lat": 19.0724784,
    "lng": 72.8280665
  },
  {
    "name": "400052 Amba Apartment, 5Th Road, Behind Gupte Hospital, Khar (W)",
    "lat": 19.0716531,
    "lng": 72.8377126
  },
  {
    "name": "400052 Bawa Hotel, Linking Road, Khar (W)",
    "lat": 19.0692115,
    "lng": 72.8334311
  },
  {
    "name": "400052 Madhlapada, Govinf Patil Road, Khar Danda, Khar (W)",
    "lat": 19.0754705,
    "lng": 72.8244105
  },
  {
    "name": "400054 Nav Yuvak Seva Samiti,  Pawar Chawl, S B Patil Marg, Gazdharbandh, Santacruz (West)",
    "lat": 19.0818313,
    "lng": 72.8306176
  },
  {
    "name": "400054 Police Quarters, S.V. Road, Near Poddar School, Santacruz (West)",
    "lat": 19.0840704,
    "lng": 72.8380186
  },
  {
    "name": "400054 Pranav Chs, Juhu Tara Road, Santacruz (West)",
    "lat": 19.0850431,
    "lng": 72.8334127
  },
  {
    "name": "400054 Omeez Building, Dattatraya Road, Sarla Hospital, Santacruz (West)",
    "lat": 19.0857183,
    "lng": 72.8367826
  },
  {
    "name": "400054 Siddhivinayak Galli, S B Patil Marg, Siddhivinayak Temple, Santacruz (West)",
    "lat": 19.0803094,
    "lng": 72.8296787
  },
  {
    "name": "400054 New Venus Chs, Dadabhai Cross Road No. 01, Linking Road Extension, Santacruz (West)",
    "lat": 19.0868642,
    "lng": 72.8329967
  },
  {
    "name": "400054 Rest Room,  Santacruz (W) Bus Depot, Saneguruji Marg,  Santacruz (W) Bus Depot, Santacruz (West)",
    "lat": 19.0894247,
    "lng": 72.836971
  },
  {
    "name": "400050 Aliyavar,  Jung Mar,  Shastri Nagar, Vile Parle East",
    "lat": 19.1656736,
    "lng": 72.8585435
  },
  {
    "name": "400057 Padmavati, Azad Road, Vile Parle E",
    "lat": 19.0952559,
    "lng": 72.8437654
  },
  {
    "name": "400057 Shivshakti, Shraddhanand Road, Vileparle East",
    "lat": 19.095799,
    "lng": 72.84647
  },
  {
    "name": "400057 Hill View Apartment, N. P. Thakkar Road, Vileparle East",
    "lat": 19.0938626,
    "lng": 72.8448473
  },
  {
    "name": "400057 Vishnu Villa, Nariman Road, Vileparle East",
    "lat": 19.0964137,
    "lng": 72.8491605
  },
  {
    "name": "400057 Harish Society Hostel, Dixit Road, Behind Sathey Collage, Vile Parle E",
    "lat": 19.099185,
    "lng": 72.8501767
  },
  {
    "name": "400057 Durvankur Society, Shahaji Raje Road, 0, Vile Parle East",
    "lat": 19.108517,
    "lng": 72.8475045
  },
  {
    "name": "400057 Swapnashilp Society, Mahant Road, 0, Vile Parle East",
    "lat": 19.1024474,
    "lng": 72.8472454
  },
  {
    "name": "400057 Fernandes Street, Tejpal Road, Vile Parle E",
    "lat": 19.0999596,
    "lng": 72.8445231
  },
  {
    "name": "400059 Sevenhills Hospital Residential Quarters, Marol Maroshi Road, Andheri East",
    "lat": 19.1179997,
    "lng": 72.8780374
  },
  {
    "name": "400059 Kurban Chawl,  Parsiwada, Chakala, Infront Of Ratna Mahal Hotel, Andheri East",
    "lat": 19.1081614,
    "lng": 72.8590061
  },
  {
    "name": "400059 Marol Police Camp, Andheri East",
    "lat": 19.1248135,
    "lng": 72.8834205
  },
  {
    "name": "400059 Kadamwadi, Marol Pipeline, Andheri Kurla",
    "lat": 19.1065634,
    "lng": 72.8685891
  },
  {
    "name": "400060 , Koliwada, Jogeshwari East",
    "lat": 19.1320441,
    "lng": 72.8556468
  },
  {
    "name": "400060 Premnagar, Madarsa Masjid,  Fish Maket, Jogeshwari East",
    "lat": 19.1346017,
    "lng": 72.8581202
  },
  {
    "name": "400060 Al Faqir Mohhamed Chawl, Francis Wad, Jogeshwari East",
    "lat": 19.1367927,
    "lng": 72.8579095
  },
  {
    "name": "400060 Radhabai Chawl,  Jhula Maidan, Jhula Maidan, Meghwadi, Jogeshwari East",
    "lat": 19.1340804,
    "lng": 72.8577093
  },
  {
    "name": "400060 Masjid Je, Near Gushan Madina, Jogeshwari East",
    "lat": 19.1348032,
    "lng": 72.8600702
  },
  {
    "name": "400060 Masjid Thakur Maidan Communist Party Galli Je, Prem Nagar",
    "lat": 19.1340961,
    "lng": 72.858778
  },
  {
    "name": "400069 Suhana Building,  Gundavali, In Front Of Kamgar Kalyan Kendra, Andheri East",
    "lat": 19.119449,
    "lng": 72.853599
  },
  {
    "name": "400069 Damodar Chawle, Mogra Pada, Andheri East",
    "lat": 19.117753,
    "lng": 72.8737017
  },
  {
    "name": "400069 Kalekhan Chawl,  Mograpada, Andheri East",
    "lat": 19.12493,
    "lng": 72.848854
  },
  {
    "name": "400069 Tirupati Balaji, Sahar Rd, Saiwadi, Andheri East Mumbai",
    "lat": 19.1124898,
    "lng": 72.8491129
  },
  {
    "name": "400069 Sitaram Mithai Wala Chawl, Mogara Pada, Andheri East",
    "lat": 19.117753,
    "lng": 72.8737017
  },
  {
    "name": "400093 Guru Arjun Dev Chs, Mahakali Caves Road, Bindra Complex, Andheri East",
    "lat": 19.1282142,
    "lng": 72.8692826
  },
  {
    "name": "400093 Govind Wadi Sra,  Chakala, Behind Darpan Talkies, Andheri East",
    "lat": 19.1282743,
    "lng": 72.8677092
  },
  {
    "name": "400099 Sakina Bhai Chawle,  Chakala, Chakala, Near Bhaji Market Parshi Wada, Andheri East",
    "lat": 19.1098814,
    "lng": 72.854955
  },
  {
    "name": "400099 Sai Baba Chawle, 0, Dr. Rajendra Prasad Nagar, Vile Parle East",
    "lat": 19.0912396,
    "lng": 72.8461938
  },
  {
    "name": "400099 Mahatma Phule Nagar, 0, Bamanwada, Vile Parle East",
    "lat": 19.1028711,
    "lng": 72.8597237
  },
  {
    "name": "400099 Bihari Chawl,  Mahatma Kabir Nagar, Chakala, Sahar Road, Near Cigarette Factory, Andheri East",
    "lat": 19.1053426,
    "lng": 72.8607379
  },
  {
    "name": "400099 Balu Patil Chawl,  Tank View, Sahar Village, Andheri (E)",
    "lat": 19.0994054,
    "lng": 72.8686461
  },
  {
    "name": "400047 Samta Nagar, Barfiwala Road, Juhu Galli, Andheri West",
    "lat": 19.1161386,
    "lng": 72.8402503
  },
  {
    "name": "400047 Dinkar Chawl,  Gaondevi Dongari, Cama Road, Andheri West",
    "lat": 19.1202343,
    "lng": 72.8437199
  },
  {
    "name": "400049 Idbi Quarter, Juhu Road, Maker Kundan Garden, Santacruz West",
    "lat": 19.0860345,
    "lng": 72.8292143
  },
  {
    "name": "400049 Sanjay Plaza, A B Nair Road,  Juhu, Andheri West",
    "lat": 19.1108221,
    "lng": 72.8250992
  },
  {
    "name": "400049 D.C House, 10Th Road, Jvpd,  Juhu, Andheri West",
    "lat": 19.1141793,
    "lng": 72.8288335
  },
  {
    "name": "400049 Shivaji Nagar, Juhu Versova Link Road, Kapaswadi, Andheri West",
    "lat": 19.0911817,
    "lng": 72.8286535
  },
  {
    "name": "400049 Ruia Park,  Military Camp, J R Mhatre Road, Near Saibaba Mandir, Juhu",
    "lat": 19.3016557,
    "lng": 72.8615365
  },
  {
    "name": "400049 Chand Soc., Behind Arogya Nidhi Hospital, Juhu",
    "lat": 19.1117245,
    "lng": 72.8282733
  },
  {
    "name": "400049 Z Luxury Residences, Devle Road, Pvr Juhu, Andheri West",
    "lat": 19.1160343,
    "lng": 72.8259524
  },
  {
    "name": "400049 Apna Cottage, Juhu Tara Road, Royal Hotel, Santacruz West",
    "lat": 19.0910565,
    "lng": 72.8279179
  },
  {
    "name": "400049 Juhu Goathan, Off N.S Road No.13, Near Juhu Bus Depo, Andheri West",
    "lat": 19.1078266,
    "lng": 72.8266427
  },
  {
    "name": "400053 Gulab Pani Wali Chawl,  Gaondevi Dongari, Cama Road, Near Noor Masjid, Andheri West",
    "lat": 19.1202343,
    "lng": 72.8437199
  },
  {
    "name": "400053 Lalasaheb Wali Chawl, Farooqia Gilburt Hill Road,  Near Tashkan Bekary, Andheri West",
    "lat": 19.1173149,
    "lng": 72.839705
  },
  {
    "name": "400053 Rajkumar Chawl, Neharu Nagar, Vileparle West",
    "lat": 19.1071283,
    "lng": 72.8367535
  },
  {
    "name": "400053 Murgan Chawl, Neharu Nagar, Vileparle West",
    "lat": 19.1016803,
    "lng": 72.8359686
  },
  {
    "name": "400053 Shree Darshan Building, S.V.P Mhada, Versova Telephone Exchange, Andheri West",
    "lat": 19.1357139,
    "lng": 72.8215188
  },
  {
    "name": "400053 Seema Building, N.Datta Marg, Four Bunglow, Andheri West",
    "lat": 19.1232198,
    "lng": 72.8264286
  },
  {
    "name": "400053 Dost Mohd Lala Chawl, J.P Road, Dhake Colony, Andheri W",
    "lat": 19.1277413,
    "lng": 72.8330106
  },
  {
    "name": "400053 Mayfair Marriadion, Ceaser Road, Andheri West",
    "lat": 19.128008,
    "lng": 72.8432734
  },
  {
    "name": "400053 Sawant Chawl, Off J.P Road, Tape Dargah, Andheri West",
    "lat": 19.1289608,
    "lng": 72.8340333
  },
  {
    "name": "400054 Naima Manzil,  K.K Ganguli Marg, Juhu Tara Road, Hare Krishna Super Market,Santacruz West",
    "lat": 19.0916815,
    "lng": 72.8286779
  },
  {
    "name": "400054 Juhu Residency Hotel., Juhu Tara Road, Santacruz West",
    "lat": 19.1011399,
    "lng": 72.8274153
  },
  {
    "name": "400056 Juhu Police Station, V M Road, Near Kalaniketan, Vileparle West",
    "lat": 19.1031552,
    "lng": 72.8327066
  },
  {
    "name": "400056 Raman Chawl, B M Road, Nehru Nagar, Vileparle West",
    "lat": 19.1044973,
    "lng": 72.8395011
  },
  {
    "name": "400056 Manikam Chawl, Vile Parle West",
    "lat": 19.1044973,
    "lng": 72.8395011
  },
  {
    "name": "400056 Ambe Mata, Neharu Nagar, Vile Parle West",
    "lat": 19.101453,
    "lng": 72.837105
  },