markers=[
  {
    "name": "A 400001 M.R.A. Police Quarters,M.R.A. Road,Fort",
    "lat": 18.9459379,
    "lng": 72.8352403
  },
  {
    "name": "A 400001 M.R.A. Bmc Colony,M.R.A. Road,Fort",
    "lat": 18.9345189,
    "lng": 72.8371021
  },
  {
    "name": "A 400005 Ganeshmurthi Nagar Part No 2,Captain Prakash Pethe Marg,Colaba",
    "lat": 18.9106313,
    "lng": 72.8154939
  },
  {
    "name": "A 400005 Ganeshmurthi Nagar Part No 1,3,Captain Prakash Pethe Marg,Colaba",
    "lat": 18.9179289,
    "lng": 72.8247587
  },
  {
    "name": "A 400005 Shivshakti Nagar,Free Press Journal Road,Nariman Point,Colaba",
    "lat": 18.924775,
    "lng": 72.8251447
  },
  {
    "name": "A 400005 Sunder Nagar,Indumati Sakrikar Marg,Near Colaba Market,Colaba",
    "lat": 18.9197182,
    "lng": 72.8298531
  },
  {
    "name": "A 400005 Geeta Nagar,Dr Homi Bhabha Road,Near Navy Nagar,Colaba",
    "lat": 18.9076984,
    "lng": 72.8105298
  },
  {
    "name": "A 400005 Ambedkar Nagar,Capt. Prakash Pethe Marg,Colaba",
    "lat": 18.9134577,
    "lng": 72.8208046
  },
  {
    "name": "A 400005 Azad Nagari,Lala Nigam Road,Colaba",
    "lat": 18.9144123,
    "lng": 72.8301615
  },
  {
    "name": "B 400003 Nobel Tower,Zakeria Masjid Street,Near Hotel Hayat,Mandvi",
    "lat": 18.9554088,
    "lng": 72.8347697
  },
  {
    "name": "B 400003 Parveen Manzil,Dontaad Street,Near Zakeria Masjid,Pydhonie",
    "lat": 18.9541012,
    "lng": 72.8346721
  },
  {
    "name": "B 400003 Hazira Masion,Samuel Street,Opp. Hotel Al-Rehmaniya,Masjid Railway Station (W)",
    "lat": 18.9518278,
    "lng": 72.8382898
  },
  {
    "name": "B 400003 Parsi Chawl,Nagdevi Street,Opp. Crawford Market, Near Vip Bags Showroom,Crowford Market",
    "lat": 18.9508026,
    "lng": 72.8339729
  },
  {
    "name": "B 400003 Vanjira Building,Memonwada Road,Near Minara Masjid,Dongri",
    "lat": 18.9602105,
    "lng": 72.8305489
  },
  {
    "name": "B 400003 Latif House,Kambekar Street,Mandvi",
    "lat": 18.9554189,
    "lng": 72.8338458
  },
  {
    "name": "B 400009 K J Gandhi Warehouse,Masjid Siding Road,Near Shankar Vilas Hindu Hotel,Masjid Railway Station (E)",
    "lat": 18.9501833,
    "lng": 72.838921
  },
  {
    "name": "B 400009 Noor Building,Nishanpada Road,Near Noor Masjid,Umerkhadi",
    "lat": 18.958319,
    "lng": 72.835616
  },
  {
    "name": "B 400009 Police Quarters,Imamwada Road,Near Memonwada Fire Station,Bhendi Bazar",
    "lat": 18.9579624,
    "lng": 72.8327018
  },
  {
    "name": "B 400009 Bismillah Building,Zakeria Masjid Street,Khadak,Dongri",
    "lat": 18.9549518,
    "lng": 72.8344932
  },
  {
    "name": "B 400009 Sydenham B.I.T. Chawl,Ibrahim Rahimtula Road,Near Hp Petrol Pump,Umerkhadi",
    "lat": 18.960154,
    "lng": 72.8391317
  },
  {
    "name": "B 400009 City Arcade,Samant Bhai Nanji Marg,Near Kgn Homoeopathic Health Clinic,Dongri",
    "lat": 18.9597509,
    "lng": 72.837815
  },
  {
    "name": "B 400009 Rehmatbhai Habib House,Navroji Hill Road No.2,Behind Habib Hospital,Dongri",
    "lat": 18.9597935,
    "lng": 72.8368875
  },
  {
    "name": "B 400009 Aga Khan Building,Tatanpura Street,Opp Dar-Ul-Madinah Islamic English Medium School,Dongri",
    "lat": 18.9597509,
    "lng": 72.837815
  },
  {
    "name": "B 400009 Mcgm B Ward Labour Staff Quarters,Babula Tank Cross Lane,Mcgm B Ward,Umerkhadi",
    "lat": 18.9614551,
    "lng": 72.8333212
  },
  {
    "name": "B 400009 Laxminarayan Chs,Imamwada Rd,Near Mughal Masjid,Umerkhadi",
    "lat": 18.9593674,
    "lng": 72.8333531
  },
  {
    "name": "B 400009 Jolly Chamber Building,Navroji Hill Road No. 1,Near Cafe Islam,Dongri",
    "lat": 18.9589707,
    "lng": 72.8377555
  },
  {
    "name": "B 400009 Police Line Building,Sardar Vallabhbhai Patel Road,Opp. Memonwada Fire Station,Bhendi Bazar",
    "lat": 18.9579624,
    "lng": 72.8327018
  },
  {
    "name": "B 400009 Dastagir Masion,Nishanpada Cross Lane,Near Bombay Central Dairy,Dongri",
    "lat": 18.9563883,
    "lng": 72.835781
  },
  {
    "name": "B 400009 Madavi Police Qrts.,Mohd Ali Road,Opp. Mandvi Post Office,Bhendi Bazar",
    "lat": 18.9568126,
    "lng": 72.8323813
  },
  {
    "name": "B 400009 Sauda Heights,Dr. Meisheri Road,Opp. Sandhurst Road Railway Station,Dongri",
    "lat": 18.9607549,
    "lng": 72.8384027
  },
  {
    "name": "B 400009 Sami Chawl,Tantanpura Street,Opp. Dar-Ul Madinah Islamic School,Dongri",
    "lat": 18.955321,
    "lng": 72.8358601
  },
  {
    "name": "B 400009 Mimson House,Lokmanya Tilak Marg,Near Airtel Gallery,Crawford Market",
    "lat": 18.9485749,
    "lng": 72.8356188
  },
  {
    "name": "B 400009 Ismail Habib Building,M. A. Sarang Marg,Near Baba Dargah,Dongri",
    "lat": 18.9568075,
    "lng": 72.8343405
  },
  {
    "name": "B 400009 Tawakkal Masion,Nishanpada Road,Dongri",
    "lat": 18.9587993,
    "lng": 72.8361776
  },
  {
    "name": "B 400009 Baig Mohd. Building,Ramchandra Bhatt Marg,Near J.J. Hospital Gate No. 6,Dongri",
    "lat": 18.9630684,
    "lng": 72.8336083
  },
  {
    "name": "B 400009 Master Building,M. A. Sarang Marg,Near Amber Sweets,Dongri",
    "lat": 18.9558068,
    "lng": 72.8365931
  },
  {
    "name": "B 400009 Wadi Bunder Police Line,Sardar Vallabhbhai Patel Road,Near Mandvi Fire Station,Dongri",
    "lat": 18.9582963,
    "lng": 72.838941
  },
  {
    "name": "B 400009 Bhaucha Dhakka,,Mbpt Area",
    "lat": 18.9563922,
    "lng": 72.8493022
  },
  {
    "name": "B 400009 Habib Building,Samuel Street,Dongri",
    "lat": 18.9597888,
    "lng": 72.8369391
  },
  {
    "name": "B 400009 Zulekha Manzil,Samuel Street,Dongri",
    "lat": 18.9563305,
    "lng": 72.8366904
  },
  {
    "name": "B 400009 Aqsa Mansion,Samuel Street,Dongri",
    "lat": 18.9563305,
    "lng": 72.8366904
  },
  {
    "name": "C 400002 Siddhesh Apartment,2Nd Khattargalli,Nazvirns Holy,Marine Lines",
    "lat": 18.948367,
    "lng": 72.825936
  },
  {
    "name": "C 400002 Panchali House,Sadguru Baba Kadam Lane,Dr. M.B Welkar Street,Chirabazar,Marinelines",
    "lat": 18.9479789,
    "lng": 72.8272504
  },
  {
    "name": "C 400003 Dhobi Bldg,3Rd Kumbharwada,Kumbharwada,Charni Rd",
    "lat": 18.9597997,
    "lng": 72.827361
  },
  {
    "name": "C 400003 Sajjad Mansion,Chimna Buchar Street,Don Taki,Charni Road",
    "lat": 18.9615597,
    "lng": 72.8286923
  },
  {
    "name": "C 400003 Bldg No 46,1St Bhoiwada,Bhuleshwar,Charni Road",
    "lat": 18.9517545,
    "lng": 72.8183688
  },
  {
    "name": "C 400003 Bldg No 78,Bada Jagdish Mandir,Bhuleshwar,Charni Road",
    "lat": 18.9531926,
    "lng": 72.8353005
  },
  {
    "name": "C 400003 Mahavir Mansion,Gulalwadi,Gulalwadi,Charni Road",
    "lat": 18.9517545,
    "lng": 72.8183688
  },
  {
    "name": "C 400003 Khemakaer Chawl,Fanaswadi,Fanaswadi,Charni Road",
    "lat": 18.9517545,
    "lng": 72.8183688
  },
  {
    "name": "C 400003 Bldg No 68,Kazi Street,Mandavi Post Office,Charni Road",
    "lat": 18.9524812,
    "lng": 72.8368148
  },
  {
    "name": "C 400003 Shriji Bhavan,Gazdar Street,Gazdar Street,Charni Road",
    "lat": 18.9482867,
    "lng": 72.8238612
  },
  {
    "name": "C 400003 Madan House,Dr M B Velkar Street,Waka Muhalla,Marine Lines",
    "lat": 18.9475518,
    "lng": 72.8276907
  },
  {
    "name": "C 400003 Mithawala Building,Iind Cross Lane,Ghoughari Mohalla,Marine Lines",
    "lat": 18.9531926,
    "lng": 72.8353005
  },
  {
    "name": "C 400003 Sighriya Bldg,Ganesh Baug,Near By Vijay Dairy,Charni Road",
    "lat": 18.9568931,
    "lng": 72.8192765
  },
  {
    "name": "C 400003 Karnatak Mahal,Zaobawadi,Charni Road",
    "lat": 18.9517545,
    "lng": 72.8183688
  },
  {
    "name": "C 400003 Jamundas Bldg,2 Taki,Charni Road",
    "lat": 18.9517545,
    "lng": 72.8183688
  },
  {
    "name": "C 400003 Haji Kasam Bldg.,,Charni Road",
    "lat": 18.9574184,
    "lng": 72.8294613
  },
  {
    "name": "C 400003 Ganesh Bhuvan,2Nd Kumbharwada,Charni Road",
    "lat": 18.9517545,
    "lng": 72.8183688
  },
  {
    "name": "C 400003 Vyas Bldg,3Rd Kumbharwada,Dr.Mahimtura Marg,Charni Road",
    "lat": 18.9603221,
    "lng": 72.827236
  },
  {
    "name": "C 400003 Pravin House,4Th Kumbharwada,Charni Road",
    "lat": 18.9517545,
    "lng": 72.8183688
  },
  {
    "name": "C 400003 Chandramahal,1St Kumbharwada,Charni Road",
    "lat": 18.958921,
    "lng": 72.8283881
  },
  {
    "name": "C 400003 Rangwala Bldg,Isalampura Street,Girgaoan,Charni Road",
    "lat": 18.9517545,
    "lng": 72.8183688
  },
  {
    "name": "C 400003 1St Floor,1St Sutargully,Cp Tank,Charni Road",
    "lat": 18.9517545,
    "lng": 72.8183688
  },
  {
    "name": "C 400003 Tulsidas Jethalal Bldg,Girgaoan,Charni Road",
    "lat": 18.9517545,
    "lng": 72.8183688
  },
  {
    "name": "C 400003 Glasswala Bldg,Bara Imam Road,Charni Road",
    "lat": 18.9590978,
    "lng": 72.8290396
  },
  {
    "name": "C 400003 Masjid X Lane,Charni Road",
    "lat": 18.9517545,
    "lng": 72.8183688
  },
  {
    "name": "C 400003 Panchayatwadi,Bhuleshwar,Charni Road",
    "lat": 18.9551592,
    "lng": 72.8283292
  },
  {
    "name": "C 400003 Sant Sena Mharaj Marg, Near Galli Mandir,S.V.P.Road, Girgaon,Charni Road",
    "lat": 18.9579532,
    "lng": 72.8197819
  },
  {
    "name": "C 400003 Dr Bldg,5Th Kumbharwada,Girgaon,Charni Road",
    "lat": 18.9585763,
    "lng": 72.826388
  },
  {
    "name": "C 400003 Nagu Kamathi Chawl,Bhandarwada A, Cross Lane,Girgaon,Charni Road",
    "lat": 18.957197,
    "lng": 72.8179968
  },
  {
    "name": "C 400003 Manaji Bldg,1St Bhandari Street, Near Goal Deol,Girgaon,Charni Road",
    "lat": 18.9581207,
    "lng": 72.8280391
  },
  {
    "name": "C 400003 Vishwaheera Bldg,Sant Sena Mharaj Marg, Goldeol,Girgaon,Charni Road",
    "lat": 18.9600648,
    "lng": 72.8277273
  },
  {
    "name": "C 400003 Kherwadi Bldg,Girgaon,Charni Road",
    "lat": 18.9517545,
    "lng": 72.8183688
  },
  {
    "name": "C 400003 Noor Estate,Ali Noor Sreet, Opp. Null Bazar,Charni Road",
    "lat": 18.9578557,
    "lng": 72.8295767
  },
  {
    "name": "C 400003 Sumlight House,Ghoghari Mohalla,Near Pydhonie,Charni Road",
    "lat": 18.9561679,
    "lng": 72.8309579
  },
  {
    "name": "C 400003 Manimahal Bldg,C.P.Tank,Charni Road",
    "lat": 18.955842,
    "lng": 72.8274239
  },
  {
    "name": "C 400003 Tayyabi Bldg,2Nd Kumbharwada,Charni Road",
    "lat": 18.9517545,
    "lng": 72.8183688
  },
  {
    "name": "C 400003 Dodiya House,4Th Kumbharwada,Charni Road",
    "lat": 18.9517545,
    "lng": 72.8183688
  },
  {
    "name": "C 400003 Dwarkadas Mansion,Bapu Khote Street,Pydonie,Charni Road",
    "lat": 18.9576175,
    "lng": 72.8187981
  },
  {
    "name": "C 400003 Jamnabai Bldg,Bhandari Street,Kumbharwada,Charni Road",
    "lat": 18.9570625,
    "lng": 72.8280765
  },
  {
    "name": "C 400003 Laxmi Bldg,Kumbharwada,Charni Road",
    "lat": 18.9600513,
    "lng": 72.8283321
  },
  {
    "name": "C 400003 Bhuleshwar Road,Charni Road",
    "lat": 18.955842,
    "lng": 72.8274239
  },
  {
    "name": "C 400003 Manjoba Chs,Babu Genu Road,Dawa Bazar,Charni Road",
    "lat": 18.9478967,
    "lng": 72.8311258
  },
  {
    "name": "C 400003 Masjid Building,Bhandari Street,Girgaon,Charni Road",
    "lat": 18.9581207,
    "lng": 72.8280391
  },
  {
    "name": "C 400003 Somji Bldg,3Rd Kumbharwada,Girgaon,Charni Road",
    "lat": 18.9603221,
    "lng": 72.827236
  },
  {
    "name": "C 400003 Subhadra Bldg,1St Sp Marg,Chirabazar,Charni Road",
    "lat": 18.9517545,
    "lng": 72.8183688
  },
  {
    "name": "C 400003 Dhyan Sadan Bldg,3Rd Kumbharwada,Girgaon,Charni Road",
    "lat": 18.9603221,
    "lng": 72.827236
  },
  {
    "name": "D 400004 Rawalpindi Building,Tribhuvan Road,Lamington Road",
    "lat": 18.959605,
    "lng": 72.8173137
  },
  {
    "name": "D 400004 Anand Niwas,J S S Rd,Mangal Wadi",
    "lat": 18.9528544,
    "lng": 72.8216686
  },
  {
    "name": "D 400004 Yusuf Mansion,2Nd Cross Lane,Khetwadi",
    "lat": 18.9607261,
    "lng": 72.8205754
  },
  {
    "name": "D 400004 Shimla Bhawan,Nanubai Desai Rd,Sikka Nagar",
    "lat": 18.9579676,
    "lng": 72.8232777
  },
  {
    "name": "D 400004 Khetwadi 3Rd Cross Lane,Panchmukhi Hanuman Temple,Khetwadi",
    "lat": 18.9581018,
    "lng": 72.8233148
  },
  {
    "name": "D 400004 Ashok Bldg,Ad Street Opp Chandaramji School,Charni Raod",
    "lat": 18.9555474,
    "lng": 72.8249282
  },
  {
    "name": "D 400004 Lehari Mnsion,Khetwadi 2Nd Lane,Khetwadi",
    "lat": 18.9580748,
    "lng": 72.8252778
  },
  {
    "name": "D 400004 419 Noor Mohammad Begum Bldg,V.P Road,Girgoan",
    "lat": 18.9602477,
    "lng": 72.824753
  },
  {
    "name": "D 400004 Bldg No 3 Gaiwadi,Near Vyaym Shala,Girgoan",
    "lat": 18.9579877,
    "lng": 72.8214399
  },
  {
    "name": "D 400004 Poonawala Bldg,J S S Road,Kele Wadi,Girgaon",
    "lat": 18.9535028,
    "lng": 72.82085
  },
  {
    "name": "D 400004 Narayanwadi,Khadilkar Road,C P Tank",
    "lat": 18.9570274,
    "lng": 72.8213172
  },
  {
    "name": "D 400004 Dinath Bldg,P B Marg,Grant Raod,Grant Raod",
    "lat": 18.9609873,
    "lng": 72.8233195
  },
  {
    "name": "D 400006 Sagar Nagar,Walkeshwar,Walkeshwar Rd",
    "lat": 18.9513341,
    "lng": 72.8028149
  },
  {
    "name": "D 400006 Mata Pravati Rahvasi Sangh,Dr. B.I Rd,Walakeshwar,Napean Sea Rd",
    "lat": 18.9570948,
    "lng": 72.7997731
  },
  {
    "name": "D 400006 Parsi Panchayat,Bg Kher Marg,Ambewadi,Malbar Hill",
    "lat": 18.996281,
    "lng": 72.8155171
  },
  {
    "name": "D 400006 Jeevan Vihar,Manav Mandir,Malbar Hill",
    "lat": 18.9493211,
    "lng": 72.7973317
  },
  {
    "name": "D 400006 Prem Nagar Zopadapai,Dr B.I Road,Malabar Hill",
    "lat": 18.9540855,
    "lng": 72.8004477
  },
  {
    "name": "D 400007 Ratan Luxuria,Grant Rd,Nathia Hospital,Grant Rd",
    "lat": 18.9647811,
    "lng": 72.8151931
  },
  {
    "name": "D 400007 Vastu Shilp Chs,Gamadia Colony,Tardeo",
    "lat": 18.9683081,
    "lng": 72.813105
  },
  {
    "name": "D 400007 Singhania Bldg,Balaram Street,Grant Road",
    "lat": 18.9514659,
    "lng": 72.8270379
  },
  {
    "name": "D 400007 Dattatray Bldg,Tukaram Javaji Rd,Grant Road West",
    "lat": 18.9661532,
    "lng": 72.8149886
  },
  {
    "name": "D 400007 Abbasi Bldg,P B Marg,Play House Bus Stop",
    "lat": 18.9618411,
    "lng": 72.8133825
  },
  {
    "name": "D 400007 Navyug Niwas, Lamington Road,Opp Minerva Cnema,Grant Raod",
    "lat": 18.9650866,
    "lng": 72.818919
  },
  {
    "name": "D 400007 Geeta Biulding,Pandita Ramabai Rd,Gamdevi",
    "lat": 18.959647,
    "lng": 72.8122892
  },
  {
    "name": "D 400008 Mangli Kanduri Chawl,R S Nimkar Marg",
    "lat": 18.9662344,
    "lng": 72.8234191
  },
  {
    "name": "D 400008 Navjeevan Society,Lamington Rd",
    "lat": 18.9659103,
    "lng": 72.8194988
  },
  {
    "name": "D 400008 Transsvel Terrace,P.B Marg",
    "lat": 18.962583,
    "lng": 72.8227039
  },
  {
    "name": "D 400008 Rpf Barrack Terrace,Grant Rd East,Grant Rd",
    "lat": 32.2506076,
    "lng": -110.9109109
  },
  {
    "name": "D 400008 Hakimwadi,P.B Marg,Opp Daulat Complex,Grant Rd",
    "lat": 18.9632775,
    "lng": 72.8224268
  },
  {
    "name": "D 400008 B I T Chawl No 16,Bellasis Rd,Mumbai Central",
    "lat": 18.967384,
    "lng": 72.8216832
  },
  {
    "name": "D 400008 Purshottam Bldg,P B Marg,",
    "lat": 18.9622728,
    "lng": 72.8225317
  },
  {
    "name": "D 400008 32 Kasam Bldg,T.P Raod,Kamathipura,Girgaon",
    "lat": 18.9611624,
    "lng": 72.8261147
  },
  {
    "name": "D 400008 Kukawala Bldg,M.S Ali Road,Mumbai Central",
    "lat": 18.9617757,
    "lng": 72.8244304
  },
  {
    "name": "D 400008 Shankarseth Chawl,Jairaj Bai Lane,",
    "lat": 18.9671396,
    "lng": 72.8286571
  },
  {
    "name": "D 400008 150 Muncipal Chawl,Shuklaji Street,Opp Bilal Masjid,Grant Road",
    "lat": 18.9671396,
    "lng": 72.8286571
  },
  {
    "name": "D 400008 Parvati Mansion,Kharva Galli,Grant Road East",
    "lat": 18.9653927,
    "lng": 72.8182417
  },
  {
    "name": "D 400008 Narthani Hights,Lamington Road,Opp Mumbai Central",
    "lat": 18.9683324,
    "lng": 72.8203431
  },
  {
    "name": "D 400008 Habib Manzil,Grant Raod,Grant Raod",
    "lat": 18.9671396,
    "lng": 72.8286571
  },
  {
    "name": "D 400008 Suleman Tower,Bapty Rd,Grant Raod",
    "lat": 18.963635,
    "lng": 72.8239112
  },
  {
    "name": "D 400008 Lokhandwala Bldg,Kharva Lane,Grant Raod",
    "lat": 18.9671396,
    "lng": 72.8286571
  },
  {
    "name": "D 400026 Nirmal Mahal,Pettit Rd,Near Parsi General Hospital,Breach Candy",
    "lat": 18.9687959,
    "lng": 72.8058493
  },
  {
    "name": "D 400026 Vardhaman Apartment,135 A K Marg,Behind Dr Center,Kemps Corner",
    "lat": 18.96395,
    "lng": 72.8063729
  },
  {
    "name": "D 400026 Darya Sagar Zopadapai,B.D Road,Mahalaxmi",
    "lat": 18.9723185,
    "lng": 72.8051864
  },
  {
    "name": "D 400026 It Colony,Off Pedder Road,Cumbala Hill",
    "lat": 18.9719567,
    "lng": 72.8093794
  },
  {
    "name": "D 400034 Dmd Chawl, Tusliwadi Jhopadpatti,Tardeo Road,Tulsiwadi Po,Tardeo",
    "lat": 18.9728294,
    "lng": 72.818386
  },
  {
    "name": "D 400034 Zopadapatti,Approach Rd,Tulsiwadi,Tulsiwadi",
    "lat": 18.9747163,
    "lng": 72.8139964
  },
  {
    "name": "D 400034 A1 Bldg,Ambedkar Nagar,Tardeo",
    "lat": 18.9724162,
    "lng": 72.8148177
  },
  {
    "name": "D 400034 Tulsiwadi Zopadpatti,B R Marg,Tulsiwadi",
    "lat": 18.9747163,
    "lng": 72.8139964
  },
  {
    "name": "D 400034 Tulsiwadi Zopadpatti,Behind Post Office,Tulsiwadi",
    "lat": 18.9728294,
    "lng": 72.818386
  },
  {
    "name": "D 400034 R.T.O Chana Shop,Near Tardeo Rto,Tardeo",
    "lat": 18.9732783,
    "lng": 72.8167861
  },
  {
    "name": "D 400034 Gandhi Mansion,Wadia Streer,Tardeo,Tardeo",
    "lat": 18.9693159,
    "lng": 72.8160781
  },
  {
    "name": "D 400034 Germen Darshan,Ac Market,Tradeo",
    "lat": 18.9724011,
    "lng": 72.8156393
  },
  {
    "name": "D 400034 Ambika Bhavan,Wadia Street,Tardeo",
    "lat": 18.9702878,
    "lng": 72.8156126
  },
  {
    "name": "D 400034 Bldg No 6 Arya Nagar,Tulsiwadi,Tardeo",
    "lat": 18.9773613,
    "lng": 72.8175748
  },
  {
    "name": "D 400034 Rtp Lane,Tulsiwadi,Tardeo",
    "lat": 18.9732783,
    "lng": 72.8167861
  },
  {
    "name": "D 400036 Godreg Baug,Napean Sea Rd,Napean Sea Rd",
    "lat": 18.959984,
    "lng": 72.8037254
  },
  {
    "name": "D 400036 Matru Ashish,Napean Sea Rd,Napean Sea Rd",
    "lat": 18.960817,
    "lng": 72.8013815
  },
  {
    "name": "D 400006 Darya Mahal,Nepean Sea Road,Nepeansea Rd",
    "lat": 18.9524246,
    "lng": 72.796937
  },
  {
    "name": "D 400006 Shafi Hose,6Th Kumbarwada,",
    "lat": 18.9603059,
    "lng": 72.8262252
  },
  {
    "name": "D 400076 Parvati Niwas,Gamdevi,Grant Rd,Grant Rd",
    "lat": 18.9589174,
    "lng": 72.8124046
  },
  {
    "name": "D 400076 Karim Bldg,P.B Marg,9Th Cross Lane,Grant Rd",
    "lat": 18.9602024,
    "lng": 72.8244107
  },
  {
    "name": "D 400034 Ashirwad Bldg,Tardeo Raod,Mumbai Central",
    "lat": 18.9738868,
    "lng": 72.8137168
  },
  {
    "name": "D 400034 Bldg No 7 Tardeo Police Camp,,Tradeo",
    "lat": 18.969535,
    "lng": 72.812715
  },
  {
    "name": "D 400034 Govardhan Bhuvan,11Th Khetwadi",
    "lat": 18.9591515,
    "lng": 72.8213236
  },
  {
    "name": "D 400034 Khilchi Terrace,R.K Street,Near Mallan Mall Market",
    "lat": 18.9724162,
    "lng": 72.8148177
  },
  {
    "name": "E 400008 Bmc Bldg.,Chandramani Buddhvihar Marg,Two Tank,Kamathipura",
    "lat": 18.9648916,
    "lng": 72.8261411
  },
  {
    "name": "E 400008 666 Tenament,B J Marg,Jocob Circle,Byculla",
    "lat": 18.9807447,
    "lng": 72.8270215
  },
  {
    "name": "E 400008 Shirinbhai Chawl,Morland Road,Mumbai Central",
    "lat": 18.9719086,
    "lng": 72.8258845
  },
  {
    "name": "E 400008 Panch Khate Chawl,,Byculla",
    "lat": 18.9744096,
    "lng": 72.8323391
  },
  {
    "name": "E 400008 Patra Chawl,B. J. Marg,Byculla",
    "lat": 18.9753596,
    "lng": 72.8312175
  },
  {
    "name": "E 400008 Nayee Chawl,3Rd Ghelabhai Lane,Mandapura",
    "lat": 18.9716581,
    "lng": 72.8269844
  },
  {
    "name": "E 400008 7Th Lane,Kamathipura",
    "lat": 18.964976,
    "lng": 72.8260382
  },
  {
    "name": "E 400008 Kasam Hathi Chawl,Kamathipura 1St Lane,Kamathipura",
    "lat": 18.9628838,
    "lng": 72.8260565
  },
  {
    "name": "E 400008 Bambkhana,M.A. Road,Kamathipura(Eye Hospital),Kamathipura",
    "lat": 18.9678201,
    "lng": 72.828458
  },
  {
    "name": "E 400008 2Nd & 4Th Lane,Kamathipura",
    "lat": 18.964169,
    "lng": 72.8259201
  },
  {
    "name": "E 400008 Fire Brigade Office,Shaikh Hafizuddin Marg,Behind Bmc E Ward Office,Byculla",
    "lat": 18.9718778,
    "lng": 72.8313269
  },
  {
    "name": "E 400008 Aksa Manzil,M A Road Madanpura,Ghosh Bazar,Byculla",
    "lat": 18.9705424,
    "lng": 72.8280025
  },
  {
    "name": "E 400008 7Th Gully,Kamthipura,Byculla",
    "lat": 18.964976,
    "lng": 72.8260382
  },
  {
    "name": "E 400008 Acharwala Building,Undriya Street Nagpada,Nagpada,Byculla",
    "lat": 18.9622042,
    "lng": 72.8303499
  },
  {
    "name": "E 400008 Haji Building, Opposite Garden Hall,Vasil Khan Marg, Ahbedhi Bakhri Retha Bakri,Nagpada,Byculla",
    "lat": 18.9652566,
    "lng": 72.8295224
  },
  {
    "name": "E 400008 Bmc Chawl, Milind Nagar,Tank Pakadi Road,Opposite Shamim Palace,Byculla",
    "lat": 18.9755095,
    "lng": 72.8280764
  },
  {
    "name": "E 400008 Bavala Building,Megraj Sethi Marg,Near Badlu Rangari Street, Huda Masjid,Byculla",
    "lat": 18.988824,
    "lng": 72.834143
  },
  {
    "name": "E 400008 Hiraji Govindji Bldg.,Sir J J Road,Richardson Crudas,Byculla",
    "lat": 18.966336,
    "lng": 72.832333
  },
  {
    "name": "E 400008 Arkediya Bldg,Near J J Road,Byculla",
    "lat": 18.9695993,
    "lng": 72.8327095
  },
  {
    "name": "E 400008 Sidharth Nagar,Nagpada,Eye Hospital,Byculla",
    "lat": 18.9619906,
    "lng": 72.826518
  },
  {
    "name": "E 400008 Old Boys Hostel J J Compound Quarters,Jj Road,Jj Hospital,Byculla",
    "lat": 18.9639366,
    "lng": 72.8334328
  },
  {
    "name": "E 400008 Bootvala Building Roadside Saloon,Dimtimkar Road Nagpada,Opposite Ahmed Solar School,Byculla",
    "lat": 18.9656126,
    "lng": 72.830147
  },
  {
    "name": "E 400008 Chasmawali Chawl Ghosht Bajar,Mohb. U Rajja Road Madanpura,Byculla",
    "lat": 18.9703745,
    "lng": 72.8271764
  },
  {
    "name": "E 400008 Suhag Palace Ymca Ground,Agripada,Ymca Ground,Byculla",
    "lat": 18.9721213,
    "lng": 72.824776
  },
  {
    "name": "E 400008 Mt Section B Block Near Sevaniketan Petrol Pump,Sheafered Road,Shankar Mandir,Byculla",
    "lat": 18.9681708,
    "lng": 72.8325333
  },
  {
    "name": "E 400008 Mt Real Building 2Tank,Ma Road,Police Chowki,Byculla",
    "lat": 18.9754852,
    "lng": 72.8274008
  },
  {
    "name": "E 400008 Building No.101,6Th Lane,Shankar Pupala Road,Nakoda Medical Store,Byculla",
    "lat": 18.9671396,
    "lng": 72.8286571
  },
  {
    "name": "E 400008 Mombatti Manzil,Mohd Umar Razzak Road,Ghoshbazar Opp. Mohd Razzak School,Byculla",
    "lat": 18.97063,
    "lng": 72.8263224
  },
  {
    "name": "E 400008 Chawl No.21, Kazipura,M.A.Road,Next To Sagar Hotel,Byculla",
    "lat": 18.9637153,
    "lng": 72.8298879
  },
  {
    "name": "E 400008 Jamunadas Building,2Taki,Nagpada,Near V.P. Road Police Station,Nagpada",
    "lat": 18.9670153,
    "lng": 72.8292274
  },
  {
    "name": "E 400008 Pattharvali Building Baban Gully,Sakali Street,Ashadhan,Byculla",
    "lat": 18.9720215,
    "lng": 72.8288694
  },
  {
    "name": "E 400008 Sutar Gully,Morland Road,Ghosht Bajar,Byculla",
    "lat": 18.9706917,
    "lng": 72.8274323
  },
  {
    "name": "E 400008 Aarcivala Building,3Rd Pirkhan Street,Opp. Zulfikar Hotel,Byculla",
    "lat": 18.9758224,
    "lng": 72.8343323
  },
  {
    "name": "E 400008 Gajghar Building, Jj Hospital Nagpada,27 Undriya Street,Masjid,Byculla",
    "lat": 18.9629624,
    "lng": 72.8299654
  },
  {
    "name": "E 400008 Vidyut Locoshed,Shivdas Chapsi Road Mazgaon, Infinity Tower,Byculla",
    "lat": 18.9661321,
    "lng": 72.8388506
  },
  {
    "name": "E 400008 Om Niwas Kamthipura 8Th Lane,Nagpada,Nagpada Police Station,Byculla",
    "lat": 18.9670153,
    "lng": 72.8292274
  },
  {
    "name": "E 400008 Bmc Chawl,Kamathipura,Joshi Bhaji Market,Byculla",
    "lat": 18.9648916,
    "lng": 72.8261411
  },
  {
    "name": "E 400008 Shivam Appartment,Kamathipura Morland Road,Bhaji Market,Byculla",
    "lat": 18.9719086,
    "lng": 72.8258845
  },
  {
    "name": "E 400008 Zainab Tower,Nagpada,Opposite Samudra Resturant,Nagpada",
    "lat": 18.9681778,
    "lng": 72.8282142
  },
  {
    "name": "E 400008 Suchak Building 8Th Lane,Kamathipura,Amin Patel Office,Byculla",
    "lat": 18.965435,
    "lng": 72.826269
  },
  {
    "name": "E 400008 Supreme Heights,2Nd Kamathipura,Shuklaji Street,Byculla",
    "lat": 18.966091,
    "lng": 72.824396
  },
  {
    "name": "E 400008 Mestry Ki Chawl,2Nd Gelabai Madanpura,Ghosht Bajar,Byculla",
    "lat": 18.9703745,
    "lng": 72.8271764
  },
  {
    "name": "E 400008 Bandukwala House,Sakali Street,Ashadhan,Byculla",
    "lat": 18.9725494,
    "lng": 72.8290459
  },
  {
    "name": "E 400008 Memni Building,Nagpada,Daood Nursing Home,Nagpada",
    "lat": 18.9667195,
    "lng": 72.8288526
  },
  {
    "name": "E 400008 Jainam Tower,Ma Road,Near Mane Garden,Nagpada",
    "lat": 18.9678201,
    "lng": 72.828458
  },
  {
    "name": "E 400008 Dhodhwala Complex,Belasis Road,City Mall,Bombay Central",
    "lat": 18.9687784,
    "lng": 72.8229581
  },
  {
    "name": "E 400008 Niwasi Residence Hostel(Boys),Jj Road,Jj Hospital,Byculla",
    "lat": 18.9630684,
    "lng": 72.8336083
  },
  {
    "name": "E 400010 Sanjay Gandhi Nagar,J J Marg,Railway Compound,Mazgaon",
    "lat": 18.96298,
    "lng": 72.8323312
  },
  {
    "name": "E 400010 Sana Height,Barkat Ali Virani Marg,Nagpada",
    "lat": 18.963854,
    "lng": 72.828469
  },
  {
    "name": "E 400010 Takdeer Niwas,Brahmadev Khot Marg,Mazgaon",
    "lat": 18.9666318,
    "lng": 72.8467064
  },
  {
    "name": "E 400010 Belvedar Hill,Shivdas Chapsi Marg,Next To St. Peter School,Mazgaon",
    "lat": 18.9676876,
    "lng": 72.8404124
  },
  {
    "name": "E 400010 Lakdi Bander Motor Line Daru Khana,Motor Line Daru Khana,Udipi Hotel,Mazgaon",
    "lat": 18.9744289,
    "lng": 72.8483632
  },
  {
    "name": "E 400010 Byculla Police Line Quarters,Hansraj Lane,Byculla Police Station,Byculla East",
    "lat": 18.9736085,
    "lng": 72.8340163
  },
  {
    "name": "E 400010 Kawla Bundar,Reay Road,Near Mariamma Mandar, New Tank Bundar Road,Reay Road",
    "lat": 18.9774518,
    "lng": 72.8441593
  },
  {
    "name": "E 400010 Vishal Tower,Love Lane Motishah Lane,Near Suprabhat Hotel,Mazgaon",
    "lat": 18.9720628,
    "lng": 72.8373445
  },
  {
    "name": "E 400010 New Irani Chawl,Rambhau Bhogle Marg Ghodpdeo,Opposite Piramal Construction,Mazgaon",
    "lat": 18.9728223,
    "lng": 72.8403065
  },
  {
    "name": "E 400010 Ajay Industrial Estate,Anjirwadi,Ganesh Mandir,Mazgaon",
    "lat": 18.963298,
    "lng": 72.843294
  },
  {
    "name": "E 400010 Prince Ali Hall Chawl,Nesbit Road,Near Prince Ali Khan Hospital,Mazgaon",
    "lat": 18.9708409,
    "lng": 72.8365499
  },
  {
    "name": "E 400010 Bit Chawl No. 2,Love Lane Road,Mcgm Despensary,Mazgaon",
    "lat": 18.9677599,
    "lng": 72.8369672
  },
  {
    "name": "E 400010 Shinde Chawl Nariyalwadi,Rambhau Bhogle Marg,Kedar Hospital,Mazgaon",
    "lat": 18.9769784,
    "lng": 72.8414784
  },
  {
    "name": "E 400010 Sunni Kabrasthan Reay Road(Inside),Sant Savta Marg,Drk Chowki,Raey Road",
    "lat": 18.9774518,
    "lng": 72.8441593
  },
  {
    "name": "E 400010 Bit Talwadi Chawl,Saint Merry Road,Talwadi Municipalty School,Mazgaon",
    "lat": 18.9700441,
    "lng": 72.8361783
  },
  {
    "name": "E 400010 Bit Chawl,Tadwadi Mazgaon Transit Team,Icici Bank,Mazgaon",
    "lat": 18.9649123,
    "lng": 72.8418849
  },
  {
    "name": "E 400010 Tadwadi Bit Chawl No.5,St. Marry Road,Mazgaon Municipal School,Byculla",
    "lat": 18.9674969,
    "lng": 72.8377344
  },
  {
    "name": "E 400010 Khodadat Chawl D'Leema Street(Bakery),Pralahad Chendavankar Marg,Rosery School,Mazgaon",
    "lat": 18.9670087,
    "lng": 72.8449898
  },
  {
    "name": "E 400010 Kawla Bunder Pakhija Gully,Raey Road,Jeevandhara Balvadi,Raey Road",
    "lat": 18.9710218,
    "lng": 72.8453775
  },
  {
    "name": "E 400010 Saheb Gully,Dr. Mascarence Road,Behind Tank Square Dispensary,Mazgaon",
    "lat": 18.9701884,
    "lng": 72.8459619
  },
  {
    "name": "E 400010 Tariya House, 39/A, Navanagar,Dockyard Road,Dockyard Station,Mazgaon",
    "lat": 18.9670056,
    "lng": 72.8479262
  },
  {
    "name": "E 400010 Tulsiwadi,Matar Pakhadi Road,Bhamarsingh Mithaiwala,Byculla",
    "lat": 18.9699669,
    "lng": 72.841555
  },
  {
    "name": "E 400010 Bit Bldg. No. 12, St. Marry Road,Tadwadi Municipal School,Mazgaon",
    "lat": 18.9693314,
    "lng": 72.8359007
  },
  {
    "name": "E 400010 Adamkhan Building,D N Singh Road,Near Sahakari Bhanadar,Hathibaug",
    "lat": 18.9701059,
    "lng": 72.8397086
  },
  {
    "name": "E 400010 Abdul Rauf Manzil,Rb Marg,Opposite Mafatlal Mill,Ghodapdeo",
    "lat": 18.9781585,
    "lng": 72.8412652
  },
  {
    "name": "E 400010 Amina Manzil,Hussain Patel Marg,Pahadivali Masjid,Mazgaon",
    "lat": 18.9652187,
    "lng": 72.8418421
  },
  {
    "name": "E 400010 Ambewadi Beithi Chawl,Matarpakadi Road,Behind Darbar Hotel,Mazgaon",
    "lat": 18.9701862,
    "lng": 72.8409119
  },
  {
    "name": "E 400010 New Tank Bunder Kawla Bunder,Reay Road,Mariyamma Mandir,Raey Road",
    "lat": 18.9701884,
    "lng": 72.845962
  },
  {
    "name": "E 400010 Apna Clinic Dr. Sanjay Dalvi Clinic Kawla Bunder,New Tank Bander Road,New Fashion Tailor,Raey Road",
    "lat": 18.9710218,
    "lng": 72.8453775
  },
  {
    "name": "E 400011 Khusnuma Apartment / Bit Chawl,M A Road / M. S. Ansari Marg,Kalapani,Agripada",
    "lat": 18.9754852,
    "lng": 72.8274008
  },
  {
    "name": "E 400011 Hawabai Chawl,N. M. Joshi Marg,Arthur Road Naka,Chinchpokli",
    "lat": 18.9865695,
    "lng": 72.8318074
  },
  {
    "name": "E 400011 B. J. Marg,Kanjarwada,Byculla",
    "lat": 18.9765903,
    "lng": 72.8302246
  },
  {
    "name": "E 400011 Transit Camp,Tank Pakhadi Street,Kalapani,Mominpura",
    "lat": 18.9750703,
    "lng": 72.8294863
  },
  {
    "name": "E 400011 Kermani Building (Anand Estate),N. M. Joshi Marg,Arthur Road Naka,Chinchpokli",
    "lat": 18.9861103,
    "lng": 72.8316247
  },
  {
    "name": "E 400011 Transist Camp,Tank Pakadi Street,Mominpura",
    "lat": 18.9810451,
    "lng": 72.8267579
  },
  {
    "name": "E 400011 Dagdi Chawal,B.J. Marg,Dagadi Chawl,Dagadi Chawl",
    "lat": 18.978777,
    "lng": 72.8285352
  },
  {
    "name": "E 400011 Vithal Sadan Maruti Gully,N.M Joshi Marg,Byculla Stn.,Buyculla",
    "lat": 18.988597,
    "lng": 72.8349395
  },
  {
    "name": "E 400011 Chavhan Mension,Tank Pakadi Road,Opposite Khatao Mill,Byculla",
    "lat": 18.973992,
    "lng": 72.8312385
  },
  {
    "name": "E 400011 Bage Rabbani Appartment,Megraj Sethi Marg,Badliwala Charitable Dispensary,Byculla",
    "lat": 18.9736116,
    "lng": 72.8292895
  },
  {
    "name": "E 400011 Rasul Jiva Compound,Kk Road 7Th Rasta,Jacob Circle,Byculla",
    "lat": 18.9808407,
    "lng": 72.828296
  },
  {
    "name": "E 400011 Peer Bhai Mension,Morland Road,Sahara Medical Store Halim Manjil,Byculla",
    "lat": 18.9746223,
    "lng": 72.8267943
  },
  {
    "name": "E 400011 Doodh Wala Complex,Belasis Road,Near Bombay Central Bus Depot,Byculla",
    "lat": 18.96875,
    "lng": 72.8219557
  },
  {
    "name": "E 400011 Dubhash Buiding,Bapurao Jagtap Marg,Lakhpati Hotel,Byculla",
    "lat": 18.9766341,
    "lng": 72.8300606
  },
  {
    "name": "E 400011 Mandar Nikatan, N.M. Marg Joshi,M.C.G.M. Dispancery,Byculla",
    "lat": 18.9806847,
    "lng": 72.8317581
  },
  {
    "name": "E 400011 Ar-Rayyan Tower,M.A.Road,Agripada,Near Zulha Madian,Byculla",
    "lat": 18.9749401,
    "lng": 72.8273469
  },
  {
    "name": "E 400011 Chandramani, Buddha Vihar,Kamathi Pura,Nar Bharat Gas Agency,Byculla",
    "lat": 18.9645247,
    "lng": 72.827943
  },
  {
    "name": "E 400011 Noorami Chawl,M A Road,Hari Masjid,Byculla",
    "lat": 18.9754852,
    "lng": 72.8274008
  },
  {
    "name": "E 400011 Hari Jayram Building,Sakali Street,Jhula Maidan,Byculla",
    "lat": 18.9744584,
    "lng": 72.8270665
  },
  {
    "name": "E 400011 Sagar Classes,Clair Road,Saint Agnes School,Byculla",
    "lat": 18.9810451,
    "lng": 72.8267579
  },
  {
    "name": "E 400011 New Police Line Agripada,Agripada,Jai Bajrang Krida Mandal, Near Old Police Line Opposite Unity Park,Byculla",
    "lat": 18.9763161,
    "lng": 72.8270934
  },
  {
    "name": "E 400011 Madina Compound,7Th Rasta, Bapurao Jagtap Marg,Opposite 666 Tenament,Byculla",
    "lat": 18.978882,
    "lng": 72.8285133
  },
  {
    "name": "E 400011 Parijat Building Sunder Gully Naka,B J Marg,Opposite Shivshakti Building,Byculla",
    "lat": 18.9755525,
    "lng": 72.8308923
  },
  {
    "name": "E 400011 Badlu Rangari Street Patra Chawl,Megraj Sethi Marg,Souter Street Health Post,Byculla",
    "lat": 18.9736378,
    "lng": 72.8291409
  },
  {
    "name": "E 400011 Kamathipura 4Th Gully,Laxmikant Bar, Near Mns Office,Byculla",
    "lat": 18.9648916,
    "lng": 72.8261411
  },
  {
    "name": "E 400011 Nair Road,Iti College,Byculla",
    "lat": "",
    "lng": ""
  },
  {
    "name": "E 400011 Laxmi Residency,Station Road,Near Maruti Gully. Opposite Byculla Station West,Byculla",
    "lat": 18.978315,
    "lng": 72.8317163
  },
  {
    "name": "E 400011 Rangwala Mansion, Agripada Fancy Market,Agripada,Opposite Jhula Maidan,Byculla",
    "lat": 18.9744584,
    "lng": 72.8270665
  },
  {
    "name": "E 400011 Gate No. 5 Patra Chawl,Tank Pakadi Road,Katau Mill,Byculla",
    "lat": 18.973992,
    "lng": 72.8312385
  },
  {
    "name": "E 400011 Meghraj City Zopdi,Near Fire Brigade,Byculla",
    "lat": 18.9736116,
    "lng": 72.8292895
  },
  {
    "name": "E 400011 Pansare Chawl,Arthur Road,Chinchpokli Railway Station,Byculla",
    "lat": 18.9851452,
    "lng": 72.8295767
  },
  {
    "name": "E 400011 Modern Mill Zopdi,Sane Guruji Marg,Vaishali Nagar,Byculla",
    "lat": 18.9847131,
    "lng": 72.8299869
  },
  {
    "name": "E 400011 Ksa Heights,1St Sakali Street,Near Zumma Masjid,Byculla",
    "lat": 18.9725767,
    "lng": 72.8300556
  },
  {
    "name": "E 400011 Bit Chawl Ground Floor,Meghraj Sethi Marg,Andrew Church,Byculla",
    "lat": 18.9738487,
    "lng": 72.8266964
  },
  {
    "name": "E 400011 Kismat Manzil,Badlu Rangari Street,Behind E Ward,Byculla",
    "lat": 18.9718778,
    "lng": 72.8313269
  },
  {
    "name": "E 400011 Pandur Vala Mahal,2Nd Sakali Street,Near Ripon Tower,Byculla",
    "lat": 18.9754852,
    "lng": 72.8274008
  },
  {
    "name": "E 400011 Raja Bahadur Building,Nagpada Junction,Sagar Hotel,Byculla",
    "lat": 18.9650239,
    "lng": 72.8289394
  },
  {
    "name": "E 400011 New Lambi Chawl, D Block,Kamathipura 5Th Lane,Byculla",
    "lat": 18.9632053,
    "lng": 72.8277765
  },
  {
    "name": "E 400011 Moti Mension,Sir J J Road,Opposite Police Hospital,Byculla",
    "lat": 18.9695993,
    "lng": 72.8327095
  },
  {
    "name": "E 400011 Meri Mahal,Nagpada,Byculla",
    "lat": 18.9641028,
    "lng": 72.8305238
  },
  {
    "name": "E 400011 Ashirwad Niwas, Kamathipura,8Th Gully,Opposite Macchi Market,Byculla",
    "lat": 18.9648916,
    "lng": 72.8261411
  },
  {
    "name": "E 400011 Kamlesh Jaidev Building,5Th Gully Kamathipura,Kamathipura,Byculla",
    "lat": 18.9648916,
    "lng": 72.8261411
  },
  {
    "name": "E 400011 Blue Heaven Bldg., Near Gulistan Bldg.,Agripada,Agripapa Municipal School,Byculla",
    "lat": 18.9747037,
    "lng": 72.8252163
  },
  {
    "name": "E 400011 Rbi Staff Quarters,Ymca Road,Maratha Mandir,Byculla",
    "lat": 18.9705298,
    "lng": 72.8228042
  },
  {
    "name": "E 400011 Adam Siddiqui Chawl,Ghosh Bazar,Near Hari Masjid,Byculla",
    "lat": 18.9810451,
    "lng": 72.8267579
  },
  {
    "name": "E 400011 Badliwala Apparement,Cross Road, Rippon Road,Near Husaini Baug, Opp. Hari Masjid,Byculla",
    "lat": 18.9740406,
    "lng": 72.8372572
  },
  {
    "name": "E 400011 New Agakhan Bldg.,M.A Road,Agripada,Byculla",
    "lat": 18.9820636,
    "lng": 72.8264028
  },
  {
    "name": "E 400011 12 Sahara Palace,Sakli Street,Byculla",
    "lat": 18.97256,
    "lng": 72.8282904
  },
  {
    "name": "E 400011 Isha Mention,B.J. Marg,Lakpati Hotel,Byculla",
    "lat": 18.9765903,
    "lng": 72.8302246
  },
  {
    "name": "E 400011 Sagar Building Sunder Gully,Bj Marg,Khatau Mill Naka,Byculla",
    "lat": 18.9754074,
    "lng": 72.8305461
  },
  {
    "name": "E 400011 Chaitanya Building,Bjmarg,Khatau Mill Naka,Byculla",
    "lat": 18.9756477,
    "lng": 72.8304768
  },
  {
    "name": "E 400011 Kinjal Residency Agripda,Agripada,Opposite Mtnl Office,Byculla",
    "lat": 18.9762873,
    "lng": 72.8257228
  },
  {
    "name": "E 400011 Redimani Hsg,Clair Road,Opposite Bata Showroom,Byculla",
    "lat": 18.9699987,
    "lng": 72.8302623
  },
  {
    "name": "E 400011 Jubilee Compound,Sheikh Haffizuddin Marg,Near Ashadham,Byculla",
    "lat": 18.9721083,
    "lng": 72.8299365
  },
  {
    "name": "E 400011 Shivneri Hostel Byculla West,Station Road,Byculla Station West,Byculla",
    "lat": 18.9810451,
    "lng": 72.8267579
  },
  {
    "name": "E 400011 New Tank Bander Darukhana,Raey Road,Near Dr. Sudarshan Clinic,Byculla",
    "lat": 18.9701884,
    "lng": 72.845962
  },
  {
    "name": "E 400011 Danish Villabajar Madanpura,3Rd Gelabai Street,Ghosht Bajar,Byculla",
    "lat": 18.9703745,
    "lng": 72.8271764
  },
  {
    "name": "E 400011 Nilkanth Building Bakri Adda,Nm Joshi Marg Chinchpokli,Opposite Bmc Press,Byculla",
    "lat": 18.983301,
    "lng": 72.8317725
  },
  {
    "name": "E 400011 Farjan Appt.,Badlu Rangari Street Sheikh Haffizudin Marg,Behind E Ward Office,Byculla",
    "lat": 18.9718778,
    "lng": 72.8313269
  },
  {
    "name": "E 400011 Pansare Chawl,Nm Joshi Marg Chinchpokli,Chinchpokli,Byculla",
    "lat": 18.9920227,
    "lng": 72.8314767
  },
  {
    "name": "E 400011 Baya Park Janata Sevak,Byculla Station Road,Byculla Station,Byculla",
    "lat": 18.9771208,
    "lng": 72.8307456
  },
  {
    "name": "E 400011 Gharkul Building 1St Cross Lane Behind Bele Shop,Byculla Station Road,Opp. City Trust,Byculla",
    "lat": 18.9779015,
    "lng": 72.8313107
  },
  {
    "name": "E 400011 Suryaji Compound,Tank Pakhadi Road,Lucky Compound,Byculla",
    "lat": 18.9743545,
    "lng": 72.8285324
  },
  {
    "name": "E 400011 Afrishower Building,Sakhli Street,Behind E Ward Office,Byculla",
    "lat": 18.9723269,
    "lng": 72.8311923
  },
  {
    "name": "E 400011 B.I.T. Chawl Agripada, Fancy Market,Agripada,Zula Maidan,Byculla",
    "lat": 18.9748849,
    "lng": 72.8267395
  },
  {
    "name": "E 400011 Nilgiri H.S.G.Soci. Agripada,Agripada,Opp. M.T.N.L. Office,Byculla",
    "lat": 18.9810451,
    "lng": 72.8267579
  },
  {
    "name": "E 400011 Topaz Tower,Nair Road,Near Nair Hospital,Byculla",
    "lat": 18.9744076,
    "lng": 72.8222909
  },
  {
    "name": "E 400011 Santosh Bhavan,Meghraj Shetty Marg,B.M.C. Meghraj Shetty School,Byculla",
    "lat": 18.9739772,
    "lng": 72.8276064
  },
  {
    "name": "E 400011 Arihant Heights,Hindustan Masjd,Byculla",
    "lat": 18.9752303,
    "lng": 72.8318944
  },
  {
    "name": "E 400011 Pani Kahte Chawl 564,N M Joshi Marg,Opposite To S Bridge Municipal School,Byculla",
    "lat": 18.9791583,
    "lng": 72.8320363
  },
  {
    "name": "E 400011 Building No. 2 Hans Road,Bj Marg,Bj Road Post Office,Byculla",
    "lat": 19.074584,
    "lng": 72.853478
  },
  {
    "name": "E 400011 Shivneri Building,Bj Marg,Opposite Sunder Gullynear Dargah,Byculla",
    "lat": 18.9753156,
    "lng": 72.8314693
  },
  {
    "name": "E 400011 Lambi Cement Chawl,Ms Ansari Marg,Opposite Sushanti Church,Byculla",
    "lat": 18.9766096,
    "lng": 72.8295899
  },
  {
    "name": "E 400011 Hanuman Prasad Building,Bj Marg,Opposite Sunder Gully,Byculla",
    "lat": 18.9757135,
    "lng": 72.8311692
  },
  {
    "name": "E 400011 Railway Quarters D R M Officers Quarters,Agripada,Near Nair Hospital,Bombay Central",
    "lat": 18.9682834,
    "lng": 72.833862
  },
  {
    "name": "E 400011 Abdulla Mension,Sakali Street,Badlu Rangari Street,Byculla",
    "lat": 18.9736378,
    "lng": 72.8291409
  },
  {
    "name": "E 400011 Hilton Residency,Bj Marg,Opp. Sundar Gully,Byculla",
    "lat": 18.9763632,
    "lng": 72.8303334
  },
  {
    "name": "E 400011 Vasudev Vinayak Chawl,N.M. Joshi Marg,Bakri Adda, Bmc Garage,Chinchpokli",
    "lat": 18.983301,
    "lng": 72.8317725
  },
  {
    "name": "E 400011 Mussa House No.620,B.J.Marg,Near Bank Of Badoda,Byculla",
    "lat": 18.9760669,
    "lng": 72.8306469
  },
  {
    "name": "E 400011 Dukhi Seth Ki Chawl,2Nd Gela Bai Street,Hari Masjid,Madanpura",
    "lat": 18.9703745,
    "lng": 72.8271764
  },
  {
    "name": "E 400011 Chota Sonapur, Bilal Masjid,Shautak Ali Road,Vivan Road,Kamthipura",
    "lat": 18.9625068,
    "lng": 72.8249382
  },
  {
    "name": "E 400011 Narayan Bhavan,N M Joshi Marg,1St Cross Lane,Byculla",
    "lat": 18.9776833,
    "lng": 72.8318166
  },
  {
    "name": "E 400011 Kachare Harsh Building,Ma Road,Hari Masjid,Madanpura",
    "lat": 18.9705424,
    "lng": 72.8280025
  },
  {
    "name": "E 400011 53 Mohd. Azad India Building,Ma Road,Hari Masjid,Madanpura",
    "lat": 18.972399,
    "lng": 72.827535
  },
  {
    "name": "E 400011 Bakhar Chawl,Ma Road,Hari Masjid,Madanpura",
    "lat": 18.9705424,
    "lng": 72.8280025
  },
  {
    "name": "E 400011 Habib Palace,Sakali Street,Ashadhan,Byculla",
    "lat": 18.9720215,
    "lng": 72.8288694
  },
  {
    "name": "E 400011 Lucky Compound,Sakali Street,Tank Pakadi Road,Byculla",
    "lat": 18.9743545,
    "lng": 72.8285324
  },
  {
    "name": "E 400012 Dattakripa Building Chinchpokli,Dr. B A Road,Voltas House,Chinchpokli",
    "lat": 18.9862906,
    "lng": 72.8358762
  },
  {
    "name": "E 400012 Vrundavan Building,Dr Ba Road,Opp. Jaihind Cinema,Chinchpokli",
    "lat": 18.9858047,
    "lng": 72.8358794
  },
  {
    "name": "E 400012 Shivshakti Building,Telli Gully,Near Ganpati Utsav,Chinchpokli",
    "lat": 18.9880499,
    "lng": 72.8344004
  },
  {
    "name": "E 400017 Massina Quarters,Sant Savata Marg,Massina Hospital,Byculla",
    "lat": 18.9743706,
    "lng": 72.8361472
  },
  {
    "name": "E 400027 Ram Nagar A,Dr. B A Road Byculla East,Opposite Rani Bagh,Byculla East",
    "lat": 18.97871,
    "lng": 72.8351211
  },
  {
    "name": "E 400027 Nasmi House,6Th Chamber Lane,Palace Cinema,Byculla East",
    "lat": 18.9759324,
    "lng": 72.8331947
  },
  {
    "name": "E 400027 Khan Building,Sant Savta Marg,Balaji Hospital,Byculla",
    "lat": 18.97727,
    "lng": 72.835352
  },
  {
    "name": "E 400027 Jerbai Baug Byculla East,Opposite Byculla Bridge,Byculla",
    "lat": 18.9748689,
    "lng": 72.8341927
  },
  {
    "name": "E 400027 Railway Nurses Quarters Opposite Rani Baug,Dr. B A Road,Railway Hospital,Byculla",
    "lat": 18.9803317,
    "lng": 72.8337021
  },
  {
    "name": "E 400027 Police Office Quarters,Susex Road,Spice Hotel,Byculla",
    "lat": 18.9736085,
    "lng": 72.8340163
  },
  {
    "name": "E 400027 Ajay Appartment,Hansraj Lane,Mankeshwar Mandir,Byculla",
    "lat": 18.9712847,
    "lng": 72.8334429
  },
  {
    "name": "E 400027 Maratha Compound Building,Es Patanvala Marg,Near Muncipal Dispensary,Byculla",
    "lat": 18.9804273,
    "lng": 72.8390727
  },
  {
    "name": "E 400033 Mhada Colony,Ram Bhau Bhogle Marg,Batliboy Compound Ground,Ghodapdeo",
    "lat": 18.9822434,
    "lng": 72.840843
  },
  {
    "name": "E 400033 Sanas Patra Shed,Dr. B. A. Road,Opp. Jaihind Cinema,Kalachowky",
    "lat": 18.9858047,
    "lng": 72.8358794
  },
  {
    "name": "FN 400019 Alt Block No.3,Mancherji Joshi Road, Dadar Parsi Colony,Dadar East",
    "lat": 19.0188693,
    "lng": 72.8516181
  },
  {
    "name": "FN 400019 College,Natanlal Parek Marg,Matunga",
    "lat": 19.0256922,
    "lng": 72.8563319
  },
  {
    "name": "FN 400022 Navratna Bldg,Mhada Colony,Kokari Agar,Sion",
    "lat": 19.0365038,
    "lng": 72.8712355
  },
  {
    "name": "FN 400022 Hanuman Chawl,Near Raoli Camp,Sion Koliwada",
    "lat": 19.0357375,
    "lng": 72.8686745
  },
  {
    "name": "FN 400022 Beas Mumbai,,21, Sion East",
    "lat": 19.0425604,
    "lng": 72.8638089
  },
  {
    "name": "FN 400022 Bldg No. M9,Pratiksha Nagar,Sion",
    "lat": 19.0420838,
    "lng": 72.8695851
  },
  {
    "name": "FN 400022 Bmc Colony,Sardar Nagar,Sion",
    "lat": 19.0383436,
    "lng": 72.8651145
  },
  {
    "name": "FN 400022 Kokani Nagar,Jay Maharastra Road,Sion Koliwada,Sion",
    "lat": 19.0524071,
    "lng": 72.839237
  },
  {
    "name": "FN 400022 Police Officer Bldg,Pratikshanagar,Sion",
    "lat": 19.0420838,
    "lng": 72.8695851
  },
  {
    "name": "FN 400022 Seva Samiti Bldg,,Sion",
    "lat": 19.0325859,
    "lng": 72.8617816
  },
  {
    "name": "FN 400022 ,Pratiksha Nagar,Sion",
    "lat": 19.0428463,
    "lng": 72.8705107
  },
  {
    "name": "FN 400022 Bmc Bldg.No.G,Bhandarwada,Sion",
    "lat": 19.181467,
    "lng": 72.8388487
  },
  {
    "name": "FN 400022 Ratan Sagar,Flank Road,Near Shanmukhanand Hall,Sion",
    "lat": 19.0314375,
    "lng": 72.8602527
  },
  {
    "name": "FN 400022 ,Pratiksha Nagar,Sion",
    "lat": 19.0428463,
    "lng": 72.8705107
  },
  {
    "name": "FN 400022 Antop Hill Church, Near Shitaladevi Temple, Gtb Nagar, Sion,Near Shitaladevi Temple, Gtb Nagar,Sion",
    "lat": 19.0357936,
    "lng": 72.8655789
  },
  {
    "name": "FN 400022 Parijat Chs,Pratiksha Nagar,Sion",
    "lat": 19.0423142,
    "lng": 72.8720633
  },
  {
    "name": "FN 400022 Nisarg Chs,Pratiksha Nagar,Sion",
    "lat": 19.0443305,
    "lng": 72.8752283
  },
  {
    "name": "FN 400022 ,Sunder Kamala Nagar, Near Kings Circle,Sion",
    "lat": 19.0274124,
    "lng": 72.8552261
  },
  {
    "name": "FN 400022 Kamraj Nagar,Kokari Agar, Sion Koliwada,Sion",
    "lat": 19.0337354,
    "lng": 72.8703788
  },
  {
    "name": "FN 400022 Shanta Niwas,Gujrat Society,Sion",
    "lat": 19.0420486,
    "lng": 72.8744522
  },
  {
    "name": "FN 400022 Sardar Nagar 3,Near Panchwati Bakery, Sion Koliwada,Sion",
    "lat": 19.0403577,
    "lng": 72.8644712
  },
  {
    "name": "FN 400022 Raoli Camp, Nehru Nagar,Mrd Sion Koliwada,Sion",
    "lat": 19.0357375,
    "lng": 72.8686745
  },
  {
    "name": "FN 400037 Sangam Nagar,S P Road,Antop Hill,Wadala East",
    "lat": 19.023697,
    "lng": 72.8713797
  },
  {
    "name": "FN 400037 Bharatiya Kamala Nagar,S P Road,Near Karbala Msjid, Antop Hill,Wadala East",
    "lat": 19.0218052,
    "lng": 72.8677119
  },
  {
    "name": "FN 400037 Himmat Nagar,Sp Road,Near Madina Masjid,Wadala East",
    "lat": 19.0088678,
    "lng": 72.8573828
  },
  {
    "name": "FN 400037 Siddharth Nagar,Koraba Mithagar,Wadala",
    "lat": 19.0136868,
    "lng": 72.8653943
  },
  {
    "name": "FN 400037 Lal Mati, Kismat Nagar,,Wadala",
    "lat": 19.0257475,
    "lng": 72.8696944
  },
  {
    "name": "FN 400037 Bhaiyasaheb Nagar,90Feet Road,Barkat Ali Naka,Wadala East",
    "lat": 19.0186086,
    "lng": 72.8618788
  },
  {
    "name": "FN 400037 Bpt New Colony,Mbpt Hospital,Wadala East",
    "lat": 19.012747,
    "lng": 72.8613887
  },
  {
    "name": "FN 400037 Mhada Colony,Near Gtb Monorail Station,Wadala East",
    "lat": 19.0367365,
    "lng": 72.8708585
  },
  {
    "name": "FN 400037 Omkar Chawl,Ganesh Nagar,Wadala East",
    "lat": 19.0190658,
    "lng": 72.8690865
  },
  {
    "name": "FN 400037 Chindhi Gully,Near Nurani Masjid,Wadala",
    "lat": 19.0257475,
    "lng": 72.8696944
  },
  {
    "name": "FN 400037 Girdhar Tambe Nagar, Korba Mithagar,B.A.D Road,Wadala East",
    "lat": 19.0144995,
    "lng": 72.8618577
  },
  {
    "name": "FN 400037 Shivshankar Nagar,Jai Bhavani Temple, Wadala (E),Wadala",
    "lat": 19.0200732,
    "lng": 72.8683481
  },
  {
    "name": "FN 400037 Ramdas Chawl, Near Sai Baba Mandir,Antop Hill,Wadala",
    "lat": 19.0283439,
    "lng": 72.869804
  },
  {
    "name": "FN 400037 Rama Mata Wadi,Korba Mithagar.,Wadala",
    "lat": 19.0136868,
    "lng": 72.8653943
  },
  {
    "name": "FN 400037 Sector 2, Kane Nagar,Cgs Colony Antophill,Wadala",
    "lat": 19.0310375,
    "lng": 72.8627174
  },
  {
    "name": "FN 400037 Garib Nawaz Nagar,Kokari Agar,Antop Hill",
    "lat": 19.03242,
    "lng": 72.871213
  },
  {
    "name": "FN 400037 The Bayagroove, Sai Darshan Bldg.,Smd Road,Near Antop Hill Post Office,Wadala",
    "lat": 19.0242035,
    "lng": 72.8640254
  },
  {
    "name": "FN 400037 Azad Mohalla,Sp Road,Shanti Nagar, Near Gausiya Masjid,Antop Hill",
    "lat": 19.0225539,
    "lng": 72.8730958
  },
  {
    "name": "FN 400037 Shaikh Misree Marg,Sai Baba Mandir, Vijay Nagar,Antop Hill,Wadala",
    "lat": 19.0259823,
    "lng": 72.8653349
  },
  {
    "name": "FN 400037 Motilal Nehru Nagar,Antop Hill,Wadala",
    "lat": 19.0304677,
    "lng": 72.8700096
  },
  {
    "name": "FN 400037 Chandani Agagar,S. M. Road,Chandani Agagar",
    "lat": 19.0315426,
    "lng": 72.8709697
  },
  {
    "name": "FN 400037 Sangmeshwar Chawl,,Wadala",
    "lat": 19.0257475,
    "lng": 72.8696944
  },
  {
    "name": "FN 400037 Mahatma Gandhi Nagar,Sector 3, Cgs Colony, Near Kane Nagar School,Antop Hill, Wadala",
    "lat": 19.0308084,
    "lng": 72.8622558
  },
  {
    "name": "FN 400037 Basant Mahal,Barakat Ali Road,Wadala",
    "lat": 19.0188666,
    "lng": 72.8629712
  },
  {
    "name": "FN 400037 Navhind Karauli Mandal,,Wadala",
    "lat": 19.0257475,
    "lng": 72.8696944
  },
  {
    "name": "FN 400037 Barkat Ali Nagar,Dp Road,Wadala (E)",
    "lat": 19.0185664,
    "lng": 72.8676096
  },
  {
    "name": "FS 400012 Mizoram House Sun Tower,G D Ambekar Road,Bhoiwada,Parel",
    "lat": 19.0062811,
    "lng": 72.8467953
  },
  {
    "name": "FS 400012 Mamta Bldg,Jer Bai Wadia Road,Near Bhoiwada,Parel",
    "lat": 19.0057655,
    "lng": 72.8457185
  },
  {
    "name": "FS 400012 Aadhar Blg, Shramik Niwas, Vikrant Sadan,Sane Guruji Marg,Gas Company Lane,Chinchpokli",
    "lat": 18.9894347,
    "lng": 72.8333849
  },
  {
    "name": "FS 400012 Bit Bldg,Vitthal Chavan Marg,Parel",
    "lat": 19.0051908,
    "lng": 72.8378417
  },
  {
    "name": "FS 400012 Ug Pg Hostel Rooms & Nurses Quarters, Kem Hospital Campus,Dr. E Borges Road,Parel",
    "lat": 19.0014532,
    "lng": 72.8429332
  },
  {
    "name": "FS 400012 Sudam Bhavan,Dr Baba Saheb Ambedkar Road,Lalbaug",
    "lat": 18.9894375,
    "lng": 72.835651
  },
  {
    "name": "FS 400012 Khapridevi Chs,Near Rashtriya Mill Majdoor Sangh,Parel",
    "lat": 19.0038786,
    "lng": 72.8466976
  },
  {
    "name": "FS 400012 Matoshri Tower,Jer Bai Wadia Road,Bhoiwada,Parel",
    "lat": 19.0052085,
    "lng": 72.8484762
  },
  {
    "name": "FS 400012 Meghwadi,Dr S S Rao Road,Near Incometax Office,Lalbaug",
    "lat": 18.9953399,
    "lng": 72.8382595
  },
  {
    "name": "FS 400012 Peru Compound,Near Gas Company,Lalbaug",
    "lat": 18.990782,
    "lng": 72.8350266
  },
  {
    "name": "FS 400012 Transit Camp,Shankar Tanaji Ghadi Marg,Behind Suntower,Bhoiwada",
    "lat": 19.0062723,
    "lng": 72.8468179
  },
  {
    "name": "FS 400012 Pwd Chawl Godown,Road No.39,Annabhau Sathe Nagar,Bhoiwada",
    "lat": 19.0048419,
    "lng": 72.8460091
  },
  {
    "name": "FS 400012 Itc Grand Hotel,Off Dr. B.A. Road,Parel",
    "lat": 18.9981731,
    "lng": 72.8388143
  },
  {
    "name": "FS 400012 Javeri House,Dr. Batliwala Road,Parel",
    "lat": 19.0034095,
    "lng": 72.8401716
  },
  {
    "name": "FS 400012 Bhuvaneshwar Bldg,Dr. Walimbe Marg,Parel",
    "lat": 18.9996983,
    "lng": 72.8436409
  },
  {
    "name": "FS 400012 Yashwant Bldg.,Dr. S.S.Rao Rd.,Parel",
    "lat": 18.9964078,
    "lng": 72.8403192
  },
  {
    "name": "FS 400012 Batatawala Mansion,Ganesh Gully,Lalbaug",
    "lat": 18.9939787,
    "lng": 72.8368007
  },
  {
    "name": "FS 400012 Amrutvel Chs,Ganesh Galli,Lalbaug",
    "lat": 18.9936109,
    "lng": 72.8370649
  },
  {
    "name": "FS 400012 Habib Terrace,Dr Baba Saheb Ambedkar Marg,Lalbaug",
    "lat": 18.9946214,
    "lng": 72.836859
  },
  {
    "name": "FS 400012 Best Quaters,V Shantaram Road,Gurudam Kripa Housing Society,Parel",
    "lat": 19.004856,
    "lng": 72.8382935
  },
  {
    "name": "FS 400012 Mehaboob Chawl,Sewree Cross Road,Sewree",
    "lat": 19.003839,
    "lng": 72.8545641
  },
  {
    "name": "FS 400012 Bharat Nagar,Hindu Smashanbhumi Road,Bhoiwada",
    "lat": 19.007195,
    "lng": 72.8504776
  },
  {
    "name": "FS 400012 Muthelia Regency,Hakoba Bus Stop,Lalbaug",
    "lat": 18.9908177,
    "lng": 72.8382547
  },
  {
    "name": "FS 400012 Iqbal Bldg., Maharashtra Guest House,Dr Baba Saheb Ambedkar Marg,Parel",
    "lat": 19.0068441,
    "lng": 72.8404186
  },
  {
    "name": "FS 400012 Bohari Chwal,N.L.Paralkar Marg,Parel",
    "lat": 18.9997193,
    "lng": 72.8452476
  },
  {
    "name": "FS 400012 New Police Line,G D Ambekar Marg,Parel",
    "lat": 19.0019282,
    "lng": 72.8468615
  },
  {
    "name": "FS 400012 Shipai Chal Society,Inside Kem Hosp Premises,Parel",
    "lat": 19.0025142,
    "lng": 72.8420769
  },
  {
    "name": "FS 400012 Amey Chs,Sane Guruji Marg,Lalbaug,Parel",
    "lat": 18.9901515,
    "lng": 72.8346066
  },
  {
    "name": "FS 400012 Bhim Nagar,Bai Jer Bai Wadia Road,Bhoiwada,Parel",
    "lat": 19.0052721,
    "lng": 72.8473954
  },
  {
    "name": "FS 400012 Shraddha Building,Jerbai Wadia Road,Parel",
    "lat": 19.0055323,
    "lng": 72.8412244
  },
  {
    "name": "FS 400012 Bhavna Apartments,Dr Vijay Kumar Walimbe Road,Parel",
    "lat": 18.9994335,
    "lng": 72.8448332
  },
  {
    "name": "FS 400012 Khoja Kasam Chawl,J Merwanji Street,,Parel",
    "lat": 19.0028481,
    "lng": 72.8400317
  },
  {
    "name": "FS 400012 Ambekar Colony,,Parel",
    "lat": 19.0019282,
    "lng": 72.8468615
  },
  {
    "name": "FS 400012 Sukhakarta Co-Op Hsg Soc.,,Lalbaug,Parel",
    "lat": 18.9950657,
    "lng": 72.8333833
  },
  {
    "name": "FS 400012 Dharati Chs.,G.M. Navgare Marg,Parel",
    "lat": 18.9995407,
    "lng": 72.8397089
  },
  {
    "name": "FS 400014 Kohinoor Mills Compound,M.J. Phule Road,Naigaon,Dadar (E)",
    "lat": 19.0122704,
    "lng": 72.8461639
  },
  {
    "name": "FS 400014 New Transit Camp,Dada Saheb Phalke Road,Gautam Nagar,Dadar",
    "lat": 19.0135897,
    "lng": 72.8424627
  },
  {
    "name": "FS 400014 Abhishek Chs,Spring Mill,Nr. Naigaon Monorail Stn.,Dadar",
    "lat": 19.010989,
    "lng": 72.848404
  },
  {
    "name": "FS 400014 Gautam Nagar Bldg, Dr. Dadasaheb Falake Road,Dadar",
    "lat": 19.0135897,
    "lng": 72.8424627
  },
  {
    "name": "FS 400014 Ahmed Sailor Compd,Opp New Bdd Chawl,Naigaon,Dadar",
    "lat": 19.0128729,
    "lng": 72.8464492
  },
  {
    "name": "FS 400014 New Bdd Chal No. 17,M.J. Phule Road,Naigaon,Dadar",
    "lat": 19.010279,
    "lng": 72.844909
  },
  {
    "name": "FS 400014 Old Bdd Chawl,Mj Phule Marg,Naigon,Dadar",
    "lat": 19.0127567,
    "lng": 72.846278
  },
  {
    "name": "FS 400014 Bdd Chawl,Naigaon,Dadar",
    "lat": 19.0131836,
    "lng": 72.8472371
  },
  {
    "name": "FS 400014 Patel Blg.,Hindmata,Dadar",
    "lat": 19.0102369,
    "lng": 72.8423166
  },
  {
    "name": "FS 400014 Kohinoor Mill Copmound Chawl,M.J. Phule Rd,Naigaon,Dadar",
    "lat": 19.0122704,
    "lng": 72.8461639
  },
  {
    "name": "FS 400014 New Bdd Chawl,Naigaon,Dadar",
    "lat": 19.0083112,
    "lng": 72.8444594
  },
  {
    "name": "FS 400014 Niagaon Poilice Head Quarters,Naigaon,Dadar",
    "lat": 19.0082363,
    "lng": 72.8467897
  },
  {
    "name": "FS 400014 Kesar Baug Bldg.,B.J. Devrukhkar Marg,Naigaon,Dadar",
    "lat": 19.0094599,
    "lng": 72.8461254
  },
  {
    "name": "FS 400014 Shivneri Bldg.,Dadasaheb Phalke Marg,Dadar",
    "lat": 19.0116153,
    "lng": 72.8421781
  },
  {
    "name": "FS 400015 Irani Chawl No 8,Sewree Cross Road,Opp Dr.Khatri Clinic,Sewree",
    "lat": 19.0057765,
    "lng": 72.8547969
  },
  {
    "name": "FS 400015 Bahare Madina,Wadala,Near R A Kidwai Road Police Station,Sewree",
    "lat": 19.005129,
    "lng": 72.850127
  },
  {
    "name": "FS 400015 Dyaneshwar Nagar,D G Mahajani Road,,Sewree",
    "lat": 19.0020254,
    "lng": 72.8530884
  },
  {
    "name": "FS 400015 Gtb Hostel, G T B Hospital,Jer Bai Wadia Road,Sewree",
    "lat": 19.0049832,
    "lng": 72.8520824
  },
  {
    "name": "FS 400015 Hirji Baug Chs,Jer Bai Wadia Road,Sewree",
    "lat": 19.0056953,
    "lng": 72.8464128
  },
  {
    "name": "FS 400015 Dyaneshwar Nagar Vasahat,Jer Bai Wadia Rd,Sewree",
    "lat": 19.0056953,
    "lng": 72.8464128
  },
  {
    "name": "FS 400015 Ashok Gardens,Takorsey Jivraj Marg,Swan Mill Compound,Sewree",
    "lat": 18.9943882,
    "lng": 72.8486487
  },
  {
    "name": "FS 400015 Bhavya Apts,Acharya Donde Marg,Sewree",
    "lat": 18.9996274,
    "lng": 72.848126
  },
  {
    "name": "FS 400015 Pathan Masjid Compound,Sewree Cross Road,Sewree",
    "lat": 19.0075453,
    "lng": 72.8545958
  },
  {
    "name": "FS 400015 Banubai Chawl No. 5,,Sewree",
    "lat": 18.9960872,
    "lng": 72.8528356
  },
  {
    "name": "FS 400015 Tokarasi Baithi Chawl,Tj Rd,Gopal Baug,Sewree",
    "lat": 18.9948292,
    "lng": 72.8487745
  },
  {
    "name": "FS 400015 Rupji Gandhi Chawl, Gaadi Adda,Near Hanuman Mandir,Sewree",
    "lat": 18.99505,
    "lng": 72.853873
  },
  {
    "name": "FS 400015 Patra Chawl, Nakawachi Wadi,Takorsey Jivraj Marg,Sewree",
    "lat": 18.9960872,
    "lng": 72.8528356
  },
  {
    "name": "FS 400015 Indira Railway Hutments,Haji Bunder Road,Sewree",
    "lat": 18.988402,
    "lng": 72.8564455
  },
  {
    "name": "FS 400015 Global Hospital Nurse Quarters,Takorsey Jivraj Marg,Sewree",
    "lat": 18.9960872,
    "lng": 72.8528356
  },
  {
    "name": "FS 400015 Shahpunji Palanji Compound,Dr S.S.Rao Road,Sewree",
    "lat": 18.9990762,
    "lng": 72.8416762
  },
  {
    "name": "FS 400015 Rupji Gandhi Chawl,Gaadi Adda,Near Hanuman Mandir,Sewree",
    "lat": 18.99505,
    "lng": 72.853873
  },
  {
    "name": "FS 400015 Sena Nagar Vasahat,Acharya Donde Marg,Sewree",
    "lat": 18.9984193,
    "lng": 72.850831
  },
  {
    "name": "FS 400015 Prabuddh Nagar,Jerbai Wadia Road,Opp. Mamata Bldg.,Sewree",
    "lat": 19.0056953,
    "lng": 72.8464128
  },
  {
    "name": "FS 400015 Hira Seth Chaul,Takorsey Jivraj Marg,Nr. Gopalbaug,Sewree",
    "lat": 18.9960872,
    "lng": 72.8528356
  },
  {
    "name": "FS 400015 Ganesh Baugh,Takorsey Jivraj Marg,Near Maruti Mandir,Sewree",
    "lat": 18.9960872,
    "lng": 72.8528356
  },
  {
    "name": "FS 400015 Bayaa Bai Chawl,Sewri Koliwada, Nr Datta Mandir,Sewree",
    "lat": 19.0000492,
    "lng": 72.8560815
  },
  {
    "name": "FS 400015 Ganesh Nagar Seva Sangh,Acharya Donde Marg,,Sewree",
    "lat": 19.000835,
    "lng": 72.8456267
  },
  {
    "name": "FS 400015 Virchand Niwas,A D Marg,Sewree",
    "lat": 18.9987317,
    "lng": 72.8502094
  },
  {
    "name": "FS 400015 Vitthal Vinayak Sadan,Tokarasi Jivraj Road,Sewree",
    "lat": 18.99449,
    "lng": 72.849292
  },
  {
    "name": "FS 400031 Rahat Nagar,Sewree Cross Road,Behind Dr.Gada'S Clinic,Wadala",
    "lat": 19.0132891,
    "lng": 72.8548981
  },
  {
    "name": "FS 400031 Municipal Chawl,Sewree Cross Road,Near Railwy Gate No 6,Wadala",
    "lat": 19.0065153,
    "lng": 72.8545613
  },
  {
    "name": "FS 400031 Bmc Chawl,Near Janta Floor Mill,Wadala",
    "lat": 19.0132891,
    "lng": 72.8548981
  },
  {
    "name": "FS 400031 Kidwai Nagar Colony Bld,Ra Kidwai Marg,Near Hari Masjid,Wadala",
    "lat": 19.0160207,
    "lng": 72.8588041
  },
  {
    "name": "FS 400031 Shivshahi Prakalp, Mhada Building,Near Rak Police Chowkyy,Wadala",
    "lat": 19.0132891,
    "lng": 72.8548981
  },
  {
    "name": "FS 400031 Madhav Nagar, R.A. Kidwai Road, Opp. Hari Masjid,Wadala",
    "lat": 19.0160207,
    "lng": 72.8588041
  },
  {
    "name": "FS 400033 Bdlb Colony,Shrikant Hadkar Marg,Kalachowky,Kalachowky",
    "lat": 18.9879253,
    "lng": 72.8434242
  },
  {
    "name": "FS 400033 Amar Veer Seva Sangh,Jijamata Nagar,Kalachowky",
    "lat": 18.9894081,
    "lng": 72.8423166
  },
  {
    "name": "FS 400033 Vineet Nagar,,Kalachowky",
    "lat": 18.9901964,
    "lng": 72.8430551
  },
  {
    "name": "FS 400033 Abhudyay Nagar,,Kalachowky",
    "lat": 18.9901964,
    "lng": 72.8430551
  },
  {
    "name": "FS 400033 Parshuram Nagar,G D Ambekar Marg,Kalachowky",
    "lat": 18.9929396,
    "lng": 72.8437734
  },
  {
    "name": "FS 400033 Jijamata Nagar,D Ambedkr Marg,Kalachowki",
    "lat": 18.9894259,
    "lng": 72.8411621
  },
  {
    "name": "FS 400033 Sita Sadan, Dattaram Laad Marg,Klachowky",
    "lat": 18.9885828,
    "lng": 72.837435
  },
  {
    "name": "FS 400033 Jijamata Nagar,Ambedkar Marg,Shubechha,Klachowky",
    "lat": 18.9856333,
    "lng": 72.8441629
  },
  {
    "name": "FS 400033 Mangalmurti Chs, Dattaram Lad Marg,Kalachouki",
    "lat": 18.9880477,
    "lng": 72.8412871
  },
  {
    "name": "FS 400033 Vighnaharta Bldg.,G.D. Ambekar Marg,Kalachouki",
    "lat": 18.9890809,
    "lng": 72.8413443
  },
  {
    "name": "FS 400033 New Police Line,,Kalachouki",
    "lat": 18.9877738,
    "lng": 72.8427696
  },
  {
    "name": "FS 400033 New Police Officer Quarters,,Kalachouki",
    "lat": 18.9901964,
    "lng": 72.8430551
  },
  {
    "name": "FS 400033 Ishwati Prasad Bldg.,Dattaram Lad Marg,Kalachowki",
    "lat": 18.9881898,
    "lng": 72.8389303
  },
  {
    "name": "FS 400033 Nuji Marwadi Chawl,G D Ambedkar Marg,Kalachowki",
    "lat": 18.9906846,
    "lng": 72.8415291
  },
  {
    "name": "FS 400033 Chawl Behind Bldg. 11A, Abhyday Nagar,,Kalachowki",
    "lat": 18.9901964,
    "lng": 72.8430551
  },
  {
    "name": "GN 400016 Navin Mahim Police Vasahat,,Mahim",
    "lat": 19.0422001,
    "lng": 72.8391157
  },
  {
    "name": "GN 400016 Razzak Manzil,Lj Road,Mahim",
    "lat": 19.0406592,
    "lng": 72.8407851
  },
  {
    "name": "GN 400016 Noorani Bdlg,Cadel Rd,Mahim",
    "lat": 19.041281,
    "lng": 72.8383973
  },
  {
    "name": "GN 400016 Sagar Darshan, D Wing 604,Near Swami Vivekanand Garden,Mahim",
    "lat": 19.0462065,
    "lng": 72.8392818
  },
  {
    "name": "GN 400016 Mahim Killa Compound,Fort Rd,Near Mahim Police Stn,Mahim",
    "lat": 19.0422001,
    "lng": 72.8391157
  },
  {
    "name": "GN 400016 Rose Blossom Society,Shitladevi Temple Rd,Near Ram Madir,Mahim",
    "lat": 19.0357413,
    "lng": 72.8407241
  },
  {
    "name": "GN 400016 Municipal Patra Marg,Near Hinduja Hospital,Mahim",
    "lat": 19.0331962,
    "lng": 72.839102
  },
  {
    "name": "GN 400016 Mahalaxmi Chs,Mawmala Tank,Mahim",
    "lat": 19.0279193,
    "lng": 72.8434804
  },
  {
    "name": "GN 400016 Pension Chawl,4Th Road,Opp Mahim Police Stn,Mahim",
    "lat": 19.0422001,
    "lng": 72.8391157
  },
  {
    "name": "GN 400016 Gurudutta Soc,Causeway Road,Ramgad,Mahim",
    "lat": 19.0482894,
    "lng": 72.8383014
  },
  {
    "name": "GN 400016 Indira Nagar Pipeline,Mahim West,Mahim",
    "lat": 19.0461138,
    "lng": 72.8395333
  },
  {
    "name": "GN 400016 Zopadpatty,Near Arfa Hotel,Azad Nagar Mahim Patak,Mahim",
    "lat": 19.0389455,
    "lng": 72.8420546
  },
  {
    "name": "GN 400016 Naya Nagar,Opp Raheja Hosp,Mahim",
    "lat": 19.0462839,
    "lng": 72.8426792
  },
  {
    "name": "GN 400016 Kashinath Building,Cadell Road,Mahim",
    "lat": 19.0409124,
    "lng": 72.8401483
  },
  {
    "name": "GN 400016 Makhdoomya Nagar Society,Causeway Road,Behind Mahim Bus Depo,Mahim West",
    "lat": 19.0389455,
    "lng": 72.8420546
  },
  {
    "name": "GN 400016 Agashwadi,,Mahim, East",
    "lat": 19.0386825,
    "lng": 72.8490338
  },
  {
    "name": "GN 400016 7 Carol Mansion,Shitbadevi Road,Mahim",
    "lat": 19.0351315,
    "lng": 72.8442358
  },
  {
    "name": "GN 400016 S.P. Kawaliwadi,L.J. Road,Mahim",
    "lat": 19.0334783,
    "lng": 72.8422859
  },
  {
    "name": "GN 400016 Atmaram Building,Balamia Road,Mahim,West",
    "lat": 19.0398879,
    "lng": 72.8402695
  },
  {
    "name": "GN 400016 Fisherman Colony,Shiv Shakti Nagar,Opp Building No 10,Mahim",
    "lat": 19.046729,
    "lng": 72.8408395
  },
  {
    "name": "GN 400017 Shakti Chawl, Mukund Nagar, Dambavi Company,Dharavi",
    "lat": "",
    "lng": ""
  },
  {
    "name": "GN 400017 Moulana Azad Nagar,Jasmin Road,Dharavi",
    "lat": 19.0434327,
    "lng": 72.8584151
  },
  {
    "name": "GN 400017 Janta Society,Opp Abhudaya Bank,Dharavi",
    "lat": 19.0436389,
    "lng": 72.8499579
  },
  {
    "name": "GN 400017 Sion Social Nagar,M.G Road,Near Mariamma Mandir,Abjuman Gausiya Line,Dharavi",
    "lat": 19.0827261,
    "lng": 72.9047882
  },
  {
    "name": "GN 400017 Muslim Nagar,60 Ft Road,Near Gusiya Masjid,Dharavi",
    "lat": 19.0384132,
    "lng": 72.8531484
  },
  {
    "name": "GN 400017 Mukund Nagar,Near Ongc,Dharavi",
    "lat": 19.0486206,
    "lng": 72.8576206
  },
  {
    "name": "GN 400017 Veer Lahuji Vasahat Rahiwasi Sangh,Near Taj Hotel,Dharavi",
    "lat": 19.0455916,
    "lng": 72.8537063
  },
  {
    "name": "GN 400017 Muslim Nagar,Near Bismilla Hotel,Near 90 Feet Road,Dharavi",
    "lat": 19.0467508,
    "lng": 72.8601312
  },
  {
    "name": "GN 400017 Ganesh Chawl,Near Hotel Priyanka,Next To Mukund Nagar,Dharavi",
    "lat": 19.0503649,
    "lng": 72.8567107
  },
  {
    "name": "GN 400017 Nityanand Society,Mukund Nagar,Sion Bandra Link Road,Dharavi",
    "lat": 19.0485395,
    "lng": 72.8544518
  },
  {
    "name": "GN 400017 Sanjay Chawl Society,Behind Municipal School,Dharavi",
    "lat": 19.0455916,
    "lng": 72.8537063
  },
  {
    "name": "GN 400017 Kasarwadi Municipal Chawl,Shivaji Park,Dadar West",
    "lat": 19.0462117,
    "lng": 72.8617868
  },
  {
    "name": "GN 400017 Naik Nagar Saibaba Gali,Lbs Marg,Dharavi",
    "lat": 19.0542017,
    "lng": 72.868179
  },
  {
    "name": "GN 400017 Netaji Building, Kalyanwadi,,Dharavi",
    "lat": 19.0455916,
    "lng": 72.8537063
  },
  {
    "name": "GN 400017 Mahatma Gandhi Chawl Social Nagar,90 Feet Rd,Nuridha Masjid,Dharavi",
    "lat": 19.045811,
    "lng": 72.861671
  },
  {
    "name": "GN 400017 Prakash Nagar,,Mahim W",
    "lat": 19.0329419,
    "lng": 72.8450377
  },
  {
    "name": "GN 400017 Kunchi Karve Nagar,60 Ft Road,Dharavi",
    "lat": 19.0392073,
    "lng": 72.8519556
  },
  {
    "name": "GN 400017 Shiv Shakti Nagar, New Municipal Chawl,Cross Rd,Dharavi",
    "lat": 19.0462117,
    "lng": 72.8617868
  },
  {
    "name": "GN 400017 Punwala Chawl,Main Rd,Kalyanwadi,Dharavi",
    "lat": 19.0391258,
    "lng": 72.8497496
  },
  {
    "name": "GN 400017 Akg Ngr,60 Feet Rd,Near Usmaniya Hotel,Dharavi",
    "lat": 19.040483,
    "lng": 72.851117
  },
  {
    "name": "GN 400017 Shiv Shakti Nagar,Dhorwada,Santkakay Marg,Dharavi",
    "lat": 19.0455916,
    "lng": 72.8537063
  },
  {
    "name": "GN 400017 Sanaullah Compound, Sion Mahim Link Rd,Opp To Dillar Hotel,Dharavi",
    "lat": 19.0456749,
    "lng": 72.8473025
  },
  {
    "name": "GN 400017 Shahid Bhagat Singh Nagar Kumbharwada,,Dharavi",
    "lat": "",
    "lng": ""
  },
  {
    "name": "GN 400017 Lokmanya Tilak Nagar,Dharavi Cross Road,Dharavi, Mumbai",
    "lat": 19.0425948,
    "lng": 72.8533025
  },
  {
    "name": "GN 400017 Mukund Nagar, A-Ward,Dharavi Main Road,Dharavi",
    "lat": 19.0446558,
    "lng": 72.852176
  },
  {
    "name": "GN 400017 Padma Gopal Vilas Chawl,,Dharavi",
    "lat": 19.0455916,
    "lng": 72.8537063
  },
  {
    "name": "GN 400017 Basweshwar Ngr,Dharavi Cross Rd,Dharavi",
    "lat": 19.0425948,
    "lng": 72.8533025
  },
  {
    "name": "GN 400017 Manzi Wadi Gopal Mistri Compd,Cross Rd,Dharavi",
    "lat": 19.0425948,
    "lng": 72.8533025
  },
  {
    "name": "GN 400017 Ujala Chawl Committee,Gopinath Colony,Inda Qureshi Nagar,Dharavi",
    "lat": 19.059906,
    "lng": 72.8773938
  },
  {
    "name": "GN 400017 Abbu Bakar Chawl,Bagicha Compound,Dharavi",
    "lat": 19.0443514,
    "lng": 72.8519402
  },
  {
    "name": "GN 400017 Samadhan Chs,Dhorwada,Dharavi",
    "lat": 19.0451693,
    "lng": 72.8558173
  },
  {
    "name": "GN 400017 Bhimjimamji Chawl,Kapad Bazar,",
    "lat": 19.0370883,
    "lng": 72.8395471
  },
  {
    "name": "GN 400017 Sankraman Shibir,Transit Camp,Dharavi",
    "lat": 19.0418807,
    "lng": 72.857825
  },
  {
    "name": "GN 400017 Municipality School,Near Dharavai Police Chowki,Dharavi",
    "lat": 19.0467736,
    "lng": 72.8519883
  },
  {
    "name": "GN 400017 United Residency,Sant Rohidas Marg,Kalakilla,Dharavi",
    "lat": 19.0478061,
    "lng": 72.8597617
  },
  {
    "name": "GN 400017 Indira Nagar,90 Feet Rd,Dharavi",
    "lat": 19.038767,
    "lng": 72.854171
  },
  {
    "name": "GN 400017 Narsingh Chawl,Dharavi Cross Rd,Dharavi",
    "lat": 19.0425948,
    "lng": 72.8533025
  },
  {
    "name": "GN 400017 Madina Nagar,Kutti Wadi, 60 Ft Rd,Dharavi",
    "lat": 19.0410725,
    "lng": 72.8504077
  },
  {
    "name": "GN 400017 Ajmeri Chawl,Tekda Masjid,Dharavi",
    "lat": 19.043521,
    "lng": 72.8508209
  },
  {
    "name": "GN 400017 V K Wadi, Z Patti,T Junction,Dharavi",
    "lat": 19.0476725,
    "lng": 72.852701
  },
  {
    "name": "GN 400017 Mahinm Patak Azad Nagar,Z Patti,Dharavi",
    "lat": 19.0455916,
    "lng": 72.8537063
  },
  {
    "name": "GN 400017 Manju Wadi,Kakkaya Marg,Ganesh /Mandir Marg,Dharavi",
    "lat": 19.0422198,
    "lng": 72.8527491
  },
  {
    "name": "GN 400017 Cozy Shelter,Cross Rd,Dharavi",
    "lat": 19.0427614,
    "lng": 72.8522172
  },
  {
    "name": "GN 400017 Kumbhar Wada,Sant Gora Kumbhar Marg,Near 11 Heights Soc,Dharavi",
    "lat": 19.0376949,
    "lng": 72.8552384
  },
  {
    "name": "GN 400017 Satekarya Chawl,Mukund Nagar,Holi Maidan,Dharavi",
    "lat": 19.0468834,
    "lng": 72.8551942
  },
  {
    "name": "GN 400017 Meena Tai Soc,Kalyanwadi,Dharavi,Dharavi",
    "lat": 19.0455916,
    "lng": 72.8537063
  },
  {
    "name": "GN 400017 Phule Chawl,90 Ft Rd,Dharavi",
    "lat": 19.0430343,
    "lng": 72.8570919
  },
  {
    "name": "GN 400017 Chamda Bazar,Dhravi Main Road,Dharavi",
    "lat": 19.0445293,
    "lng": 72.852254
  },
  {
    "name": "GN 400017 Sai Baba Nagar,90 Ft Rd,Near Hussainiya Masjid,Dharavi",
    "lat": 19.043219,
    "lng": 72.8584863
  },
  {
    "name": "GN 400017 Gangadhar Chawl,Behind Sion Railway Quarters,Sion,Dharavi",
    "lat": 19.0465102,
    "lng": 72.8632615
  },
  {
    "name": "GN 400017 Azad Nagar,,Dharavi",
    "lat": 19.1268998,
    "lng": 72.8376982
  },
  {
    "name": "GN 400017 Green Palace Gajanan House,Near Shastri Nagar Rd,Dharavi",
    "lat": 19.0455916,
    "lng": 72.8537063
  },
  {
    "name": "GN 400017 Janta Nagar, M M Bdlg,Laxmi Baug,Dharavi",
    "lat": 19.0457536,
    "lng": 72.8607789
  },
  {
    "name": "GN 400017 Gopinath Colony,Khambadevi Road,Near Church,Dharavi",
    "lat": 19.0460447,
    "lng": 72.8587653
  },
  {
    "name": "GN 400017 Banwari Compound,Sion Mahim Link Rd,Dharavi",
    "lat": 19.045967,
    "lng": 72.843058
  },
  {
    "name": "GN 400017 Koliwada,Sant Kakkaya Marg,Dharavi",
    "lat": 19.0441167,
    "lng": 72.8544509
  },
  {
    "name": "GN 400017 Uday Bdlg,60 Ft Rd,Dharavi",
    "lat": 19.0410725,
    "lng": 72.8504077
  },
  {
    "name": "GN 400017 Pradise Residency,Dharavi Cross Road,Dharavi",
    "lat": 19.0425948,
    "lng": 72.8533025
  },
  {
    "name": "GN 400017 Dharavi Police Station,90 Feet Road,Dharavi",
    "lat": 19.0431287,
    "lng": 72.8573624
  },
  {
    "name": "GN 400017 Shiv Shakti Nagar,Dharavi Cross Road,Dharavi",
    "lat": 19.0425948,
    "lng": 72.8533025
  },
  {
    "name": "GN 400017 Palakar Chawl,Charawi Cross Road,Dharavi",
    "lat": 19.0425948,
    "lng": 72.8533025
  },
  {
    "name": "GN 400017 Kamla Nehru Nagar,90 Feet Road,Opp. Kamraj School,Dharavi",
    "lat": 19.0419158,
    "lng": 72.8553445
  },
  {
    "name": "GN 400017 Bhartiya Chawl,Dhorwada Road,M P Nagar,Dharavi",
    "lat": 19.0456311,
    "lng": 72.8566745
  },
  {
    "name": "GN 400017 Magal Wadi,Dharavi Road,Dharavi",
    "lat": 19.051833,
    "lng": 72.8610851
  },
  {
    "name": "GN 400017 Satabdi Tower, Pmgp Colony,Loop Raod,Shatabdi Tower,Dharavi",
    "lat": 19.0504077,
    "lng": 72.8625472
  },
  {
    "name": "GN 400017 Shatabdi Nagar, E Galli,Loop Road,Dharavi",
    "lat": 19.0427358,
    "lng": 72.8586983
  },
  {
    "name": "GN 400017 Abu Bakhar Chawl,Dharavi Main Road,Chamda Bazar,Dharavi",
    "lat": 19.044861,
    "lng": 72.8528517
  },
  {
    "name": "GN 400017 Social Nagar,Machchi Galli,Zpatti,90 Ft Road,Near Usmani Masjid,Dharavi",
    "lat": 19.0447854,
    "lng": 72.8585484
  },
  {
    "name": "GN 400017 New Bharat Janata Chs,Indira Nagar,60 Ft Road,Dharavi",
    "lat": 19.0455916,
    "lng": 72.8537063
  },
  {
    "name": "GN 400017 Vijay Nagar,Transit Camp,M G Road,Tata Power House,Dharavi",
    "lat": 19.0418807,
    "lng": 72.857825
  },
  {
    "name": "GN 400017 Rajeev Gandhi Chawl,Dharavi Main Road,Madina Compound,Kalyanwadi,Dharavi",
    "lat": 19.0446558,
    "lng": 72.852176
  },
  {
    "name": "GN 400017 Akashwadi,Dharavi Cross Rd,Near Ganesh Mandir,Dharavi",
    "lat": 19.0425948,
    "lng": 72.8533025
  },
  {
    "name": "GN 400017 Subhash Nagar Chs,Sant Gora Kumbhar Marg,Kumbharwada,Dharavi",
    "lat": 19.0381245,
    "lng": 72.8559548
  },
  {
    "name": "GN 400017 New Gandhi Chawl,M.G. Road,Social Nagar,Dharavi",
    "lat": 19.0827261,
    "lng": 72.9047882
  },
  {
    "name": "GN 400017 Dharavi Mumbai,",
    "lat": 19.0456925,
    "lng": 72.8618726
  },
  {
    "name": "GN 400017 Deulgaon Raje Teh Daund,,Dharavi",
    "lat": 19.0455916,
    "lng": 72.8537063
  },
  {
    "name": "GN 400017 Rajiv Gandhi Nagar,Transist Camp,Dharavi",
    "lat": 19.0430343,
    "lng": 72.8570919
  },
  {
    "name": "GN 400017 Santosh Chawl, Kunchi Karve Nagar,60 Ft Road,Dharavi",
    "lat": 19.0392073,
    "lng": 72.8519556
  },
  {
    "name": "GN 400017 Rajiv Gandhi Sports Complex,,Dharavi",
    "lat": 19.0491892,
    "lng": 72.8573994
  },
  {
    "name": "GN 400017 Laxmi Chawl Committee,Room Noo.223,Indira Qurishi Nagar,Dharavi",
    "lat": 19.0404056,
    "lng": 72.8540754
  },
  {
    "name": "GN 400017 Transist Camp,,Dharavi",
    "lat": 19.0418807,
    "lng": 72.857825
  },
  {
    "name": "GN 400017 Mahrashtra Nagar Chs,90 Feet Road,Dharvi",
    "lat": 19.0430343,
    "lng": 72.8570919
  },
  {
    "name": "GN 400017 Venketeshwar Chawl,Anna Nagar,Kumbharwadi,Dharavi",
    "lat": 19.0404412,
    "lng": 72.8537663
  },
  {
    "name": "GN 400017 Meena Plastic Chawl,Azad Nagar,Khaifer Hotel,Dharavi",
    "lat": 19.0455916,
    "lng": 72.8537063
  },
  {
    "name": "GN 400017 Chal No262,Kalyanwadi,Dharavi",
    "lat": 19.0455916,
    "lng": 72.8537063
  },
  {
    "name": "GN 400017 Msaiyah Bldg,Islampura Society,90 Ft Road,Dharavi",
    "lat": 19.0430343,
    "lng": 72.8570919
  },
  {
    "name": "GN 400017 Gautam Chawl Shiv Shakti Nagar,Cross Road,Dharavi",
    "lat": 19.0425948,
    "lng": 72.8533025
  },
  {
    "name": "GN 400017 Keshaw Akkar Chawl,Piwla Bunglow,Koliwada,Dharavi",
    "lat": 19.0474708,
    "lng": 72.8542056
  },
  {
    "name": "GN 400017 Rajeev Gandhi Chawl,Maharana Pratapnagar,Cross Road,Dhorwada,Dharavi",
    "lat": 19.0411624,
    "lng": 72.857825
  },
  {
    "name": "GN 400017 Tagor Ara Chs,Anna Nagar,Kumbharwada,Dharavi",
    "lat": "",
    "lng": ""
  },
  {
    "name": "GN 400017 Subhall Nagar,Labour Camp,,Dharavi",
    "lat": 19.0370086,
    "lng": 72.8519172
  },
  {
    "name": "GN 400017 Pmgp Colony,Near Dharavi Bus Stop,Dharavi",
    "lat": 19.0508525,
    "lng": 72.8615174
  },
  {
    "name": "GN 400017 Kamraj Memorial Chawl, Subhash Nagar,90 Ft Road,Dharavi",
    "lat": 19.0419158,
    "lng": 72.8553445
  },
  {
    "name": "GN 400017 Indra Nagar,Latur Galli,90 Ft Road,New Police Station,Dharavi",
    "lat": 19.0431287,
    "lng": 72.8573624
  },
  {
    "name": "GN 400017 Matoshri Chs, Basweshwar Nagar,,Dharavi",
    "lat": 19.0442268,
    "lng": 72.8553087
  },
  {
    "name": "GN 400017 Jaydeep Chs, Mukund Nagar, A Ward,Cross Road,Dharavi",
    "lat": 19.0425948,
    "lng": 72.8533025
  },
  {
    "name": "GN 400017 New Chawl, Subhash Nagar,Kumbharwada,Dharavi",
    "lat": "",
    "lng": ""
  },
  {
    "name": "GN 400017 Satkarya Chawl,Cross Road,Dharavi",
    "lat": 19.0425948,
    "lng": 72.8533025
  },
  {
    "name": "GN 400017 Suthar Chawl,Kunchikarwe Nagar,Kumbharwada,Dharavi",
    "lat": 18.9498237,
    "lng": 72.8330318
  },
  {
    "name": "GN 400017 Kamala Nagar,Jasmine Mill Road,Dharavi",
    "lat": 19.0428307,
    "lng": 72.846179
  },
  {
    "name": "GN 400017 Balaji Nagar,90 Ft Road,Dharavi",
    "lat": 19.041673,
    "lng": 72.8560043
  },
  {
    "name": "GN 400017 New Chawl, Subhash Nagar,Kumbharwada,Dharavi",
    "lat": "",
    "lng": ""
  },
  {
    "name": "GN 400017 Bharat Chawl,Kunchikurve Nagar,60 Ft Road,Kumbharwada,Dharavi",
    "lat": 19.0390894,
    "lng": 72.8547778
  },
  {
    "name": "GN 400017 Jay Bhavani Building,Sion Bandra Link Road,Dharavi",
    "lat": 19.0452894,
    "lng": 72.864487
  },
  {
    "name": "GN 400017 Menity Chawl,,Dharavi",
    "lat": 19.0455916,
    "lng": 72.8537063
  },
  {
    "name": "GN 400017 Hanuman Chawl,,Dharavi",
    "lat": 19.0455916,
    "lng": 72.8537063
  },
  {
    "name": "GN 400017 Dharavi Main Road,60 Feet Road,Opp Maharshtra Hotel,Dharavi",
    "lat": 19.0437076,
    "lng": 72.8486494
  },
  {
    "name": "GN 400017 New Ganpati Chawl, Social Nagar,M.G. Road,Dharavi",
    "lat": 19.0827261,
    "lng": 72.9047882
  },
  {
    "name": "GN 400017 Mariyam Chawl,Maharna Pratap Nagar,Dhorwada,Dharavi",
    "lat": 19.0455916,
    "lng": 72.8537063
  },
  {
    "name": "GN 400017 Rajeev Gandhi Nagar,Behind Latur Galli,Dharavi",
    "lat": 19.0411624,
    "lng": 72.857825
  },
  {
    "name": "GN 400017 Gopal Mistri Chawl,Nawab Nagar,Dharavi",
    "lat": "",
    "lng": ""
  },
  {
    "name": "GN 400017 Mehboob Subhanu Masjid Nagar,90 Ft Road,Dharavi",
    "lat": 19.0430343,
    "lng": 72.8570919
  },
  {
    "name": "GN 400017 Shanti Building,90 Ft Road,Social Nagar,Dharavi",
    "lat": 19.0458542,
    "lng": 72.8598073
  },
  {
    "name": "GN 400017 Shankar Kawade Chawl,Cross Road,Dharavi",
    "lat": 19.0425948,
    "lng": 72.8533025
  },
  {
    "name": "GN 400017 Shivneri, Indira Nagar,,Dharavi",
    "lat": 19.043458,
    "lng": 72.859302
  },
  {
    "name": "GN 400017 Rajeev Gandhi Building,90Ft Road,Kumbharwada,Dharavi",
    "lat": 19.0430343,
    "lng": 72.8570919
  },
  {
    "name": "GN 400017 Ambedkar Chawl,Sant Kabir Marg, 60Ft Road,Dharavi",
    "lat": 19.1063419,
    "lng": 72.8281825
  },
  {
    "name": "GN 400017 Pradnya Buddha Vihar,Mukund Nagar,Dharavi",
    "lat": 19.0477388,
    "lng": 72.8569262
  },
  {
    "name": "GN 400017 Navrang Society,M.P. Nagar,Dhorwada,Dharavi",
    "lat": 19.045615,
    "lng": 72.8580667
  },
  {
    "name": "GN 400017 Siddharth Nagar,Ramabai Road,Near Anganwadi",
    "lat": 27.2715633,
    "lng": 82.820974
  },
  {
    "name": "GN 400017 Mahatma Gandhi Chs,T Juntion,Dharavi",
    "lat": 19.0471726,
    "lng": 72.8527352
  },
  {
    "name": "GN 400017 Sachin Building,Cross Road,Near Ganesh Mandir,Dharavi",
    "lat": 19.0428871,
    "lng": 72.8518019
  },
  {
    "name": "GN 400019 Matunga Labour Camp, Uday Society,60 Feet Road,Matunga",
    "lat": 19.0390022,
    "lng": 72.8529072
  },
  {
    "name": "GN 400019 Matunga Labour Camp,,Matunga",
    "lat": 19.0390022,
    "lng": 72.8529072
  },
  {
    "name": "GN 400019 Dev Darshan Bdlg,H T Katariya Road,Front Of Poddar Kids School,Matunga",
    "lat": 19.0316732,
    "lng": 72.8428045
  },
  {
    "name": "GN 400019 M L Compound, B Ward,Near Sharda Hotel,Matunga",
    "lat": 19.0266948,
    "lng": 72.8508648
  },
  {
    "name": "GN 400019 Padmashali Co Op Soc, R P Nagar,60 Ft Rd,Matunga",
    "lat": 19.0395483,
    "lng": 72.8512729
  },
  {
    "name": "GN 400019 Matunga Labour Camp,Ambedkar Rd,Walmiki Nagar,Matunga",
    "lat": 19.007344,
    "lng": 72.8412211
  },
  {
    "name": "GN 400019 Tata Housing Colony,Ambedkar Marg,Near Labour Camp,Matunga,West",
    "lat": 19.0370086,
    "lng": 72.8519172
  },
  {
    "name": "GN 400028 Dadar Police Vasahat Bdlg,Gokhale Road,Dadar",
    "lat": 19.014358,
    "lng": 72.835562
  },
  {
    "name": "GN 400028 Agar Bazar,Kaitochi Chawl,,Dadar",
    "lat": 19.0185905,
    "lng": 72.831977
  },
  {
    "name": "GN 400028 Haji Ebrahim Patel Bdlg,Gokhale Rd,Dadar",
    "lat": 19.0167856,
    "lng": 72.8351458
  },
  {
    "name": "GN 400028 Ramabai Nagar,Labour Camp,Matunga",
    "lat": 19.0217224,
    "lng": 72.837479
  },
  {
    "name": "GN 400028 Matunga Labour Camp,60 Ft Road,Labour Camp,Matunga",
    "lat": 19.0389214,
    "lng": 72.8522596
  },
  {
    "name": "GN 400028 Eashwar Niwas Chs,New R. P. Nagar,Matunga",
    "lat": 19.0217224,
    "lng": 72.837479
  },
  {
    "name": "GN 400028 G North,Dadar West,Dadar",
    "lat": 19.023175,
    "lng": 72.8434324
  },
  {
    "name": "GN 400028 Bmc Staff Quaters,Harishchandra Road,Dadar West,Dadar",
    "lat": 19.0231102,
    "lng": 72.8369976
  },
  {
    "name": "GN 400028 Dadar Police Quaters,Shaitan Chowky,Dadar West,Dadar",
    "lat": 19.0152581,
    "lng": 72.8354977
  },
  {
    "name": "GN 400028 Andul Ganni Chawl,Opp Dadar Police Station,Dadar",
    "lat": 19.0150142,
    "lng": 72.8353781
  },
  {
    "name": "GS 400011 Siddhivinayak Building,J. R. Boricha Marg,Mahalaxmi",
    "lat": 18.9878657,
    "lng": 72.827173
  },
  {
    "name": "GS 400011 Shramik Ekta Sra,J. R. Boricha Marg,Mahalaxmi",
    "lat": 18.9882485,
    "lng": 72.8273523
  },
  {
    "name": "GS 400011 Ganesh Nagar - C & D Committee,J. R. Boricha Marg,Mahalaxmi",
    "lat": 18.9878657,
    "lng": 72.827173
  },
  {
    "name": "GS 400011 Ganraj Apartment,J. R. Boricha Marg,Mahalaxmi",
    "lat": 18.9878657,
    "lng": 72.827173
  },
  {
    "name": "GS 400011 32 Tenements,Arthur Road,Chichpokli",
    "lat": 18.9821009,
    "lng": 72.827772
  },
  {
    "name": "GS 400011 Satrasta Dhobhighat,Dr. E. Moses Road,Mahalaxmi",
    "lat": 18.9822455,
    "lng": 72.8255146
  },
  {
    "name": "GS 400011 Rangwala Building,Saatrasta,Mahalaxmi",
    "lat": 18.9822306,
    "lng": 72.8260577
  },
  {
    "name": "GS 400011 Joyeb House Front Of Dhobhighat,Saatrasta,Mahalaxmi",
    "lat": 18.9822455,
    "lng": 72.8255146
  },
  {
    "name": "GS 400011 Kanjwala Building,Saatrasta,Mahalaxmi",
    "lat": 18.9807362,
    "lng": 72.8265158
  },
  {
    "name": "GS 400011 Ambedkar Nagar,Sitaram Mill,Bmc School,Lower Parel",
    "lat": 18.9810451,
    "lng": 72.8267579
  },
  {
    "name": "GS 400011 Zoeb House,Mahalaxmi Dhobighat,Saatrasta",
    "lat": 18.9807362,
    "lng": 72.8265158
  },
  {
    "name": "GS 400011 Rangawala Building,Mahalaxmi Dhobighat,Saatrasta",
    "lat": 18.9807362,
    "lng": 72.8265158
  },
  {
    "name": "GS 400011 Chawl No 25,Shantinagar,Near Kasturaba Hospital,Saatrasta",
    "lat": 18.984196,
    "lng": 72.8299842
  },
  {
    "name": "GS 400011 Agakhan,Saatrasta,Mahalaxmi Dhobighat,Jacob Circle",
    "lat": 18.9822455,
    "lng": 72.8255146
  },
  {
    "name": "GS 400011 Megha Nagar,,Satrasta",
    "lat": 18.982173,
    "lng": 72.8250016
  },
  {
    "name": "GS 400011 Racecourse,2Nd Enclave,Mahalaxmi",
    "lat": 18.9810451,
    "lng": 72.8267579
  },
  {
    "name": "GS 400013 Bdd Nm,N. M. Joshi Marg,Lower Parel",
    "lat": 19.0083734,
    "lng": 72.8304087
  },
  {
    "name": "GS 400013 Mogul House,N. M. Joshi Marg,Lower Parel",
    "lat": 18.9948653,
    "lng": 72.8313547
  },
  {
    "name": "GS 400013 Irani Chawl,G. K. Marg,Lower Parel",
    "lat": 18.9953265,
    "lng": 72.8300577
  },
  {
    "name": "GS 400013 Mahavir Chawl,G. K. Marg,Lower Parel",
    "lat": 18.9979103,
    "lng": 72.8311198
  },
  {
    "name": "GS 400013 Anand Nagar, Ganpat Kokate Marg,G. K. Marg,Lower Parel",
    "lat": 18.9981729,
    "lng": 72.8274691
  },
  {
    "name": "GS 400013 Ali Sheth Patra Chawl, G. K. Marg, Lower Parel,G. K. Marg,Lower Parel",
    "lat": 18.9953265,
    "lng": 72.8300577
  },
  {
    "name": "GS 400013 Hendre Building,G. K. Marg,Lower Parel",
    "lat": 18.9953265,
    "lng": 72.8300577
  },
  {
    "name": "GS 400013 Kamgar Nagar 1 & 2,N. M. Joshi Marg,Lower Parel",
    "lat": 19.0087736,
    "lng": 72.8306738
  },
  {
    "name": "GS 400013 Bhavani Mata Society,N. M. Joshi Marg,Lower Parel",
    "lat": 19.0072721,
    "lng": 72.8317491
  },
  {
    "name": "GS 400013 Maratha Chs,Currey Road,Lower Parel",
    "lat": 18.9953706,
    "lng": 72.832554
  },
  {
    "name": "GS 400013 Bajrang Krupa Building,N. M. Joshi Marg,Lower Parel",
    "lat": 18.9936925,
    "lng": 72.8311923
  },
  {
    "name": "GS 400013 Chimanlal Vitthaldas Chawl,Shankarrao Naram Path,Lower Parel",
    "lat": 19.0008406,
    "lng": 72.8253313
  },
  {
    "name": "GS 400013 Bharat Mill Chs,G. K. Marg,Lower Parel",
    "lat": 18.9953265,
    "lng": 72.8300577
  },
  {
    "name": "GS 400013 Greenfield Society,Delile Road,Near Poddar Mill,Lower Parel",
    "lat": 18.9897039,
    "lng": 72.8313763
  },
  {
    "name": "GS 400013 Bdd 11,Nm Joshi Marg,Near Nm Joshi Police Station,Lower Parel",
    "lat": 18.991418,
    "lng": 72.830998
  },
  {
    "name": "GS 400013 Rustum Building,G K Marg,Lower Parel",
    "lat": 18.9979103,
    "lng": 72.8311198
  },
  {
    "name": "GS 400013 Nestle Guest House,N.M. Joshi Road,Beside Globe Mill School,Prabhadevi",
    "lat": 19.0070847,
    "lng": 72.8302624
  },
  {
    "name": "GS 400013 Vinay Appartment,G.K Marg,Khada Hanuman Temple,Lower Parel",
    "lat": 18.997941,
    "lng": 72.8238728
  },
  {
    "name": "GS 400013 Orbit Tower,Elphinstone Road,Elphinstone Road,Elphinstone",
    "lat": 19.0083354,
    "lng": 72.8320001
  },
  {
    "name": "GS 400013 Raheja Tower,S. N. Path,Lower Parel",
    "lat": 19.0017924,
    "lng": 72.824959
  },
  {
    "name": "GS 400013 Yogeshwari Bulding,N.M Joshi Marg,Curry Road",
    "lat": 18.9951886,
    "lng": 72.8314429
  },
  {
    "name": "GS 400015 Wpc,Sirpochkhanwala,Worli",
    "lat": 18.9960872,
    "lng": 72.8528356
  },
  {
    "name": "GS 400018 Jijamata Nagar,Dr. E. Moses Road,Worli",
    "lat": 18.9929205,
    "lng": 72.8203366
  },
  {
    "name": "GS 400018 Anand Nagar,Dr. E. Moses Road,Worli",
    "lat": 18.9901402,
    "lng": 72.8212713
  },
  {
    "name": "GS 400018 Mata Ramabai Nagar,Dr. E. Moses Road,Worli",
    "lat": 18.9921513,
    "lng": 72.8180919
  },
  {
    "name": "GS 400018 Suryadarshan Apt.,Dr. E. Moses Road,Worli",
    "lat": 18.9901402,
    "lng": 72.8212713
  },
  {
    "name": "GS 400018 Worli Bdd Chawl,G. M. Bhosale Marg,Worli",
    "lat": 19.0025994,
    "lng": 72.8195359
  },
  {
    "name": "GS 400018 Bhaveshwar Chs Ltd.,Dr. Annie Besant Road,Worli",
    "lat": 19.0006245,
    "lng": 72.8164776
  },
  {
    "name": "GS 400018 V. P. Nagar,Dr. Annie Besant Road,Worli",
    "lat": 18.9996816,
    "lng": 72.8169349
  },
  {
    "name": "GS 400018 Siddharth Nagar,Dr. Annie Besant Road,Worli",
    "lat": 18.994261,
    "lng": 72.814933
  },
  {
    "name": "GS 400018 Pankaj Mansion C Wing,Dr. Annie Besant Road,Worli",
    "lat": 19.000967,
    "lng": 72.8156083
  },
  {
    "name": "GS 400018 Worli Police Camp,Sir Pochkhanwala Road,Worli",
    "lat": 19.0080249,
    "lng": 72.8159065
  },
  {
    "name": "GS 400018 Ashishwang Bldg.,Sir Pochkhanwala Road,Worli",
    "lat": 19.0038674,
    "lng": 72.8151507
  },
  {
    "name": "GS 400018 Shivaji Nagar,Sasmira Marg,Worli",
    "lat": 19.0127552,
    "lng": 72.8203792
  },
  {
    "name": "GS 400018 Prem Nagar,B. G. Kher Marg,Worli",
    "lat": 18.996281,
    "lng": 72.8155171
  },
  {
    "name": "GS 400018 Mariamma Nagar,Dr. Annie Besant Road,Worli",
    "lat": 18.9992156,
    "lng": 72.8171977
  },
  {
    "name": "GS 400018 Lady Ratan,Dainik Shivner Marg,Worli",
    "lat": 18.9931325,
    "lng": 72.8222459
  },
  {
    "name": "GS 400018 Shivaji Nagar,Sasmira Marg,Worli",
    "lat": 19.0127552,
    "lng": 72.8203792
  },
  {
    "name": "GS 400018 Govt Colony, Bldg. No. 5,Lala Lajpatrai Road,Worli",
    "lat": 18.9818998,
    "lng": 72.8142506
  },
  {
    "name": "GS 400018 Motilal Nehru Nagar Slum,Dr. Annie Besant Road,Worli",
    "lat": 18.9900593,
    "lng": 72.8147973
  },
  {
    "name": "GS 400018 Markandeshwar Nagar, Worli,Dr. Annie Besant Road,Worli",
    "lat": 18.991582,
    "lng": 72.8141433
  },
  {
    "name": "GS 400018 Nehru Nagar,Dr. Annie Besant Road,Worli",
    "lat": 18.9900593,
    "lng": 72.8147973
  },
  {
    "name": "GS 400018 Atomica Bldg,Worli Hill Road,Worli",
    "lat": 18.9963793,
    "lng": 72.8145787
  },
  {
    "name": "GS 400018 Bhiwandiwala,G. M. Bhosale Marg,Worli",
    "lat": 18.9989882,
    "lng": 72.8177364
  },
  {
    "name": "GS 400018 Pathan Chawl,Dr. E. Moses Road,Worli",
    "lat": 18.9901402,
    "lng": 72.8212713
  },
  {
    "name": "GS 400018 New Ambalal Chawl, Worli Naka,Dr. E. Moses Road,Worli",
    "lat": 18.9976991,
    "lng": 72.8178981
  },
  {
    "name": "GS 400018 Bmc Chawl No. 9, Worli  18,Dr. E. Moses Road,Worli",
    "lat": 18.9933857,
    "lng": 72.8201647
  },
  {
    "name": "GS 400018 Sainath Society,Dr. Annie Besant Road,Worli",
    "lat": 18.9907287,
    "lng": 72.8148605
  },
  {
    "name": "GS 400018 Parel Shivneri,L. R. Papan Marg,Worli",
    "lat": 18.9951749,
    "lng": 72.8222372
  },
  {
    "name": "GS 400018 Bharat Nagar,Dainik Shivner Marg,Worli",
    "lat": 18.9957447,
    "lng": 72.8227748
  },
  {
    "name": "GS 400018 Mahakali Nagar,Sasmira Marg,Worli",
    "lat": 19.0127552,
    "lng": 72.8203792
  },
  {
    "name": "GS 400018 Piramal House,R. G. Thadani,Worli",
    "lat": 19.0060082,
    "lng": 72.8168757
  },
  {
    "name": "GS 400018 Mahatma Phule Nagar,,Worli",
    "lat": 18.9985145,
    "lng": 72.8173545
  },
  {
    "name": "GS 400018 Mahatma Phule Nagar,A G Khan Road,Near Masjid,Worli",
    "lat": 19.0049505,
    "lng": 72.8135975
  },
  {
    "name": "GS 400018 Mahatma Phule Nagar,A G Khan Road,Kirana Store,Worli",
    "lat": 19.0049505,
    "lng": 72.8135975
  },
  {
    "name": "GS 400018 Markandeshwar Nagar,A B Road,Sai Mandir,Worli",
    "lat": 18.9921773,
    "lng": 72.8135385
  },
  {
    "name": "GS 400018 Krishna Raj Society,E Moses Road,Worli",
    "lat": 18.9901402,
    "lng": 72.8212713
  },
  {
    "name": "GS 400018 Pathan Chawl,E Moses Road,Worli",
    "lat": 18.9689084,
    "lng": 72.8450629
  },
  {
    "name": "GS 400018 Markandeshwar Nagar,A B Road,Worli",
    "lat": 18.9898795,
    "lng": 72.8152277
  },
  {
    "name": "GS 400018 Wpc, Police Camp,Sirpochkhanwala,Worli",
    "lat": 19.0054116,
    "lng": 72.8142511
  },
  {
    "name": "GS 400018 Bhaveshwar,Ab Road,Opp Poddar,Worli",
    "lat": 18.9898795,
    "lng": 72.8152277
  },
  {
    "name": "GS 400018 Bdd,Gm Bhosle Marg,Worli",
    "lat": 19.0025994,
    "lng": 72.8195359
  },
  {
    "name": "GS 400018 Bdd,Gm Bhosle Marg,Worli",
    "lat": 19.0025994,
    "lng": 72.8195359
  },
  {
    "name": "GS 400018 Century,Pb Marg,Worli",
    "lat": 19.0062396,
    "lng": 72.8216454
  },
  {
    "name": "GS 400018 Century,Pb Marg,Worli",
    "lat": 19.0062396,
    "lng": 72.8216454
  },
  {
    "name": "GS 400018 Bdd,Gm Bhosle Marg,Worli",
    "lat": 19.0025994,
    "lng": 72.8195359
  },
  {
    "name": "GS 400018 Bdd,Gm Bhosle Marg,Worli",
    "lat": 19.0025994,
    "lng": 72.8195359
  },
  {
    "name": "GS 400018 Merryland,Rg Thadani Marg,Worli",
    "lat": 19.0015762,
    "lng": 72.8132405
  },
  {
    "name": "GS 400018 Rustom Court,Ab Road,Worli",
    "lat": 19.0018399,
    "lng": 72.8152427
  },
  {
    "name": "GS 400018 Wpc, Police Camp,Sirpochkhanwala,Worli",
    "lat": 19.0054116,
    "lng": 72.8142511
  },
  {
    "name": "GS 400018 New Municipal Building,Rg Thadani Marg,Worli",
    "lat": 19.0013055,
    "lng": 72.8151854
  },
  {
    "name": "GS 400018 Wpc, Police Camp,Sirpochkhanwala,Worli",
    "lat": 19.0054116,
    "lng": 72.8142511
  },
  {
    "name": "GS 400018 Venus,Rg Thadani Marg,Worli",
    "lat": 19.0008737,
    "lng": 72.812911
  },
  {
    "name": "GS 400018 Mahalaxmi Sra,Pb Marg,Worli",
    "lat": 19.0072835,
    "lng": 72.8236729
  },
  {
    "name": "GS 400018 Wpc, Police Camp,Sirpochkhanwala,Worli",
    "lat": 19.0054116,
    "lng": 72.8142511
  },
  {
    "name": "GS 400018 Darshana,Ab Road,Worli",
    "lat": 18.9898795,
    "lng": 72.8152277
  },
  {
    "name": "GS 400018 Bdd,Gm Bhosle Marg,Worli",
    "lat": 19.0025994,
    "lng": 72.8195359
  },
  {
    "name": "GS 400018 Slum,Dr. A.B.Road,Sai Mandir,Worli",
    "lat": 22.9005923,
    "lng": 75.9757127
  },
  {
    "name": "GS 400018 Slum,Dr. A.B.Road,Dr Gupta Clinic,Worli",
    "lat": 18.9985145,
    "lng": 72.8173545
  },
  {
    "name": "GS 400018 Parel Shivneri B Wing,D.S.Road,Worli",
    "lat": 18.9951749,
    "lng": 72.8222372
  },
  {
    "name": "GS 400018 Building No.8,D.S.Road,Durga Mandir,Worli",
    "lat": 19.0178558,
    "lng": 72.8573727
  },
  {
    "name": "GS 400018 Motilal Nagar,Dr. A.B.Road,Church,Worli",
    "lat": 19.1580375,
    "lng": 72.8357564
  },
  {
    "name": "GS 400018 Markandeshwar Nagar,Dr. A.B.Road,Sai Mandir,Worli",
    "lat": 18.9898795,
    "lng": 72.8152277
  },
  {
    "name": "GS 400018 Motilal Nagar,Dr. A.B.Road,Worli",
    "lat": 18.9898795,
    "lng": 72.8152277
  },
  {
    "name": "GS 400018 Bharat Nagar,D.S.Road,Durga Mandir,Worli",
    "lat": 19.0178558,
    "lng": 72.8573727
  },
  {
    "name": "GS 400018 Shivneri A Wing,D.S.Road,Worli",
    "lat": 19.0178558,
    "lng": 72.8573727
  },
  {
    "name": "GS 400018 Shivganesh,D.S.Road,Worli",
    "lat": 19.0178558,
    "lng": 72.8573727
  },
  {
    "name": "GS 400018 Bmc Colony, Narayan Pujari Nagar,A G Khan Road,Sahakar Bhandar,Worli",
    "lat": 18.9938655,
    "lng": 72.8139771
  },
  {
    "name": "GS 400018 Patel Appartment,B G Kher Marg,Campacola Compound,Worli",
    "lat": 18.9974986,
    "lng": 72.8152898
  },
  {
    "name": "GS 400018 Markandeshwar Nagar,Dr. A.B.Road,Sai Mandir,Worli",
    "lat": 18.9898795,
    "lng": 72.8152277
  },
  {
    "name": "GS 400018 Shivshaila Building,E Moses Road,Worli",
    "lat": 18.9978774,
    "lng": 72.8187981
  },
  {
    "name": "GS 400018 Shivtej Building,D.S.Road,Worli",
    "lat": 19.0178558,
    "lng": 72.8573727
  },
  {
    "name": "GS 400018 Mahatma Phule Nagar,A G Khan Road,Worli",
    "lat": 19.0010678,
    "lng": 72.8115906
  },
  {
    "name": "GS 400018 Shivshaila Building,Dr. E.Moses Road,Worli",
    "lat": 18.9978774,
    "lng": 72.8187981
  },
  {
    "name": "GS 400018 Darshna Building,A. B. Road,Poddar Hospital,Worli",
    "lat": 22.9005923,
    "lng": 75.9757127
  },
  {
    "name": "GS 400018 Venus App,R.G. Thadani Marg,Worli",
    "lat": 19.0030228,
    "lng": 72.8137682
  },
  {
    "name": "GS 400018 Pankaj Mansion,A. B. Road,Worli",
    "lat": 19.000967,
    "lng": 72.8156083
  },
  {
    "name": "GS 400018 Madraswadi Worlinaka,,Madraswadi Worlinaka",
    "lat": 19.000633,
    "lng": 72.8168121
  },
  {
    "name": "GS 400018 Naulaka Buliding,A.G. Khan Road,Madraswadi Worlinaka",
    "lat": 19.000633,
    "lng": 72.8168121
  },
  {
    "name": "GS 400025 Rameshwar Prasad Chs,Veer Savarkar Marg,Prabhadevi",
    "lat": 19.0132989,
    "lng": 72.8249252
  },
  {
    "name": "GS 400025 Shri Siddhi Sayani Road,Sayani Road,Prabhadevi",
    "lat": 19.0160041,
    "lng": 72.8287449
  },
  {
    "name": "GS 400025 Century Colony,Pandurang Budhkar Marg,Prabhadevi",
    "lat": 19.0062595,
    "lng": 72.8222467
  },
  {
    "name": "GS 400025 Charak,Murari Ghag Marg,Prabhadevi",
    "lat": 19.0143924,
    "lng": 72.8267519
  },
  {
    "name": "GS 400025 Prabha Vinayak Bldg.,Murari Ghag Marg,Prabhadevi",
    "lat": 19.0133585,
    "lng": 72.8273967
  },
  {
    "name": "GS 400025 Anand Niketan,Fitwala Road,Prabhadevi",
    "lat": 19.0080798,
    "lng": 72.8340311
  },
  {
    "name": "GS 400025 Shanti Niwas,Fitwala Road,Prabhadevi",
    "lat": 19.0080523,
    "lng": 72.8344915
  },
  {
    "name": "GS 400025 Royal Palace,Fitwala Road,Prabhadevi",
    "lat": 19.0078661,
    "lng": 72.8342368
  },
  {
    "name": "GS 400025 Siddhi Mohammed Chawl,Old Prabhadevi Road,Prabhadevi",
    "lat": 19.0149893,
    "lng": 72.8253309
  },
  {
    "name": "GS 400025 Dadar Pashim,K.D. Marg,Near Kirti College,Prabhadevi",
    "lat": 19.0213252,
    "lng": 72.8310621
  },
  {
    "name": "GS 400025 Sukhsagar Building,R.D. Marg,Near Prabhadevi Post Office,Prabhadevi",
    "lat": 19.0110535,
    "lng": 72.8285901
  },
  {
    "name": "GS 400025 Adeshwar Bulding,Khed Gully,Sayani,Prabhadevi",
    "lat": 19.0157771,
    "lng": 72.8295652
  },
  {
    "name": "GS 400025 Shiv Siddhi,Sayani Road,Prabhadevi",
    "lat": 19.0113635,
    "lng": 72.8315697
  },
  {
    "name": "GS 400025 Kamgar Nagar 1,,Prabhadevi",
    "lat": 19.0101414,
    "lng": 72.8280996
  },
  {
    "name": "GS 400030 Worli Koliwada,Golphadevi Road,Worli",
    "lat": 19.0169991,
    "lng": 72.8197354
  },
  {
    "name": "GS 400030 Janta Colony,Hatiskar Marg,Worli",
    "lat": 19.016758,
    "lng": 72.8245412
  },
  {
    "name": "GS 400030 Worlikar House, Pakkhari Lane,Kesarinath Buva Bhaye Marg,Near Shakha,Worli Village",
    "lat": 19.023362,
    "lng": 72.8171839
  },
  {
    "name": "GS 400030 Adarsh Nagar,Hardikar Marg,Adarsh Nagar,Nr Mahakali Nagar,Worli,Adarsh Nagar",
    "lat": 19.0161731,
    "lng": 72.820638
  },
  {
    "name": "GS 400030 Bdd,Gm Bhosle Marg,Worli",
    "lat": 19.0025994,
    "lng": 72.8195359
  },
  {
    "name": "GS 400030 Neelam,Rg Thadani Marg,Worli",
    "lat": 19.0017715,
    "lng": 72.8142049
  },
  {
    "name": "GS 400030 Pankaj Mansion,Ab Road,Worli",
    "lat": 19.000967,
    "lng": 72.8156083
  },
  {
    "name": "GS 400030 Bdd,Gm Bhosle Marg,Worli",
    "lat": 19.0025994,
    "lng": 72.8195359
  },
  {
    "name": "GS 400030 Bdd,Gm Bhosle Marg,Worli",
    "lat": 19.0025994,
    "lng": 72.8195359
  },
  {
    "name": "GS 400030 Wpc,Sirpochkhanwala,Worli",
    "lat": 19.0121697,
    "lng": 72.8218627
  },
  {
    "name": "HE 400051 Basera Society,Bharat Nagar,Bandra East",
    "lat": 19.062464,
    "lng": 72.858188
  },
  {
    "name": "HE 400051 Rajak Chawl,Opp. Golden Bakery,Bandra East",
    "lat": 19.0567414,
    "lng": 72.8416511
  },
  {
    "name": "HE 400051 Dyaneshwar Nagar,,Bandra East",
    "lat": 19.0652541,
    "lng": 72.8526522
  },
  {
    "name": "HE 400051 Jai Ma Sharada Rahivasi Sevak,Nalaside, Dnyaneshwar Nagar, Bandra East",
    "lat": 19.0678032,
    "lng": 72.8507249
  },
  {
    "name": "HE 400051 Titanic Building,Maharastra Nager,Govt Colony, Bandra East",
    "lat": 19.0605737,
    "lng": 72.8504402
  },
  {
    "name": "HE 400051 Sant Dnyaneshwar Nagar,,Bandra East",
    "lat": 19.0652541,
    "lng": 72.8526522
  },
  {
    "name": "HE 400051 Dnyaneshwar Nagar,Galli No 75,Bandra East",
    "lat": 19.0630805,
    "lng": 72.8541326
  },
  {
    "name": "HE 400051 Bharat Nagar,Valmiki Nagar,Bandra East",
    "lat": 19.0667438,
    "lng": 72.8543437
  },
  {
    "name": "HE 400051 Asian Hear Institution,Bandra Kurla Complex,Bandra East",
    "lat": 19.0655735,
    "lng": 72.8609409
  },
  {
    "name": "HE 400051 Gov. Colony,,Bandra East",
    "lat": 19.0645506,
    "lng": 72.8474849
  },
  {
    "name": "HE 400051 Bhinde Shop, Kherwadi Road,Opp Hotel Cafe Sahil,Bandra East",
    "lat": 19.0571796,
    "lng": 72.8418889
  },