markers=[
  {
    "name": "A 1 400001 M.R.A. Police Quarters,M.R.A. Road,Fort",
    "lat": 18.9459379,
    "lng": 72.8352403
  },
  {
    "name": "A 2 400001 Dcb Building,M.R.A. Marg,Near Crowfard Market,Fort",
    "lat": 18.9483221,
    "lng": 72.8356609
  },
  {
    "name": "A 3 400005 Ganeshmurthi Nagar Part No 2,Captain Prakash Pethe Marg,Colaba Congested Area",
    "lat": 18.9179494,
    "lng": 72.8250608
  },
  {
    "name": "A 4 400005 Ganeshmurthi Nagar Part No 1,3,Captain Prakash Pethe Marg,Colaba Congested Area",
    "lat": 18.9180166,
    "lng": 72.8251581
  },
  {
    "name": "A 5 400005 Shivshakti Nagar,Free Press Journal Road,Nariman Point,Colaba Congested Area",
    "lat": 18.924775,
    "lng": 72.8251447
  },
  {
    "name": "A 6 400005 Sunder Nagar,Indumati Sakrikar Marg,Near Colaba Market,Colaba Congested Area",
    "lat": 18.9197182,
    "lng": 72.8298531
  },
  {
    "name": "A 7 400005 Geeta Nagar,Dr Homi Bhabha Road,Near Navy Nagar,Colaba Congested Area",
    "lat": 18.9072667,
    "lng": 72.8094898
  },
  {
    "name": "A 8 400005 Ambedkar Nagar,Capt. Prakash Pethe Marg,Colaba Congested Area",
    "lat": 18.9134577,
    "lng": 72.8208046
  },
  {
    "name": "A 9 400005 Azad Nagari,Lala Nigam Road,Colaba Congested Area",
    "lat": 18.9171013,
    "lng": 72.8288065
  },
  {
    "name": "A 10 400005 Maker Tower,G.D.Somani Road,Colaba",
    "lat": 18.916204,
    "lng": 72.817656
  },
  {
    "name": "A 11 400005 Machchimar Nagar No.5,Capt. Prakash Pethe Marg,Colaba Congested Area",
    "lat": 18.9174726,
    "lng": 72.8248492
  },
  {
    "name": "A 12 400005 Darya Nagari,Near Jamshedji Bunder,Colaba Congested Area",
    "lat": 18.9155998,
    "lng": 72.8302691
  },
  {
    "name": "A 13 400005 Srpf Police Quarters,,Colaba",
    "lat": 18.9103689,
    "lng": 72.8197581
  },
  {
    "name": "A 14 400005 Chotu Terrace,Near Colab Fire Station,Colaba",
    "lat": 18.9154742,
    "lng": 72.8260795
  },
  {
    "name": "A 15 400020 Bell Heaven Building Servant Quarters,Near Bombay Hospital,New Marine Lines",
    "lat": 18.9397534,
    "lng": 72.8284255
  },
  {
    "name": "B 16 400003 Noble Tower,Zakeria Masjid Street,Near Hotel Hayat,Mandvi",
    "lat": 18.9554088,
    "lng": 72.8347697
  },
  {
    "name": "B 17 400003 Parveen Manzil,Dontaad Street,Near Zakeria Masjid,Pydhonie",
    "lat": 18.9541012,
    "lng": 72.8346721
  },
  {
    "name": "B 18 400003 Hazira Masion,Samuel Street,Opp. Hotel Al-Rehmaniya,Masjid Railway Station (W)",
    "lat": 18.9518278,
    "lng": 72.8382898
  },
  {
    "name": "B 19 400003 Parsi Chawl,Nagdevi Street,Opp. Crawford Market, Near Vip Bags Showroom,Crowford Market Congested Area",
    "lat": 18.9473731,
    "lng": 72.8337761
  },
  {
    "name": "B 20 400003 Vanjira Building,Memonwada Road,Near Minara Masjid,Dongri",
    "lat": 18.9602105,
    "lng": 72.8305489
  },
  {
    "name": "B 21 400003 Latif House,Kambekar Street,Mandvi",
    "lat": 18.9554189,
    "lng": 72.8338458
  },
  {
    "name": "B 22 400003 Chase Building,Sarang Street,Near Crowford Market,Crowford Market",
    "lat": 18.9477997,
    "lng": 72.8338972
  },
  {
    "name": "B 23 400003 Anl Compound,Behind Ashoka Hotel,Masjid Railway Station (W)",
    "lat": 18.9518278,
    "lng": 72.8382898
  },
  {
    "name": "B 24 400003 Chunawala Building (T-Plot Building),Mohd. Ali Road,Near Mandvi Post Office,Mandvi",
    "lat": 18.9568126,
    "lng": 72.8323813
  },
  {
    "name": "B 25 400009 K J Gandhi Warehouse,Masjid Siding Road,Near Shankar Vilas Hindu Hotel,Masjid Railway Station (E)",
    "lat": 18.9501833,
    "lng": 72.838921
  },
  {
    "name": "B 26 400009 Noor Building,Nishanpada Road,Near Noor Masjid,Umerkhadi",
    "lat": 18.9557603,
    "lng": 72.8356668
  },
  {
    "name": "B 27 400009 Police Quarters,Imamwada Road,Near Memonwada Fire Station,Bhendi Bazar",
    "lat": 18.9579624,
    "lng": 72.8327018
  },
  {
    "name": "B 28 400009 Bismillah Building,Zakeria Masjid Street,Khadak,Dongri",
    "lat": 18.9549518,
    "lng": 72.8344932
  },
  {
    "name": "B 29 400009 Sydenham B.I.T. Chawl,Ibrahim Rahimtula Road,Near Hp Petrol Pump,Umerkhadi",
    "lat": 18.960154,
    "lng": 72.8391317
  },
  {
    "name": "B 30 400009 City Arcade,Samant Bhai Nanji Marg,Near Kgn Homoeopathic Health Clinic,Dongri",
    "lat": 18.9597509,
    "lng": 72.837815
  },
  {
    "name": "B 31 400009 Rehmatbhai Habib House,Navroji Hill Road No.2,Behind Habib Hospital,Dongri",
    "lat": 18.9597935,
    "lng": 72.8368875
  },
  {
    "name": "B 32 400009 Aga Khan Building,Tatanpura Street,Opp Dar-Ul-Madinah Islamic English Medium School,Dongri",
    "lat": 18.9597509,
    "lng": 72.837815
  },
  {
    "name": "B 33 400009 Mcgm B Ward Labour Staff Quarters,Babula Tank Cross Lane,Mcgm B Ward,Umerkhadi",
    "lat": 18.9614551,
    "lng": 72.8333212
  },
  {
    "name": "B 34 400009 Laxminarayan Chs,Imamwada Rd,Near Mughal Masjid,Umerkhadi",
    "lat": 18.9593674,
    "lng": 72.8333531
  },
  {
    "name": "B 35 400009 Jolly Chamber Building,Navroji Hill Road No. 1,Near Cafe Islam,Dongri",
    "lat": 18.9589707,
    "lng": 72.8377555
  },
  {
    "name": "B 36 400009 Police Line Building,Sardar Vallabhbhai Patel Road,Opp. Memonwada Fire Station,Bhendi Bazar",
    "lat": 18.9579624,
    "lng": 72.8327018
  },
  {
    "name": "B 37 400009 Dastagir Masion,Nishanpada Cross Lane,Near Bombay Central Dairy,Dongri",
    "lat": 18.9563883,
    "lng": 72.835781
  },
  {
    "name": "B 38 400009 Madavi Police Qrts.,Mohd Ali Road,Opp. Mandvi Post Office,Bhendi Bazar",
    "lat": 18.9568126,
    "lng": 72.8323813
  },
  {
    "name": "B 39 400009 Sauda Heights,Dr. Meisheri Road,Opp. Sandhurst Road Railway Station,Dongri",
    "lat": 18.9607549,
    "lng": 72.8384027
  },
  {
    "name": "B 40 400009 Sami Chawl,Tantanpura Street,Opp. Dar-Ul Madinah Islamic School,Dongri Congested Area",
    "lat": 18.955321,
    "lng": 72.8358601
  },
  {
    "name": "B 41 400009 Mimson House,Lokmanya Tilak Marg,Near Airtel Gallery,Crawford Market",
    "lat": 18.9473731,
    "lng": 72.8337761
  },
  {
    "name": "B 42 400009 Ismail Habib Building,M. A. Sarang Marg,Near Baba Dargah,Dongri",
    "lat": 18.9568075,
    "lng": 72.8343405
  },
  {
    "name": "B 43 400009 Tawakkal Masion,Nishanpada Road,Dongri",
    "lat": 18.9587993,
    "lng": 72.8361776
  },
  {
    "name": "B 44 400009 Baig Mohd. Building,Ramchandra Bhatt Marg,Near J.J. Hospital Gate No. 6,Dongri",
    "lat": 18.9620235,
    "lng": 72.8340833
  },
  {
    "name": "B 45 400009 Master Building,M. A. Sarang Marg,Near Amber Sweets,Dongri",
    "lat": 18.9558068,
    "lng": 72.8365931
  },
  {
    "name": "B 46 400009 Wadi Bunder Police Line,Sardar Vallabhbhai Patel Road,Near Mandvi Fire Station,Dongri",
    "lat": 18.9582963,
    "lng": 72.838941
  },
  {
    "name": "B 47 400009 Bhaucha Dhakka,,Mbpt Area Congested Area",
    "lat": 18.9571313,
    "lng": 72.8494621
  },
  {
    "name": "B 48 400009 Habib Building,Samuel Street,Dongri",
    "lat": 18.9597888,
    "lng": 72.8369391
  },
  {
    "name": "B 49 400009 Zulekha Manzil,Samuel Street,Dongri",
    "lat": 18.9563305,
    "lng": 72.8366904
  },
  {
    "name": "B 50 400009 Aqsa Mansion,Samuel Street,Dongri",
    "lat": 18.9563305,
    "lng": 72.8366904
  },
  {
    "name": "B 51 400009 Masjid Chawl,Sardar Vallabhbhai Patel Road,Dongri Congested Area",
    "lat": 18.9583842,
    "lng": 72.837807
  },
  {
    "name": "B 52 400009 Bagdad Palace,Nishanpada Road,Opp. Juma Masjid,Dongri",
    "lat": 33.315241,
    "lng": 44.3660671
  },
  {
    "name": "B 53 400009 Haroon Mazil,Mohammed Ali Road,Opp. Shalimar Hotel,Umerkhadi",
    "lat": 18.9608517,
    "lng": 72.8320189
  },
  {
    "name": "B 54 400009 Mawani Mansion,Samantbhai Nanji Marg,Charnull Junction,Dongri",
    "lat": 18.9588938,
    "lng": 72.8365797
  },
  {
    "name": "B 55 400009 Janmohammad Building,Tandel Street,Near Hajji Abdurrehman Shah Baba Dargah,Dongri",
    "lat": 18.9567062,
    "lng": 72.8348308
  },
  {
    "name": "B 56 400009 Liyakat Manzil,Nishanpada Cross Lane,Near Rehmaniya Castle,Mandvi",
    "lat": 18.9565769,
    "lng": 72.8353393
  },
  {
    "name": "B 57 400009 Mukadam Building,Charnull Junction,Dongri",
    "lat": 18.9597509,
    "lng": 72.837815
  },
  {
    "name": "C 58 400002 Siddhesh Apartment,2Nd Khattargalli,Nazvirns Holy,Marine Lines",
    "lat": 18.948367,
    "lng": 72.825936
  },
  {
    "name": "C 59 400002 Panchali House,Sadguru Baba Kadam Lane,Dr. M.B Welkar Street,Chirabazar,Marinelines Congested Area",
    "lat": 18.9475518,
    "lng": 72.8276907
  },
  {
    "name": "C 60 400002 1St Floor, Ajanta Guest House Building,Dadi Sheth Agyari Lane,2Nd Fanaswadi, Chira Bazar, Kalbadevi",
    "lat": 18.9496789,
    "lng": 72.8264147
  },
  {
    "name": "C 61 400003 5Th Floor, Vivek Building,Kalbadevi Road,Badamwadi,Badamwadi Congested Area",
    "lat": 18.949316,
    "lng": 72.829243
  },
  {
    "name": "C 62 400003 Dhobi Bldg,3Rd Kumbharwada,Kumbharwada,Charni Rd Congested Area",
    "lat": 18.9597997,
    "lng": 72.827361
  },
  {
    "name": "C 63 400003 Sajjad Mansion,Chimna Buchar Street,Don Taki,Charni Road",
    "lat": 18.9615597,
    "lng": 72.8286923
  },
  {
    "name": "C 64 400003 Bldg No 46,1St Bhoiwada,Bhuleshwar,Charni Road",
    "lat": 18.9517545,
    "lng": 72.8183688
  },
  {
    "name": "C 65 400003 Bldg No 78,Bada Jagdish Mandir,Bhuleshwar,Charni Road",
    "lat": 18.9531926,
    "lng": 72.8353005
  },
  {
    "name": "C 66 400003 Mahavir Mansion,Gulalwadi,Gulalwadi,Charni Road Congested Area",
    "lat": 18.9543643,
    "lng": 72.8303845
  },
  {
    "name": "C 67 400003 Khemakaer Chawl,Fanaswadi,Fanaswadi,Charni Road Congested Area",
    "lat": 18.9516918,
    "lng": 72.8252228
  },
  {
    "name": "C 68 400003 Bldg No 68,Kazi Street,Mandavi Post Office,Charni Road",
    "lat": 18.9568126,
    "lng": 72.8323813
  },
  {
    "name": "C 69 400003 Shriji Bhavan,Gazdar Street,Gazdar Street,Charni Road",
    "lat": 18.9482867,
    "lng": 72.8238612
  },
  {
    "name": "C 70 400003 Madan House,Dr M B Velkar Street,Waka Muhalla,Marine Lines",
    "lat": 18.9475518,
    "lng": 72.8276907
  },
  {
    "name": "C 71 400003 Mithawala Building,Iind Cross Lane,Ghoughari Mohalla,Marine Lines",
    "lat": 18.9531926,
    "lng": 72.8353005
  },
  {
    "name": "C 72 400003 Sighriya Bldg,Ganesh Baug,Near By Vijay Dairy,Charni Road Congested Area",
    "lat": 18.9568931,
    "lng": 72.8192765
  },
  {
    "name": "C 73 400003 Karnatak Mahal,Zaobawadi,Charni Road Congested Area",
    "lat": 18.9517545,
    "lng": 72.8183688
  },
  {
    "name": "C 74 400003 Jamundas Bldg,2 Taki,Charni Road Congested Area",
    "lat": 18.9517545,
    "lng": 72.8183688
  },
  {
    "name": "C 75 400003 Haji Kasam Bldg.,,Charni Road Congested Area",
    "lat": 18.9574184,
    "lng": 72.8294613
  },
  {
    "name": "C 76 400003 Ganesh Bhuvan,2Nd Kumbharwada,Charni Road Congested Area",
    "lat": 18.9517545,
    "lng": 72.8183688
  },
  {
    "name": "C 77 400003 Vyas Bldg,3Rd Kumbharwada,Dr.Mahimtura Marg,Charni Road Congested Area",
    "lat": 18.9603221,
    "lng": 72.827236
  },
  {
    "name": "C 78 400003 Pravin House,4Th Kumbharwada,Charni Road Congested Area",
    "lat": 18.9517545,
    "lng": 72.8183688
  },
  {
    "name": "C 79 400003 Chandramahal,1St Kumbharwada,Charni Road Congested Area",
    "lat": 18.958921,
    "lng": 72.8283881
  },
  {
    "name": "C 80 400003 Rangwala Bldg,Isalampura Street,Girgaoan,Charni Road Congested Area",
    "lat": 18.9517545,
    "lng": 72.8183688
  },
  {
    "name": "C 81 400003 1St Floor,1St Sutargully,Cp Tank,Charni Road Congested Area",
    "lat": 18.9570542,
    "lng": 72.8268071
  },
  {
    "name": "C 82 400003 Tulsidas Jethalal Bldg,Girgaoan,Charni Road Congested Area",
    "lat": 18.9531926,
    "lng": 72.8353005
  },
  {
    "name": "C 83 400003 Glasswala Bldg,Bara Imam Road,Charni Road Congested Area",
    "lat": 18.9517545,
    "lng": 72.8183688
  },
  {
    "name": "C 84 400003 Masjid X Lane,Charni Road",
    "lat": 18.9517545,
    "lng": 72.8183688
  },
  {
    "name": "C 85 400003 Panchayatwadi,Bhuleshwar,Charni Road",
    "lat": 18.9551592,
    "lng": 72.8283292
  },
  {
    "name": "C 86 400003 Sant Sena Mharaj Marg, Near Galli Mandir,S.V.P.Road, Girgaon,Charni Road Congested Area",
    "lat": 18.9579532,
    "lng": 72.8197819
  },
  {
    "name": "C 87 400003 Dr Bldg,5Th Kumbharwada,Girgaon,Charni Road Congested Area",
    "lat": 18.9585763,
    "lng": 72.826388
  },
  {
    "name": "C 88 400003 Nagu Kamathi Chawl,Bhandarwada A, Cross Lane,Girgaon,Charni Road Congested Area",
    "lat": 18.957197,
    "lng": 72.8179968
  },
  {
    "name": "C 89 400003 Manaji Bldg,1St Bhandari Street, Near Goal Deol,Girgaon,Charni Road Congested Area",
    "lat": 18.9581207,
    "lng": 72.8280391
  },
  {
    "name": "C 90 400003 Vishwaheera Bldg,Sant Sena Mharaj Marg, Goldeol,Girgaon,Charni Road Congested Area",
    "lat": 18.9600648,
    "lng": 72.8277273
  },
  {
    "name": "C 91 400003 Kherwadi Bldg,Girgaon,Charni Road Congested Area",
    "lat": 18.9531926,
    "lng": 72.8353005
  },
  {
    "name": "C 92 400003 Noor Estate,Ali Noor Sreet, Opp. Null Bazar,Charni Road",
    "lat": 18.9578557,
    "lng": 72.8295767
  },
  {
    "name": "C 93 400003 Sumlight House,Ghoghari Mohalla,Near Pydhonie,Charni Road",
    "lat": 18.9517545,
    "lng": 72.8183688
  },
  {
    "name": "C 94 400003 Manimahal Bldg,C.P.Tank,Charni Road Congested Area",
    "lat": 18.9517545,
    "lng": 72.8183688
  },
  {
    "name": "C 95 400003 Tayyabi Bldg,2Nd Kumbharwada,Charni Road Congested Area",
    "lat": 18.9517545,
    "lng": 72.8183688
  },
  {
    "name": "C 96 400003 Dodiya House,4Th Kumbharwada,Charni Road Congested Area",
    "lat": 18.9517545,
    "lng": 72.8183688
  },
  {
    "name": "C 97 400003 Dwarkadas Mansion,Bapu Khote Street,Pydonie,Charni Road Congested Area",
    "lat": 18.955336,
    "lng": 72.8300593
  },
  {
    "name": "C 98 400003 Jamnabai Bldg,Bhandari Street,Kumbharwada,Charni Road Congested Area",
    "lat": 18.9570625,
    "lng": 72.8280765
  },
  {
    "name": "C 99 400003 Laxmi Bldg,Kumbharwada,Charni Road Congested Area",
    "lat": 18.9600513,
    "lng": 72.8283321
  },
  {
    "name": "C 100 400003 Bhuleshwar Road,Charni Road Congested Area",
    "lat": 18.9517545,
    "lng": 72.8183688
  },
  {
    "name": "C 101 400003 Manjoba Chs,Babu Genu Road,Dawa Bazar,Charni Road Congested Area",
    "lat": 18.9517545,
    "lng": 72.8183688
  },
  {
    "name": "C 102 400003 Masjid Building,Bhandari Street,Girgaon,Charni Road Congested Area",
    "lat": 18.9581207,
    "lng": 72.8280391
  },
  {
    "name": "C 103 400003 Somji Bldg,3Rd Kumbharwada,Girgaon,Charni Road Congested Area",
    "lat": 18.9603221,
    "lng": 72.827236
  },
  {
    "name": "C 104 400003 Subhadra Bldg,1St Sp Marg,Chirabazar,Charni Road Congested Area",
    "lat": 18.9531926,
    "lng": 72.8353005
  },
  {
    "name": "C 105 400003 Dhyan Sadan Bldg,3Rd Kumbharwada,Girgaon,Charni Road",
    "lat": 18.9603221,
    "lng": 72.827236
  },
  {
    "name": "C 106 400003 Gani Castle Amar Street,Null Bazar, Congested Area",
    "lat": 18.9578557,
    "lng": 72.8295767
  },
  {
    "name": "D 107 400004 Rawalpindi Building,Tribhuvan Road,Lamington Road",
    "lat": 18.959605,
    "lng": 72.8173137
  },
  {
    "name": "D 108 400004 Anand Niwas,J S S Rd,Mangal Wadi",
    "lat": 18.9528544,
    "lng": 72.8216686
  },
  {
    "name": "D 109 400004 Yusuf Mansion,2Nd Cross Lane,Khetwadi  Congested Area",
    "lat": 18.9607261,
    "lng": 72.8205754
  },
  {
    "name": "D 110 400004 Shimla Bhawan,Nanubai Desai Rd,Sikka Nagar",
    "lat": 18.9579676,
    "lng": 72.8232777
  },
  {
    "name": "D 111 400004 Khetwadi 3Rd Cross Lane,Panchmukhi Hanuman Temple,Khetwadi",
    "lat": 18.9581018,
    "lng": 72.8233148
  },
  {
    "name": "D 112 400004 Ashok Bldg,Ad Street Opp Chandaramji School,Charni Raod",
    "lat": 18.9555474,
    "lng": 72.8249282
  },
  {
    "name": "D 113 400004 Lehari Mnsion,Khetwadi 2Nd Lane,Khetwadi Congested Area",
    "lat": 18.9580748,
    "lng": 72.8252778
  },
  {
    "name": "D 114 400004 419 Noor Mohammad Begum Bldg,V.P Road,Girgoan",
    "lat": 18.9570949,
    "lng": 72.8202218
  },
  {
    "name": "D 115 400004 Bldg No 3 Gaiwadi,Near Vyaym Shala,Girgoan",
    "lat": 18.9579877,
    "lng": 72.8214399
  },
  {
    "name": "D 116 400004 Poonawala Bldg,J S S Road,Kele Wadi,Girgaon",
    "lat": 18.9535028,
    "lng": 72.82085
  },
  {
    "name": "D 117 400004 Narayanwadi,Khadilkar Road,C P Tank",
    "lat": 18.955026,
    "lng": 72.8236451
  },
  {
    "name": "D 118 400004 Dinath Bldg,P B Marg,Grant Raod,Grant Raod",
    "lat": 18.9609873,
    "lng": 72.8233195
  },
  {
    "name": "D 119 400004 Bldg No 40,R R Marg,",
    "lat": 18.9542106,
    "lng": 72.8181375
  },
  {
    "name": "D 120 400004 Moti Mansion,5Th Lane,Khetwadi,Girgaon",
    "lat": 18.9588081,
    "lng": 72.8242452
  },
  {
    "name": "D 121 400004 Vinayak Vibhuti,Lamington Rd,Near Dreamland Cinema,Grant Raod East",
    "lat": 18.9579877,
    "lng": 72.8214399
  },
  {
    "name": "D 122 400004 Bldg 33/H,Mughbhat Cross Lane,Girgaon",
    "lat": 18.9532945,
    "lng": 72.8232912
  },
  {
    "name": "D 123 400004 16 Meher Baksh,6Th Kharwa Lane,Girgaon",
    "lat": 18.9598051,
    "lng": 72.8254552
  },
  {
    "name": "D 124 400004 Khushboo Bldg,Datta Mandir,Kotachiwadi",
    "lat": 18.9556405,
    "lng": 72.820307
  },
  {
    "name": "D 125 400004 7Th Haji Suleman Bldg,P B Marg,9Th Cross Lane Masjid Lane,Grant Road",
    "lat": 18.9602024,
    "lng": 72.8244107
  },
  {
    "name": "D 126 400004 Bedekar Sadan,Tatya Gharpure Path,Girgaon",
    "lat": 18.9536838,
    "lng": 72.8226402
  },
  {
    "name": "D 127 400004 Badsha Bldg,P.B Marg,",
    "lat": 18.9593705,
    "lng": 72.8251478
  },
  {
    "name": "D 128 400004 Heramb Bldg,J Ss Marg,Borbhat Lane,Girgaon",
    "lat": 18.9535916,
    "lng": 72.8214274
  },
  {
    "name": "D 129 400006 Sagar Nagar,Walkeshwar,Walkeshwar Rd",
    "lat": 18.9513341,
    "lng": 72.8028149
  },
  {
    "name": "D 130 400006 Mata Pravati Rahvasi Sangh,Dr. B.I Rd,Walakeshwar,Napean Sea Rd Congested Area",
    "lat": 18.9570948,
    "lng": 72.7997731
  },
  {
    "name": "D 131 400006 Parsi Panchayat,Bg Kher Marg,Ambewadi,Malbar Hill",
    "lat": 18.9550495,
    "lng": 72.8043149
  },
  {
    "name": "D 132 400006 Jeevan Vihar,Manav Mandir,Malbar Hill",
    "lat": 18.9493211,
    "lng": 72.7973317
  },
  {
    "name": "D 133 400006 Prem Nagar Zopadapai,Dr B.I Road,Malabar Hill Congested Area",
    "lat": 18.9540855,
    "lng": 72.8004477
  },
  {
    "name": "D 134 400006 Sagar Nagar Zopadapati,Dr B.I Road,Near Kalimata Nagar,Walkeshwar Congested Area",
    "lat": 18.950754,
    "lng": 72.8020638
  },
  {
    "name": "D 135 400006 Ramkhud Nagar,Banganga,Walkeshwar",
    "lat": 18.9454723,
    "lng": 72.7936432
  },
  {
    "name": "D 136 400007 Ratan Luxuria,Grant Rd,Nathia Hospital,Grant Rd",
    "lat": 18.9647811,
    "lng": 72.8151931
  },
  {
    "name": "D 137 400007 Vastu Shilp Chs,Gamadia Colony,Tardeo",
    "lat": 18.9683081,
    "lng": 72.813105
  },
  {
    "name": "D 138 400007 Singhania Bldg,Balaram Street,Grant Road",
    "lat": 18.9514659,
    "lng": 72.8270379
  },
  {
    "name": "D 139 400007 Dattatray Bldg,Tukaram Javaji Rd,Grant Road West",
    "lat": 18.9661532,
    "lng": 72.8149886
  },
  {
    "name": "D 140 400007 Govardhan Bhuvan,11Th Khetwadi",
    "lat": 18.9581018,
    "lng": 72.8233148
  },
  {
    "name": "D 141 400007 Khilchi Terrace,R.K Street,Near Mallan Mall Market",
    "lat": 18.9618411,
    "lng": 72.8133825
  },
  {
    "name": "D 142 400007 Abbasi Bldg,P B Marg,Play House Bus Stop",
    "lat": 18.9634041,
    "lng": 72.8213901
  },
  {
    "name": "D 143 400007 Navyug Niwas, Lamington Road,Opp Minerva Cnema,Grant Raod",
    "lat": 18.9650866,
    "lng": 72.818919
  },
  {
    "name": "D 144 400007 Geeta Biulding,Pandita Ramabai Rd,Gamdevi",
    "lat": 18.959647,
    "lng": 72.8122892
  },
  {
    "name": "D 145 400007 Rippon Bldg,Balaram Street,Grant Road East",
    "lat": 18.9631687,
    "lng": 72.8199267
  },
  {
    "name": "D 146 400007 48 Jk Bldg,D G Marg,Gamdevi Temple,Grant Road",
    "lat": 18.9590382,
    "lng": 72.8131962
  },
  {
    "name": "D 147 400007 United Chamber,M S Ali Rd,Opp Bharat Nagar",
    "lat": 18.9616007,
    "lng": 72.8205674
  },
  {
    "name": "D 148 400008 Mangli Kanduri Chawl,R S Nimkar Marg Congested Area",
    "lat": 18.9662344,
    "lng": 72.8234191
  },
  {
    "name": "D 149 400008 Navjeevan Society,Lamington Rd",
    "lat": 18.9669868,
    "lng": 72.8196974
  },
  {
    "name": "D 150 400008 Transsvel Terrace,P.B Marg",
    "lat": 18.9622728,
    "lng": 72.8225317
  },
  {
    "name": "D 151 400008 Rpf Barrack Terrace,Grant Rd East,Grant Rd",
    "lat": 32.2506076,
    "lng": -110.9109109
  },
  {
    "name": "D 152 400008 Hakimwadi,P.B Marg,Opp Daulat Complex,Grant Rd",
    "lat": 18.9632775,
    "lng": 72.8224268
  },
  {
    "name": "D 153 400008 B I T Chawl No 16,Bellasis Rd,Mumbai Central Congested Area",
    "lat": 18.9686276,
    "lng": 72.8220111
  },
  {
    "name": "D 154 400008 Purshottam Bldg,P B Marg,",
    "lat": 18.9622728,
    "lng": 72.8225317
  },
  {
    "name": "D 155 400008 32 Kasam Bldg,T.P Raod,Kamathipura,Girgaon",
    "lat": 18.9611624,
    "lng": 72.8261147
  },
  {
    "name": "D 156 400008 Kukawala Bldg,M.S Ali Road,Mumbai Central",
    "lat": 18.9617757,
    "lng": 72.8244304
  },
  {
    "name": "D 157 400008 Shankarseth Chawl,Jairaj Bai Lane,",
    "lat": 18.9671396,
    "lng": 72.8286571
  },
  {
    "name": "D 158 400008 150 Muncipal Chawl,Shuklaji Street,Opp Bilal Masjid,Grant Road",
    "lat": 18.9671396,
    "lng": 72.8286571
  },
  {
    "name": "D 159 400008 Parvati Mansion,Kharva Galli,Grant Road East",
    "lat": 18.9653927,
    "lng": 72.8182417
  },
  {
    "name": "D 160 400008 Narthani Hights,Lamington Road,Opp Mumbai Central",
    "lat": 18.9683324,
    "lng": 72.8203431
  },
  {
    "name": "D 161 400008 Habib Manzil,Grant Raod,Grant Raod",
    "lat": 18.9671396,
    "lng": 72.8286571
  },
  {
    "name": "D 162 400008 Suleman Tower,Bapty Rd,Grant Raod",
    "lat": 18.963635,
    "lng": 72.8239112
  },
  {
    "name": "D 163 400008 Lokhandwala Bldg,Kharva Lane,Grant Raod",
    "lat": 18.9671396,
    "lng": 72.8286571
  },
  {
    "name": "D 164 400008 Crystal Tower,Arab Lane,M .T Ansari Marg,Grant Road",
    "lat": 18.9631328,
    "lng": 72.8229729
  },
  {
    "name": "D 165 400026 Nirmal Mahal,Pettit Rd,Near Parsi General Hospital,Breach Candy",
    "lat": 18.9687959,
    "lng": 72.8058493
  },
  {
    "name": "D 166 400026 Vardhaman Apartment,135 A K Marg,Behind Dr Center,Kemps Corner",
    "lat": 18.96395,
    "lng": 72.8063729
  },
  {
    "name": "D 167 400026 Darya Sagar Zopadapai,B.D Road,Mahalaxmi Congested Area",
    "lat": 18.9723185,
    "lng": 72.8051864
  },
  {
    "name": "D 168 400026 It Colony,Off Pedder Road,Cumbala Hill",
    "lat": 18.9719567,
    "lng": 72.8093794
  },
  {
    "name": "D 169 400026 Shirpal Nagar,J Mehta Marg,Rangatha Lane",
    "lat": 18.9490032,
    "lng": 72.7962294
  },
  {
    "name": "D 170 400034 Dmd Chawl, Tusliwadi Jhopadpatti,Tardeo Road,Tulsiwadi Po,Tardeo Congested Area",
    "lat": 18.9743341,
    "lng": 72.813413
  },
  {
    "name": "D 171 400034 Darya Mahal,Nepean Sea Road,Nepeansea Rd 400006",
    "lat": 18.9524246,
    "lng": 72.796937
  },
  {
    "name": "D 172 400034 Shafi Hose,6Th Kumbarwada,",
    "lat": 18.9603059,
    "lng": 72.8262252
  },
  {
    "name": "D 173 400034 Zopadapatti,Approach Rd,Tulsiwadi,Tulsiwadi Congested Area",
    "lat": 18.9747163,
    "lng": 72.8139964
  },
  {
    "name": "D 174 400034 A1 Bldg,Ambedkar Nagar,Tardeo",
    "lat": 18.9724162,
    "lng": 72.8148177
  },
  {
    "name": "D 175 400034 Tulsiwadi Zopadpatti,B R Marg,Tulsiwadi Congested Area",
    "lat": 18.9728294,
    "lng": 72.818386
  },
  {
    "name": "D 176 400034 Tulsiwadi Zopadpatti,Behind Post Office,Tulsiwadi Congested Area",
    "lat": 18.9728294,
    "lng": 72.818386
  },
  {
    "name": "D 177 400034 R.T.O Chana Shop,Near Tardeo Rto,Tardeo Congested Area",
    "lat": 18.9732783,
    "lng": 72.8167861
  },
  {
    "name": "D 178 400034 Ashirwad Bldg,Tardeo Raod,Mumbai Central",
    "lat": 18.9738868,
    "lng": 72.8137168
  },
  {
    "name": "D 179 400034 Gandhi Mansion,Wadia Streer,Tardeo,Tardeo",
    "lat": 18.9693159,
    "lng": 72.8160781
  },
  {
    "name": "D 180 400034 Bldg No 7 Tardeo Police Camp,,Tradeo",
    "lat": 18.969535,
    "lng": 72.812715
  },
  {
    "name": "D 181 400034 Germen Darshan,Ac Market,Tradeo",
    "lat": 18.9724011,
    "lng": 72.8156393
  },
  {
    "name": "D 182 400034 Ambika Bhavan,Wadia Street,Tardeo",
    "lat": 18.9702878,
    "lng": 72.8156126
  },
  {
    "name": "D 183 400034 Bldg No 6 Arya Nagar,Tulsiwadi,Tardeo",
    "lat": 18.9726813,
    "lng": 72.8157232
  },
  {
    "name": "D 184 400034 Rtp Lane,Tulsiwadi,Tardeo",
    "lat": 18.9747163,
    "lng": 72.8139964
  },
  {
    "name": "D 185 400034 Bhanjibhai Rathod Marg,Tulsiwadi,Tardeo Congested Area",
    "lat": 18.9763957,
    "lng": 72.8184145
  },
  {
    "name": "D 186 400034 Transit Camp No 10,Tulsiwadi,Tardeo Congested Area",
    "lat": 18.9747163,
    "lng": 72.8139964
  },
  {
    "name": "D 187 400034 New Jaiphalwadi,Tardeo,Tardeo",
    "lat": 42.3198154,
    "lng": -87.8598861
  },
  {
    "name": "D 188 400034 Shiv Darshan Bldg,M P Mill Compound,Tardeo",
    "lat": 18.9703272,
    "lng": 72.8136495
  },
  {
    "name": "D 189 400036 Godreg Baug,Napean Sea Rd,Napean Sea Rd",
    "lat": 18.959984,
    "lng": 72.8037254
  },
  {
    "name": "D 190 400036 Matru Ashish,Napean Sea Rd,Napean Sea Rd",
    "lat": 18.960817,
    "lng": 72.8013815
  },
  {
    "name": "D 191 400036 Caswasji Bhedwar (Dhobighat) Chawl,Forjett Street,Grant Road West,Grant Road West Congested Area",
    "lat": 18.9649331,
    "lng": 72.8116622
  },
  {
    "name": "D 192 400036 Anurag Bldg,B D Road,",
    "lat": 18.9723185,
    "lng": 72.8051864
  },
  {
    "name": "D 193 400076 Parvati Niwas,Gamdevi,Grant Rd,Grant Rd",
    "lat": 18.9589174,
    "lng": 72.8124046
  },
  {
    "name": "D 194 400076 Karim Bldg,P.B Marg,9Th Cross Lane,Grant Rd",
    "lat": 19.0062658,
    "lng": 72.8227767
  },
  {
    "name": "E 195 400008 Bmc Bldg.,Chandramani Buddhvihar Marg,Two Tank,Kamathipura",
    "lat": 18.961954,
    "lng": 72.8284325
  },
  {
    "name": "E 196 400008 666 Tenament,B J Marg,Jocob Circle,Byculla Congested Area",
    "lat": 18.9807447,
    "lng": 72.8270215
  },
  {
    "name": "E 197 400008 Shirinbhai Chawl,Morland Road,Mumbai Central",
    "lat": 18.9719086,
    "lng": 72.8258845
  },
  {
    "name": "E 198 400008 Patra Chawl,B. J. Marg,Byculla",
    "lat": 18.9753596,
    "lng": 72.8312175
  },
  {
    "name": "E 199 400008 Nayee Chawl,3Rd Ghelabhai Lane,Mandapura Congested Area",
    "lat": 18.9716581,
    "lng": 72.8269844
  },
  {
    "name": "E 200 400008 7Th Lane,Kamathipura Congested Area",
    "lat": 18.964976,
    "lng": 72.8260382
  },
  {
    "name": "E 201 400008 Kasam Hathi Chawl,Kamathipura 1St Lane,Kamathipura Congested Area",
    "lat": 18.9628838,
    "lng": 72.8260565
  },
  {
    "name": "E 202 400008 Bambkhana,M.A. Road,Kamathipura(Eye Hospital),Kamathipura",
    "lat": 18.9678201,
    "lng": 72.828458
  },
  {
    "name": "E 203 400008 2Nd & 4Th Lane,Kamathipura",
    "lat": 18.964169,
    "lng": 72.8259201
  },
  {
    "name": "E 204 400008 Fire Brigade Office,Shaikh Hafizuddin Marg,Behind Bmc E Ward Office,Byculla",
    "lat": 18.9718778,
    "lng": 72.8313269
  },
  {
    "name": "E 205 400008 Aksa Manzil,M A Road Madanpura,Ghosh Bazar,Byculla Congested Area",
    "lat": 18.9705424,
    "lng": 72.8280025
  },
  {
    "name": "E 206 400008 7Th Gully,Kamthipura,Byculla Congested Area",
    "lat": 18.9648916,
    "lng": 72.8261411
  },
  {
    "name": "E 207 400008 Acharwala Building,Undriya Street Nagpada,Nagpada,Byculla",
    "lat": 18.9622042,
    "lng": 72.8303499
  },
  {
    "name": "E 208 400008 Haji Building, Opposite Garden Hall,Vasil Khan Marg, Ahbedhi Bakhri Retha Bakri,Nagpada,Byculla",
    "lat": 18.9652566,
    "lng": 72.8295224
  },
  {
    "name": "E 209 400008 Bmc Chawl, Milind Nagar,Tank Pakadi Road,Opposite Shamim Palace,Byculla Congested Area",
    "lat": 18.9755095,
    "lng": 72.8280764
  },
  {
    "name": "E 210 400008 Bavala Building,Megraj Sethi Marg,Near Badlu Rangari Street, Huda Masjid,Byculla",
    "lat": 18.988824,
    "lng": 72.834143
  },
  {
    "name": "E 211 400008 Hiraji Govindji Bldg.,Sir J J Road,Richardson Crudas,Byculla",
    "lat": 18.966793,
    "lng": 72.8332684
  },
  {
    "name": "E 212 400008 Arkediya Bldg,Near J J Road,Byculla",
    "lat": 18.9695993,
    "lng": 72.8327095
  },
  {
    "name": "E 213 400008 Sidharth Nagar,Nagpada,Eye Hospital,Byculla",
    "lat": 18.9626588,
    "lng": 72.82533
  },
  {
    "name": "E 214 400008 Old Boys Hostel J J Compound Quarters,Jj Road,Jj Hospital,Byculla",
    "lat": 18.9639366,
    "lng": 72.8334328
  },
  {
    "name": "E 215 400008 Bootvala Building Roadside Saloon,Dimtimkar Road Nagpada,Opposite Ahmed Solar School,Byculla",
    "lat": 18.9656126,
    "lng": 72.830147
  },
  {
    "name": "E 216 400008 Chasmawali Chawl Ghosht Bajar,Mohb. U Rajja Road Madanpura,Byculla Congested Area",
    "lat": 18.9703745,
    "lng": 72.8271764
  },
  {
    "name": "E 217 400008 Suhag Palace Ymca Ground,Agripada,Ymca Ground,Byculla",
    "lat": 18.9721213,
    "lng": 72.824776
  },
  {
    "name": "E 218 400008 Mt Section B Block Near Sevaniketan Petrol Pump,Sheafered Road,Shankar Mandir,Byculla",
    "lat": 18.9681708,
    "lng": 72.8325333
  },
  {
    "name": "E 219 400008 Mt Real Building 2Tank,Ma Road,Police Chowki,Byculla",
    "lat": 18.9754852,
    "lng": 72.8274008
  },
  {
    "name": "E 220 400008 Building No.101,6Th Lane,Shankar Pupala Road,Nakoda Medical Store,Byculla",
    "lat": 18.9671396,
    "lng": 72.8286571
  },
  {
    "name": "E 221 400008 Mombatti Manzil,Mohd Umar Razzak Road,Ghoshbazar Opp. Mohd Razzak School,Byculla",
    "lat": 18.97063,
    "lng": 72.8263224
  },
  {
    "name": "E 222 400008 Chawl No.21, Kazipura,M.A.Road,Next To Sagar Hotel,Byculla",
    "lat": 18.9637153,
    "lng": 72.8298879
  },
  {
    "name": "E 223 400008 Jamunadas Building,2Taki,Nagpada,Near V.P. Road Police Station,Nagpada",
    "lat": 18.9670153,
    "lng": 72.8292274
  },
  {
    "name": "E 224 400008 Pattharvali Building Baban Gully,Sakali Street,Ashadhan,Byculla",
    "lat": 18.9720215,
    "lng": 72.8288694
  },
  {
    "name": "E 225 400008 Sutar Gully,Morland Road,Ghosht Bajar,Byculla",
    "lat": 18.9706917,
    "lng": 72.8274323
  },
  {
    "name": "E 226 400008 Aarcivala Building,3Rd Pirkhan Street,Opp. Zulfikar Hotel,Byculla",
    "lat": 18.9758224,
    "lng": 72.8343323
  },
  {
    "name": "E 227 400008 Gajghar Building, Jj Hospital Nagpada,27 Undriya Street,Masjid,Byculla",
    "lat": 18.9629624,
    "lng": 72.8299654
  },
  {
    "name": "E 228 400008 Vidyut Locoshed,Shivdas Chapsi Road Mazgaon, Infinity Tower,Byculla Congested Area",
    "lat": 18.9661321,
    "lng": 72.8388506
  },
  {
    "name": "E 229 400008 Om Niwas Kamthipura 8Th Lane,Nagpada,Nagpada Police Station,Byculla",
    "lat": 18.9670153,
    "lng": 72.8292274
  },
  {
    "name": "E 230 400008 Bmc Chawl,Kamathipura,Joshi Bhaji Market,Byculla Congested Area",
    "lat": 18.9648916,
    "lng": 72.8261411
  },
  {
    "name": "E 231 400008 Shivam Appartment,Kamathipura Morland Road,Bhaji Market,Byculla",
    "lat": 18.9719086,
    "lng": 72.8258845
  },
  {
    "name": "E 232 400008 Zainab Tower,Nagpada,Opposite Samudra Resturant,Nagpada",
    "lat": 18.9682864,
    "lng": 72.8309623
  },
  {
    "name": "E 233 400008 Suchak Building 8Th Lane,Kamathipura,Amin Patel Office,Byculla",
    "lat": 18.965435,
    "lng": 72.826269
  },
  {
    "name": "E 234 400008 Supreme Heights,2Nd Kamathipura,Shuklaji Street,Byculla",
    "lat": 18.966091,
    "lng": 72.824396
  },
  {
    "name": "E 235 400008 Mestry Ki Chawl,2Nd Gelabai Madanpura,Ghosht Bajar,Byculla Congested Area",
    "lat": 18.9703745,
    "lng": 72.8271764
  },
  {
    "name": "E 236 400008 Bandukwala House,Sakali Street,Ashadhan,Byculla",
    "lat": 18.9725494,
    "lng": 72.8290459
  },
  {
    "name": "E 237 400008 Memni Building,Nagpada,Daood Nursing Home,Nagpada",
    "lat": 18.9667195,
    "lng": 72.8288526
  },
  {
    "name": "E 238 400008 Jainam Tower,Ma Road,Near Mane Garden,Nagpada",
    "lat": 18.9678201,
    "lng": 72.828458
  },
  {
    "name": "E 239 400008 Dhodhwala Complex,Belasis Road,City Mall,Bombay Central",
    "lat": 18.96875,
    "lng": 72.8219557
  },
  {
    "name": "E 240 400008 Jj Hospital Metron Office,Jj Road,Jj Hospital,Byculla",
    "lat": 18.9630684,
    "lng": 72.8336083
  },
  {
    "name": "E 241 400008 Niwasi Residence Hostel(Boys),Jj Road,Jj Hospital,Byculla",
    "lat": 18.9630684,
    "lng": 72.8336083
  },
  {
    "name": "E 242 400008 Fakri Manzil,Nagpada,Opp. Bismilla Heights,Teli Mohalla",
    "lat": 18.9636188,
    "lng": 72.8314836
  },
  {
    "name": "E 243 400008 Haji Kasam Chawl,Nagpada,Teli Mohalla Congested Area",
    "lat": "",
    "lng": ""
  },
  {
    "name": "E 244 400008 Dhanvantari Building In Jj Hosp.,Jj Road,Jj Hospital,Byculla",
    "lat": 18.9630684,
    "lng": 72.8336083
  },
  {
    "name": "E 245 400008 Temkar Street,Near Alham Tower,Nagpada",
    "lat": 18.9620546,
    "lng": 72.8310733
  },
  {
    "name": "E 246 400008 Rasul Manzil,Hujeria Street,Jj Hospital,Byculla",
    "lat": 18.9630684,
    "lng": 72.8336083
  },
  {
    "name": "E 247 400008 Mt Section,Sheferd Road,Opp. Sabu Siddiqui College,Nagpada",
    "lat": 18.9685351,
    "lng": 72.8310192
  },
  {
    "name": "E 248 400008 Dudhwala Building/Rasul Jiba Building,Sk Burhan Street,Telli Mohalal,Nagpada",
    "lat": "",
    "lng": ""
  },
  {
    "name": "E 249 400008 Affiya Heights,Dimtimkar Road,Near Goodluck Motor Training School,Nagpada",
    "lat": 18.9635437,
    "lng": 72.8318517
  },
  {
    "name": "E 250 400008 233/ Yusuf Manzil,Nagpada,Opp. Police Hospital,Nagpada",
    "lat": 18.9704572,
    "lng": 72.8323002
  },
  {
    "name": "E 251 400008 Sidddharth Nagar,Shanak Pupala Marg,Behind Eye Hosp.,Byculla",
    "lat": 18.9628838,
    "lng": 72.8260565
  },
  {
    "name": "E 252 400010 Sanjay Gandhi Nagar,J J Marg,Railway Compound,Mazgaon Congested Area",
    "lat": 18.96298,
    "lng": 72.8323312
  },
  {
    "name": "E 253 400010 Sana Height,Barkat Ali Virani Marg,Nagpada",
    "lat": 18.9637026,
    "lng": 72.8306849
  },
  {
    "name": "E 254 400010 Belvedar Hill,Shivdas Chapsi Marg,Next To St. Peter School,Mazgaon",
    "lat": 18.9676876,
    "lng": 72.8404124
  },
  {
    "name": "E 255 400010 Lakdi Bander Motor Line Daru Khana,Motor Line Daru Khana,Udipi Hotel,Mazgaon Congested Area",
    "lat": 18.9744289,
    "lng": 72.8483632
  },
  {
    "name": "E 256 400010 Byculla Police Line Quarters,Hansraj Lane,Byculla Police Station,Byculla East",
    "lat": 18.9736085,
    "lng": 72.8340163
  },
  {
    "name": "E 257 400010 Kawla Bundar,Reay Road,Near Mariamma Mandar, New Tank Bundar Road,Reay Road Congested Area",
    "lat": 18.9774518,
    "lng": 72.8441593
  },
  {
    "name": "E 258 400010 Vishal Tower,Love Lane Motishah Lane,Near Suprabhat Hotel,Mazgaon",
    "lat": 18.9720628,
    "lng": 72.8373445
  },
  {
    "name": "E 259 400010 New Irani Chawl,Rambhau Bhogle Marg Ghodpdeo,Opposite Piramal Construction,Mazgaon Congested Area",
    "lat": 18.9728223,
    "lng": 72.8403065
  },
  {
    "name": "E 260 400010 Bit Chawl No. 2,Love Lane Road,Mcgm Despensary,Mazgaon Congested Area",
    "lat": 18.9722815,
    "lng": 72.8369548
  },
  {
    "name": "E 261 400010 Shinde Chawl Nariyalwadi,Rambhau Bhogle Marg,Kedar Hospital,Mazgaon Congested Area",
    "lat": 18.9769784,
    "lng": 72.8414784
  },
  {
    "name": "E 262 400010 Sunni Kabrasthan Reay Road(Inside),Sant Savta Marg,Drk Chowki,Raey Road Congested Area",
    "lat": 18.9774518,
    "lng": 72.8441593
  },
  {
    "name": "E 263 400010 Bit Talwadi Chawl,Saint Merry Road,Talwadi Municipalty School,Mazgaon Congested Area",
    "lat": 18.9693314,
    "lng": 72.8359007
  },
  {
    "name": "E 264 400010 Bit Chawl,Tadwadi Mazgaon Transit Team,Icici Bank,Mazgaon Congested Area",
    "lat": 18.9649123,
    "lng": 72.8418849
  },
  {
    "name": "E 265 400010 Tadwadi Bit Chawl No.5,St. Marry Road,Mazgaon Municipal School,Byculla",
    "lat": 18.9674969,
    "lng": 72.8377344
  },
  {
    "name": "E 266 400010 Khodadat Chawl D'Leema Street(Bakery),Pralahad Chendavankar Marg,Rosery School,Mazgaon",
    "lat": 18.9672273,
    "lng": 72.845086
  },
  {
    "name": "E 267 400010 Kawla Bunder Pakhija Gully,Raey Road,Jeevandhara Balvadi,Raey Road",
    "lat": 18.9710218,
    "lng": 72.8453775
  },
  {
    "name": "E 268 400010 Saheb Gully,Dr. Mascarence Road,Behind Tank Square Dispensary,Mazgaon",
    "lat": 18.9701884,
    "lng": 72.8459619
  },
  {
    "name": "E 269 400010 Tariya House, 39/A, Navanagar,Dockyard Road,Dockyard Station,Mazgaon",
    "lat": 18.9670056,
    "lng": 72.8479262
  },
  {
    "name": "E 270 400010 Tulsiwadi,Matar Pakhadi Road,Bhamarsingh Mithaiwala,Byculla Congested Area",
    "lat": 18.9699669,
    "lng": 72.841555
  },
  {
    "name": "E 271 400010 Bit Bldg. No. 12, St. Marry Road,Tadwadi Municipal School,Mazgaon",
    "lat": 18.9680331,
    "lng": 72.8380717
  },
  {
    "name": "E 272 400010 Adamkhan Building,D N Singh Road,Near Sahakari Bhanadar,Hathibaug",
    "lat": 18.9701059,
    "lng": 72.8397086
  },
  {
    "name": "E 273 400010 Abdul Rauf Manzil,Rb Marg,Opposite Mafatlal Mill,Ghodapdeo Congested Area",
    "lat": "",
    "lng": ""
  },
  {
    "name": "E 274 400010 Amina Manzil,Hussain Patel Marg,Pahadivali Masjid,Mazgaon Congested Area",
    "lat": 18.9652187,
    "lng": 72.8418421
  },
  {
    "name": "E 275 400010 Ambewadi Beithi Chawl,Matarpakadi Road,Behind Darbar Hotel,Mazgaon Congested Area",
    "lat": 18.9701862,
    "lng": 72.8409119
  },
  {
    "name": "E 276 400010 New Tank Bunder Kawla Bunder,Reay Road,Mariyamma Mandir,Raey Road Congested Area",
    "lat": 18.9701884,
    "lng": 72.845962
  },
  {
    "name": "E 277 400010 Apna Clinic Dr. Sanjay Dalvi Clinic Kawla Bunder,New Tank Bander Road,New Fashion Tailor,Raey Road Congested Area",
    "lat": 18.9701884,
    "lng": 72.845962
  },
  {
    "name": "E 278 400010 Bharat Chs 65/A,Dockyard Road,Opposite Health Pst,Mazgaon",
    "lat": 18.9683259,
    "lng": 72.8427089
  },
  {
    "name": "E 279 400010 61 Bandukwala Building,D'Lima Street,Near Sainath Hotel,Mazgaon",
    "lat": 18.9651576,
    "lng": 72.8444575
  },
  {
    "name": "E 280 400010 3/46 New Bodyguard Police Line,Dockyard Road,Near Rosary School,Mazgaon",
    "lat": 18.9668334,
    "lng": 72.8450696
  },
  {
    "name": "E 281 400010 Kawla Bunder,New Tank Bunder,Premdan Balwadi,Raey Road Congested Area",
    "lat": 18.9774518,
    "lng": 72.8441593
  },
  {
    "name": "E 282 400010 Copper Castle,Jm Rathod Marg,Mazgaon",
    "lat": 18.9648069,
    "lng": 72.8393903
  },
  {
    "name": "E 283 400010 Wadi Bunder,Jm Rathod Marg,Hanuman Mandir,Mazgaon Congested Area",
    "lat": 18.9640328,
    "lng": 72.8418363
  },
  {
    "name": "E 284 400010 Kawla Bunder,New Tank Bunder Road,Near Premdan Balwadi,Raey Road Congested Area",
    "lat": 18.9774518,
    "lng": 72.8441593
  },
  {
    "name": "E 285 400011 Khusnuma Apartment / Bit Chawl,M A Road / M. S. Ansari Marg,Kalapani,Agripada",
    "lat": 18.9754852,
    "lng": 72.8274008
  },
  {
    "name": "E 286 400011 B. J. Marg,Kanjarwada,Byculla",
    "lat": 18.9758345,
    "lng": 72.8308344
  },
  {
    "name": "E 287 400011 Transit Camp,Tank Pakhadi Street,Kalapani,Mominpura Congested Area",
    "lat": 18.9750703,
    "lng": 72.8294863
  },
  {
    "name": "E 288 400011 Kermani Building (Anand Estate),N. M. Joshi Marg,Arthur Road Naka,Chinchpokli",
    "lat": 18.9861103,
    "lng": 72.8316247
  },
  {
    "name": "E 289 400011 Transist Camp,Tank Pakadi Street,Mominpura Congested Area",
    "lat": 18.9810451,
    "lng": 72.8267579
  },
  {
    "name": "E 290 400011 Dagdi Chawal,B.J. Marg,Dagadi Chawl,Dagadi Chawl",
    "lat": 18.978777,
    "lng": 72.8285352
  },
  {
    "name": "E 291 400011 Vithal Sadan Maruti Gully,N.M Joshi Marg,Byculla Stn.,Buyculla Congested Area",
    "lat": 18.988597,
    "lng": 72.8349395
  },
  {
    "name": "E 292 400011 Chavhan Mension,Tank Pakadi Road,Opposite Khatao Mill,Byculla",
    "lat": 18.973992,
    "lng": 72.8312385
  },
  {
    "name": "E 293 400011 Bage Rabbani Appartment,Megraj Sethi Marg,Badliwala Charitable Dispensary,Byculla",
    "lat": 18.9736116,
    "lng": 72.8292895
  },
  {
    "name": "E 294 400011 Rasul Jiva Compound,Kk Road 7Th Rasta,Jacob Circle,Byculla Congested Area",
    "lat": 18.9808407,
    "lng": 72.828296
  },
  {
    "name": "E 295 400011 Peer Bhai Mension,Morland Road,Sahara Medical Store Halim Manjil,Byculla",
    "lat": 18.9746223,
    "lng": 72.8267943
  },
  {
    "name": "E 296 400011 Doodh Wala Complex,Belasis Road,Near Bombay Central Bus Depot,Byculla",
    "lat": 18.96875,
    "lng": 72.8219557
  },
  {
    "name": "E 297 400011 Dubhash Buiding,Bapurao Jagtap Marg,Lakhpati Hotel,Byculla",
    "lat": 18.9766341,
    "lng": 72.8300606
  },
  {
    "name": "E 298 400011 Mandar Nikatan, N.M. Marg Joshi,M.C.G.M. Dispancery,Byculla",
    "lat": 18.9806847,
    "lng": 72.8317581
  },
  {
    "name": "E 299 400011 Ar-Rayyan Tower,M.A.Road,Agripada,Near Zulha Madian,Byculla",
    "lat": "",
    "lng": ""
  },
  {
    "name": "E 300 400011 Chandramani, Buddha Vihar,Kamathi Pura,Nar Bharat Gas Agency,Byculla Congested Area",
    "lat": 18.9645247,
    "lng": 72.827943
  },
  {
    "name": "E 301 400011 Noorani Chawl,M A Road,Hari Masjid,Byculla Congested Area",
    "lat": 18.9754852,
    "lng": 72.8274008
  },
  {
    "name": "E 302 400011 Hari Jayram Building,Sakali Street,Jhula Maidan,Byculla",
    "lat": 18.9744584,
    "lng": 72.8270665
  },
  {
    "name": "E 303 400011 Sagar Classes,Clair Road,Saint Agnes School,Byculla",
    "lat": 18.9810451,
    "lng": 72.8267579
  },
  {
    "name": "E 304 400011 New Police Line Agripada,Agripada,Jai Bajrang Krida Mandal, Near Old Police Line Opposite Unity Park,Byculla",
    "lat": 18.9763161,
    "lng": 72.8270934
  },
  {
    "name": "E 305 400011 Madina Compound,7Th Rasta, Bapurao Jagtap Marg,Opposite 666 Tenament,Byculla",
    "lat": 18.978882,
    "lng": 72.8285133
  },
  {
    "name": "E 306 400011 Parijat Building Sunder Gully Naka,B J Marg,Opposite Shivshakti Building,Byculla",
    "lat": 18.9755525,
    "lng": 72.8308923
  },
  {
    "name": "E 307 400011 Badlu Rangari Street Patra Chawl,Megraj Sethi Marg,Souter Street Health Post,Byculla Congested Area",
    "lat": 18.9736378,
    "lng": 72.8291409
  },
  {
    "name": "E 308 400011 Kamathipura 4Th Gully,Laxmikant Bar, Near Mns Office,Byculla Congested Area",
    "lat": 18.9648916,
    "lng": 72.8261411
  },
  {
    "name": "E 309 400011 Nair Road,Iti College,Byculla",
    "lat": 18.9745529,
    "lng": 72.8231347
  },
  {
    "name": "E 310 400011 Laxmi Residency,Station Road,Near Maruti Gully. Opposite Byculla Station West,Byculla",
    "lat": 18.978315,
    "lng": 72.8317163
  },
  {
    "name": "E 311 400011 Rangwala Mansion, Agripada Fancy Market,Agripada,Opposite Jhula Maidan,Byculla",
    "lat": 18.9744584,
    "lng": 72.8270665
  },
  {
    "name": "E 312 400011 Gate No. 5 Patra Chawl,Tank Pakadi Road,Katau Mill,Byculla Congested Area",
    "lat": 18.973992,
    "lng": 72.8312385
  },
  {
    "name": "E 313 400011 Meghraj City Zopdi,Near Fire Brigade,Byculla Congested Area",
    "lat": 18.9810451,
    "lng": 72.8267579
  },
  {
    "name": "E 314 400011 Pansare Chawl,Arthur Road,Chinchpokli Railway Station,Byculla Congested Area",
    "lat": 18.9872162,
    "lng": 72.8327925
  },
  {
    "name": "E 315 400011 Modern Mill Zopdi,Sane Guruji Marg,Vaishali Nagar,Byculla Congested Area",
    "lat": 18.9847131,
    "lng": 72.8299869
  },
  {
    "name": "E 316 400011 Ksa Heights,1St Sakali Street,Near Zumma Masjid,Byculla",
    "lat": 18.9725767,
    "lng": 72.8300556
  },
  {
    "name": "E 317 400011 Bit Chawl Ground Floor,Meghraj Sethi Marg,Andrew Church,Byculla Congested Area",
    "lat": 18.9746563,
    "lng": 72.8261839
  },
  {
    "name": "E 318 400011 Kismat Manzil,Badlu Rangari Street,Behind E Ward,Byculla",
    "lat": 18.9718778,
    "lng": 72.8313269
  },
  {
    "name": "E 319 400011 Pandur Vala Mahal,2Nd Sakali Street,Near Ripon Tower,Byculla",
    "lat": 18.9754852,
    "lng": 72.8274008
  },
  {
    "name": "E 320 400011 Raja Bahadur Building,Nagpada Junction,Sagar Hotel,Byculla",
    "lat": 18.9650239,
    "lng": 72.8289394
  },
  {
    "name": "E 321 400011 New Lambi Chawl, D Block,Kamathipura 5Th Lane,Byculla Congested Area",
    "lat": 18.9632053,
    "lng": 72.8277765
  },
  {
    "name": "E 322 400011 Moti Mension,Sir J J Road,Opposite Police Hospital,Byculla",
    "lat": 18.9695993,
    "lng": 72.8327095
  },
  {
    "name": "E 323 400011 Meri Mahal,Nagpada,Byculla",
    "lat": 18.9641028,
    "lng": 72.8305238
  },
  {
    "name": "E 324 400011 Ashirwad Niwas, Kamathipura,8Th Gully,Opposite Macchi Market,Byculla",
    "lat": 18.9648916,
    "lng": 72.8261411
  },
  {
    "name": "E 325 400011 Kamlesh Jaidev Building,5Th Gully Kamathipura,Kamathipura,Byculla",
    "lat": 18.9648916,
    "lng": 72.8261411
  },
  {
    "name": "E 326 400011 Blue Heaven Bldg., Near Gulistan Bldg.,Agripada,Agripapa Municipal School,Byculla",
    "lat": 18.9810451,
    "lng": 72.8267579
  },
  {
    "name": "E 327 400011 Rbi Staff Quarters,Ymca Road,Maratha Mandir,Byculla",
    "lat": 18.9705298,
    "lng": 72.8228042
  },
  {
    "name": "E 328 400011 Adam Siddiqui Chawl,Ghosh Bazar,Near Hari Masjid,Byculla Congested Area",
    "lat": 18.9810451,
    "lng": 72.8267579
  },
  {
    "name": "E 329 400011 Badliwala Apparement,Cross Road, Rippon Road,Near Husaini Baug, Opp. Hari Masjid,Byculla",
    "lat": 18.9740406,
    "lng": 72.8372572
  },
  {
    "name": "E 330 400011 New Agakhan Bldg.,M.A Road,Agripada,Byculla",
    "lat": 18.9820636,
    "lng": 72.8264028
  },
  {
    "name": "E 331 400011 12 Sahara Palace,Sakli Street,Byculla",
    "lat": 18.97256,
    "lng": 72.8282904
  },
  {
    "name": "E 332 400011 Isha Mention,B.J. Marg,Lakpati Hotel,Byculla",
    "lat": 18.9765903,
    "lng": 72.8302246
  },
  {
    "name": "E 333 400011 Sagar Building Sunder Gully,Bj Marg,Khatau Mill Naka,Byculla",
    "lat": 18.9754074,
    "lng": 72.8305461
  },
  {
    "name": "E 334 400011 Chaitanya Building,Bjmarg,Khatau Mill Naka,Byculla",
    "lat": 18.9756477,
    "lng": 72.8304768
  },
  {
    "name": "E 335 400011 Kinjal Residency Agripda,Agripada,Opposite Mtnl Office,Byculla",
    "lat": 18.9762873,
    "lng": 72.8257228
  },
  {
    "name": "E 336 400011 Redimani Hsg,Clair Road,Opposite Bata Showroom,Byculla",
    "lat": 18.9699987,
    "lng": 72.8302623
  },
  {
    "name": "E 337 400011 Jubilee Compound,Sheikh Haffizuddin Marg,Near Ashadham,Byculla",
    "lat": 18.9721083,
    "lng": 72.8299365
  },
  {
    "name": "E 338 400011 Shivneri Hostel Byculla West,Station Road,Byculla Station West,Byculla",
    "lat": 18.9764276,
    "lng": 72.8296858
  },
  {
    "name": "E 339 400011 New Tank Bander Darukhana,Raey Road,Near Dr. Sudarshan Clinic,Byculla Congested Area",
    "lat": 18.9701884,
    "lng": 72.845962
  },
  {
    "name": "E 340 400011 Danish Villabajar Madanpura,3Rd Gelabai Street,Ghosht Bajar,Byculla",
    "lat": 18.9703745,
    "lng": 72.8271764
  },
  {
    "name": "E 341 400011 Nilkanth Building Bakri Adda,Nm Joshi Marg Chinchpokli,Opposite Bmc Press,Byculla",
    "lat": 18.983301,
    "lng": 72.8317725
  },
  {
    "name": "E 342 400011 Farjan Appt.,Badlu Rangari Street Sheikh Haffizudin Marg,Behind E Ward Office,Byculla",
    "lat": 18.9718778,
    "lng": 72.8313269
  },
  {
    "name": "E 343 400011 Pansare Chawl,Nm Joshi Marg Chinchpokli,Chinchpokli,Byculla Congested Area",
    "lat": 18.9920227,
    "lng": 72.8314767
  },
  {
    "name": "E 344 400011 Baya Park Janata Sevak,Byculla Station Road,Byculla Station,Byculla",
    "lat": 18.9771208,
    "lng": 72.8307456
  },
  {
    "name": "E 345 400011 Gharkul Building 1St Cross Lane Behind Bele Shop,Byculla Station Road,Opp. City Trust,Byculla",
    "lat": 18.9775511,
    "lng": 72.831377
  },
  {
    "name": "E 346 400011 Suryaji Compound,Tank Pakhadi Road,Lucky Compound,Byculla Congested Area",
    "lat": 18.9750836,
    "lng": 72.8288117
  },
  {
    "name": "E 347 400011 Afrishower Building,Sakhli Street,Behind E Ward Office,Byculla",
    "lat": 18.9723269,
    "lng": 72.8311923
  },
  {
    "name": "E 348 400011 B.I.T. Chawl Agripada, Fancy Market,Agripada,Zula Maidan,Byculla",
    "lat": 18.9748849,
    "lng": 72.8267395
  },
  {
    "name": "E 349 400011 Nilgiri H.S.G.Soci. Agripada,Agripada,Opp. M.T.N.L. Office,Byculla",
    "lat": 18.9810451,
    "lng": 72.8267579
  },
  {
    "name": "E 350 400011 Topaz Tower,Nair Road,Near Nair Hospital,Byculla",
    "lat": 18.9744076,
    "lng": 72.8222909
  },
  {
    "name": "E 351 400011 Santosh Bhavan,Meghraj Shetty Marg,B.M.C. Meghraj Shetty School,Byculla",
    "lat": 18.9739772,
    "lng": 72.8276064
  },
  {
    "name": "E 352 400011 Arihant Heights,Hindustan Masjd,Byculla",
    "lat": 18.9518459,
    "lng": 72.8356879
  },
  {
    "name": "E 353 400011 Pani Kahte Chawl 564,N M Joshi Marg,Opposite To S Bridge Municipal School,Byculla Congested Area",
    "lat": 18.9791583,
    "lng": 72.8320363
  },
  {
    "name": "E 354 400011 Building No. 2 Hans Road,Bj Marg,Bj Road Post Office,Byculla",
    "lat": 18.9765903,
    "lng": 72.8302246
  },
  {
    "name": "E 355 400011 Shivneri Building,Bj Marg,Opposite Sunder Gullynear Dargah,Byculla",
    "lat": 18.9753156,
    "lng": 72.8314693
  },
  {
    "name": "E 356 400011 Lambi Cement Chawl,Ms Ansari Marg,Opposite Sushanti Church,Byculla Congested Area",
    "lat": 18.9766096,
    "lng": 72.8295899
  },
  {
    "name": "E 357 400011 Hanuman Prasad Building,Bj Marg,Opposite Sunder Gully,Byculla",
    "lat": "",
    "lng": ""
  },
  {
    "name": "E 358 400011 Railway Quarters D R M Officers Quarters,Agripada,Near Nair Hospital,Bombay Central",
    "lat": 18.9682834,
    "lng": 72.833862
  },
  {
    "name": "E 359 400011 Abdulla Mension,Sakali Street,Badlu Rangari Street,Byculla",
    "lat": 18.9736378,
    "lng": 72.8291409
  },
  {
    "name": "E 360 400011 Hilton Residency,Bj Marg,Opp. Sundar Gully,Byculla",
    "lat": 18.9763632,
    "lng": 72.8303334
  },
  {
    "name": "E 361 400011 Vasudev Vinayak Chawl,N.M. Joshi Marg,Bakri Adda, Bmc Garage,Chinchpokli Congested Area",
    "lat": 18.983301,
    "lng": 72.8317725
  },
  {
    "name": "E 362 400011 Mussa House No.620,B.J.Marg,Near Bank Of Badoda,Byculla",
    "lat": 18.9760669,
    "lng": 72.8306469
  },
  {
    "name": "E 363 400011 Dukhi Seth Ki Chawl,2Nd Gela Bai Street,Hari Masjid,Madanpura",
    "lat": 18.9703745,
    "lng": 72.8271764
  },
  {
    "name": "E 364 400011 Chota Sonapur, Bilal Masjid,Shautak Ali Road,Vivan Road,Kamthipura",
    "lat": 18.9566733,
    "lng": 72.8327624
  },
  {
    "name": "E 365 400011 Narayan Bhavan,N M Joshi Marg,1St Cross Lane,Byculla",
    "lat": 18.9777298,
    "lng": 72.8320858
  },
  {
    "name": "E 366 400011 Kachare Harsh Building,Ma Road,Hari Masjid,Madanpura",
    "lat": 18.9705424,
    "lng": 72.8280025
  },
  {
    "name": "E 367 400011 53 Mohd. Azad India Building,Ma Road,Hari Masjid,Madanpura",
    "lat": 18.972399,
    "lng": 72.827535
  },
  {
    "name": "E 368 400011 Bakhar Chawl,Ma Road,Hari Masjid,Madanpura",
    "lat": 18.9705424,
    "lng": 72.8280025
  },
  {
    "name": "E 369 400011 Habib Palace,Sakali Street,Ashadhan,Byculla",
    "lat": 18.9720215,
    "lng": 72.8288694
  },
  {
    "name": "E 370 400011 Lucky Compound,Sakali Street,Tank Pakadi Road,Byculla",
    "lat": 18.9743545,
    "lng": 72.8285324
  },
  {
    "name": "E 371 400011 Killedar Mension,Mussa Killedar Street,Opp. Simplex Mhada,Byculla",
    "lat": 18.978668,
    "lng": 72.8295171
  },
  {
    "name": "E 372 400011 Poman Niwas,1St Crosslane,Opp. Kinjal Tower,Byculla",
    "lat": 18.9780586,
    "lng": 72.8308334
  },
  {
    "name": "E 373 400011 Ksa Residency,Ma Road,Naer Husseni Baug,Madanpura",
    "lat": 18.9703745,
    "lng": 72.8271764
  },
  {
    "name": "E 374 400011 Prabhat Building,Rb Chandorkar Marg,Police Station,Agripada",
    "lat": 18.9769806,
    "lng": 72.8244792
  },
  {
    "name": "E 375 400011 Aziz Castle Building,Anandrao Nair Road,Jhula Maidan,Agripada",
    "lat": 18.9731604,
    "lng": 72.8226839
  },
  {
    "name": "E 376 400011 Zunaid Manzil,Meghraj Sethi Marg,Meghraj Sethi Zopdi,Byculla",
    "lat": 18.9736116,
    "lng": 72.8292895
  },
  {
    "name": "E 377 400011 68 Fanaswala Building,Ma Road,Salvation Army Ngo,Byculla",
    "lat": 18.9728101,
    "lng": 72.8265174
  },
  {
    "name": "E 378 400011 Ksa Pride,Motlabhai Street,Near Wockhardt Hosp.,Byculla",
    "lat": 18.9752486,
    "lng": 72.8238218
  },
  {
    "name": "E 379 400011 Islam Building Badlurangari Street,Meghraj Sethi Marg,Fire Brigade Zopdi,Byculla",
    "lat": 18.9736116,
    "lng": 72.8292895
  },
  {
    "name": "E 380 400011 Nemtulla Building,Bj Marg,Opp. Bank Off Baroda,Byculla",
    "lat": 18.9765903,
    "lng": 72.8302246
  },
  {
    "name": "E 381 400011 Afzal Chawl,Agripada,Opp. Nair Hosp.,Byculla",
    "lat": 18.9707459,
    "lng": 72.8212364
  },
  {
    "name": "E 382 400011 D K Residency,Meghraj Sethi Marg,Near Mothersa,Byculla",
    "lat": 18.973,
    "lng": 72.830129
  },
  {
    "name": "E 383 400012 Dattakripa Building Chinchpokli,Dr. B A Road,Voltas House,Chinchpokli",
    "lat": 18.9863297,
    "lng": 72.8359006
  },
  {
    "name": "E 384 400012 Vrundavan Building,Dr Ba Road,Opp. Jaihind Cinema,Chinchpokli",
    "lat": 18.9858047,
    "lng": 72.8358794
  },
  {
    "name": "E 385 400012 Shivshakti Building,Telli Gully,Near Ganpati Utsav,Chinchpokli",
    "lat": 18.9880499,
    "lng": 72.8344004
  },
  {
    "name": "E 386 400017 Massina Quarters,Sant Savata Marg,Massina Hospital,Byculla",
    "lat": 18.9743706,
    "lng": 72.8361472
  },
  {
    "name": "E 387 400027 Ram Nagar A,Dr. B A Road Byculla East,Opposite Rani Bagh,Byculla East",
    "lat": 18.97871,
    "lng": 72.8351211
  },
  {
    "name": "E 388 400027 Nasmi House,6Th Chamber Lane,Palace Cinema,Byculla East",
    "lat": 18.9759324,
    "lng": 72.8331947
  },
  {
    "name": "E 389 400027 Khan Building,Sant Savta Marg,Balaji Hospital,Byculla",
    "lat": 18.97727,
    "lng": 72.835352
  },
  {
    "name": "E 390 400027 Jerbai Baug Byculla East,Opposite Byculla Bridge,Byculla",
    "lat": 18.9748689,
    "lng": 72.8341927
  },
  {
    "name": "E 391 400027 Railway Nurses Quarters Opposite Rani Baug,Dr. B A Road,Railway Hospital,Byculla",
    "lat": 18.9803317,
    "lng": 72.8337021
  },
  {
    "name": "E 392 400027 Police Office Quarters,Susex Road,Spice Hotel,Byculla",
    "lat": 18.9793266,
    "lng": 72.8382547
  },
  {
    "name": "E 393 400027 Ajay Appartment,Hansraj Lane,Mankeshwar Mandir,Byculla",
    "lat": 18.9712847,
    "lng": 72.8334429
  },
  {
    "name": "E 394 400027 Maratha Compound Building,Es Patanvala Marg,Near Muncipal Dispensary,Byculla",
    "lat": 18.9804598,
    "lng": 72.83504
  },
  {
    "name": "E 395 400027 Masina Hospital Staff Quarters,Sant Savata Marg,Masina Hosp.,Byculla East",
    "lat": 18.9743706,
    "lng": 72.8361472
  },
  {
    "name": "E 396 400027 Bridge View Appt.,Hansraj Lane,Mankeshwar Mandir,Byculla East",
    "lat": 18.9714134,
    "lng": 72.8337959
  },
  {
    "name": "E 397 400033 Mhada Colony,Ram Bhau Bhogle Marg,Batliboy Compound Ground,Ghodapdeo",
    "lat": 18.9822434,
    "lng": 72.840843
  },
  {
    "name": "E 398 400033 Sanas Patra Shed,Dr. B. A. Road,Opp. Jaihind Cinema,Kalachowky Congested Area",
    "lat": 18.9858047,
    "lng": 72.8358794
  },
  {
    "name": "E 399 400033 Kandi Karkhana,Rb Marg,Bharat Bank,Ghodapdeo Congested Area",
    "lat": 18.9814951,
    "lng": 72.8410578
  },
  {
    "name": "FN 400 400014 Alt Block No.3,Mancherji Joshi Road, Dadar Parsi Colony,Dadar East Congested Area",
    "lat": 19.0188693,
    "lng": 72.8516181
  },
  {
    "name": "FN 401 400019 College,Natanlal Parek Marg,Matunga",
    "lat": 19.0256922,
    "lng": 72.8563319
  },
  {
    "name": "FN 402 400019 Sanjarkha House,Eden Walla Road,Opp Custom Quaters Near 5 Gardens,Matunga East",
    "lat": 19.019747,
    "lng": 72.854312
  },
  {
    "name": "FN 403 400019 Palai Ratan,Shankar Matham Road,Matunga East Congested Area",
    "lat": 19.0281204,
    "lng": 72.854525
  },
  {
    "name": "FN 404 400022 Navratna Bldg,Mhada Colony,Kokari Agar,Sion Congested Area",
    "lat": 19.0365038,
    "lng": 72.8712355
  },
  {
    "name": "FN 405 400022 Hanuman Chawl,Near Raoli Camp,Sion Koliwada Congested Area",
    "lat": 19.0357375,
    "lng": 72.8686745
  },
  {
    "name": "FN 406 400022 Police Officer Bldg,Pratikshanagar,Sion",
    "lat": 19.0420838,
    "lng": 72.8695851
  },
  {
    "name": "FN 407 400022 Seva Samiti Bldg,,Sion",
    "lat": 19.0325859,
    "lng": 72.8617816
  },
  {
    "name": "FN 408 400022 ,Pratiksha Nagar,Sion",
    "lat": 19.0420838,
    "lng": 72.8695851
  },
  {
    "name": "FN 409 400022 Bmc Bldg.No.G,Bhandarwada,Sion",
    "lat": 19.0425604,
    "lng": 72.8638089
  },
  {
    "name": "FN 410 400022 Ratan Sagar,Flank Road,Near Shanmukhanand Hall,Sion",
    "lat": 19.0314375,
    "lng": 72.8602527
  },
  {
    "name": "FN 411 400022 ,Pratiksha Nagar,Sion",
    "lat": 19.0420838,
    "lng": 72.8695851
  },
  {
    "name": "FN 412 400022 Parijat Chs,Pratiksha Nagar,Sion",
    "lat": 19.0423142,
    "lng": 72.8720633
  },
  {
    "name": "FN 413 400022 Nisarg Chs,Pratiksha Nagar,Sion",
    "lat": 19.0432523,
    "lng": 72.8744978
  },
  {
    "name": "FN 414 400022 ,Sunder Kamala Nagar, Near Kings Circle,Sion Congested Area",
    "lat": "",
    "lng": ""
  },
  {
    "name": "FN 415 400022 Shanta Niwas,Gujrat Society,Sion",
    "lat": 19.0420486,
    "lng": 72.8744522
  },
  {
    "name": "FN 416 400022 Sardar Nagar 3,Near Panchwati Bakery, Sion Koliwada,Sion",
    "lat": 19.0403577,
    "lng": 72.8644712
  },
  {
    "name": "FN 417 400022 Nehru Nagar, Mrd Sion Koliwada,Sion Congested Area",
    "lat": 19.0403577,
    "lng": 72.8644712
  },
  {
    "name": "FN 418 400022 Sham Dham Chs,,Sion",
    "lat": 19.0451929,
    "lng": 72.8636174
  },
  {
    "name": "FN 419 400022 Annasgar,Sion Koliwada Gtb Nagar,Sion",
    "lat": 19.0357936,
    "lng": 72.8655789
  },
  {
    "name": "FN 420 400022 Transit Camp,Gtb Sion Koliwada,Sion Congested Area",
    "lat": 19.043,
    "lng": 72.870206
  },
  {
    "name": "FN 421 400022 Shiv Sneha Society,Pratiksha Nagar Mhada Colony,Sion",
    "lat": 19.0417159,
    "lng": 72.8698474
  },
  {
    "name": "FN 422 400022 ,Pratiksha Nagar,Sion",
    "lat": 19.0420838,
    "lng": 72.8695851
  },
  {
    "name": "FN 423 400022 ,Sion Congested Area",
    "lat": "",
    "lng": ""
  },
  {
    "name": "FN 424 400022 Hindustan Nagar,Hindustan Nagar Congested Area",
    "lat": 19.0425604,
    "lng": 72.8638089
  },
  {
    "name": "FN 425 400022 Mnv Colony,Sardar Nagar No1,Sion East",
    "lat": 19.0384132,
    "lng": 72.8666866
  },
  {
    "name": "FN 426 400022 Eagali Chawl Comitee,Nehru Nagar No 1 Bhind,Wadala Congested Area",
    "lat": 19.0381685,
    "lng": 72.8657115
  },
  {
    "name": "FN 427 400022 Madhu Mansion,Scheme 6 Bina Nurses Bureau",
    "lat": 19.0434368,
    "lng": 72.8624054
  },
  {
    "name": "FN 428 400022 Seva Samiti Nagar,Sion Koliwada,Sion",
    "lat": 19.0327797,
    "lng": 72.864102
  },
  {
    "name": "FN 429 400022 Ambedkar Nagar,Behind Kachru Yadav Office Sion Koliwada,Sion Congested Area",
    "lat": 26.4683952,
    "lng": 82.6915429
  },
  {
    "name": "FN 430 400022 Adarsh Chs,Rawali Camp Kokari Agar Sion Koliwada,Sion",
    "lat": 19.036632,
    "lng": 72.869128
  },
  {
    "name": "FN 431 400022 Siddhivinayak Chs,Pratiksha Nagar,Sion",
    "lat": 19.0432624,
    "lng": 72.8748914
  },
  {
    "name": "FN 432 400022 Shastri Ngr,Sion Koliwada 22,Sion Congested Area",
    "lat": 19.0408976,
    "lng": 72.8720403
  },
  {
    "name": "FN 433 400022 Sunder Kamla Nagar Co.Op. Society,,Sion East",
    "lat": 19.0326547,
    "lng": 72.8501099
  },
  {
    "name": "FN 434 400022 Bharti Bhavan 73,Near Amulakh School,Sndt College King Circle,Sion East",
    "lat": 19.0269091,
    "lng": 72.8602888
  },
  {
    "name": "FN 435 400022 Meghdoot Bld.,Nr. Shanmukhanand Hall,Sion",
    "lat": 19.0311556,
    "lng": 72.8599713
  },
  {
    "name": "FN 436 400022 Panchashil Society,Behind Building No. 1, Makka Wadi,Sion",
    "lat": 21.3890824,
    "lng": 39.8579118
  },
  {
    "name": "FN 437 400022 Almeda Compound Z Patti,Nr Atta Compound, Sion Koliwada,Sion Congested Area",
    "lat": 19.0403577,
    "lng": 72.8644712
  },
  {
    "name": "FN 438 400022 Road No 19,Center Railway Colony Guru Teg Bahadur Nagar East,Sion",
    "lat": 19.0379766,
    "lng": 72.8643617
  },
  {
    "name": "FN 439 400022 Sai Baba Welfare Soc,Sanjay Gandhi Nagar,Sion East",
    "lat": 19.0425604,
    "lng": 72.8638089
  },
  {
    "name": "FN 440 400022 Shri Jain Shvetambar Murti Pajak Sangh,Jain Soc,Sion",
    "lat": 19.0381054,
    "lng": 72.8596712
  },
  {
    "name": "FN 441 400022 Sardar Nagar 3,Near Payanati Building, Mariaman Mandir,Sion Congested Area",
    "lat": "",
    "lng": ""
  },
  {
    "name": "FN 442 400022 Bhaidas Chawl,Near Sion Talab, Opp Temple Hill Bldg,Sion Congested Area",
    "lat": 19.0487707,
    "lng": 72.865475
  },
  {
    "name": "FN 443 400031 ,Opp Ganesh Mandir Road Wadala West,Wadala",
    "lat": 19.0149742,
    "lng": 72.8551456
  },
  {
    "name": "FN 444 400031 ,Sewri Cross,Wadala Congested Area",
    "lat": 19.0067318,
    "lng": 72.8545315
  },
  {
    "name": "FN 445 400031 ,Wadala Village,Wadala Congested Area",
    "lat": 19.0221649,
    "lng": 72.8602115
  },
  {
    "name": "FN 446 400031 Chaitaya Building,,Wadala East",
    "lat": 19.0132891,
    "lng": 72.8548981
  },
  {
    "name": "FN 447 400031 Acharya Atre Nagar,Smd Road,Near Antop Hill Post Office,Wadala E Congested Area",
    "lat": 19.0242035,
    "lng": 72.8640254
  },
  {
    "name": "FN 448 400031 Shubam Chs,Mmrda Colony Kokri Agari Next To Gtb Monoral Sion Koliwada,Wadala E",
    "lat": 19.0341486,
    "lng": 72.8631592
  },
  {
    "name": "FN 449 400031 Jai Gurudatt Mitra Mandal,Nr Vithal Mandir,Wadala Congested Area",
    "lat": 19.0136454,
    "lng": 72.8506612
  },
  {
    "name": "FN 450 400037 Sangam Nagar,S P Road,Antop Hill,Wadala East Congested Area",
    "lat": 19.0144995,
    "lng": 72.8618577
  },
  {
    "name": "FN 451 400037 Bharatiya Kamala Nagar,S P Road,Near Karbala Msjid, Antop Hill,Wadala East Congested Area",
    "lat": 19.0218052,
    "lng": 72.8677119
  },
  {
    "name": "FN 452 400037 Sai Baba Mandir,Vijay Nagar, Antop Hill,Wadala East Congested Area",
    "lat": 19.0286425,
    "lng": 72.8718767
  },
  {
    "name": "FN 453 400037 Himmat Nagar,Sp Road,Near Madina Masjid,Wadala East Congested Area",
    "lat": 19.0088678,
    "lng": 72.8573828
  },
  {
    "name": "FN 454 400037 Siddharth Nagar,Koraba Mithagar,Wadala Congested Area",
    "lat": 19.016164,
    "lng": 72.864487
  },
  {
    "name": "FN 455 400037 Lal Mati, Kismat Nagar,,Wadala Congested Area",
    "lat": 19.0257475,
    "lng": 72.8696944
  },
  {
    "name": "FN 456 400037 Bhaiyasaheb Nagar,90Feet Road,Barkat Ali Naka,Wadala East Congested Area",
    "lat": 19.0186086,
    "lng": 72.8618788
  },
  {
    "name": "FN 457 400037 Omkar Chawl,Ganesh Nagar,Wadala East Congested Area",
    "lat": 19.0190658,
    "lng": 72.8690865
  },
  {
    "name": "FN 458 400037 Chindhi Gully,Near Nurani Masjid,Wadala Congested Area",
    "lat": 19.0257475,
    "lng": 72.8696944
  },
  {
    "name": "FN 459 400037 Rajiv Gandhi Nagar,Bpt Railway Line, Gate No. 4,Wadala Congested Area",
    "lat": 19.0257475,
    "lng": 72.8696944
  },
  {
    "name": "FN 460 400037 Girdhar Tambe Nagar, Korba Mithagar,B.A.D Road,Wadala East Congested Area",
    "lat": 19.0144995,
    "lng": 72.8618577
  },
  {
    "name": "FN 461 400037 Shivshankar Nagar,Jai Bhavani Temple, Wadala (E),Wadala Congested Area",
    "lat": 19.0200732,
    "lng": 72.8683481
  },
  {
    "name": "FN 462 400037 Ramdas Chawl, Near Sai Baba Mandir,Antop Hill,Wadala Congested Area",
    "lat": 19.0368308,
    "lng": 72.869943
  },
  {
    "name": "FN 463 400037 Kokani Nagar,Jay Maharastra Road,Sion Koliwada,Sion Congested Area",
    "lat": 19.0341486,
    "lng": 72.8631592
  },
  {
    "name": "FN 464 400037 Garib Nawaz Nagar,Kokari Agar,Antop Hill Congested Area",
    "lat": 19.03242,
    "lng": 72.871213
  },
  {
    "name": "FN 465 400037 The Bayagroove, Sai Darshan Bldg.,Smd Road,Near Antop Hill Post Office,Wadala",
    "lat": 19.0242035,
    "lng": 72.8640254
  },
  {
    "name": "FN 466 400037 Azad Mohalla,Sp Road,Shanti Nagar, Near Gausiya Masjid,Antop Hill Congested Area",
    "lat": 19.0218052,
    "lng": 72.8677119
  },
  {
    "name": "FN 467 400037 Shaikh Misree Marg,Sai Baba Mandir, Vijay Nagar,Antop Hill,Wadala Congested Area",
    "lat": 19.0264882,
    "lng": 72.866199
  },
  {
    "name": "FN 468 400037 Motilal Nehru Nagar,Antop Hill,Wadala",
    "lat": 19.0304677,
    "lng": 72.8700096
  },
  {
    "name": "FN 469 400037 Chandani Agagar,S. M. Road,Chandani Agagar Congested Area",
    "lat": 19.0315426,
    "lng": 72.8709697
  },
  {
    "name": "FN 470 400037 Sangmeshwar Chawl,,Wadala Congested Area",
    "lat": 19.0257475,
    "lng": 72.8696944
  },
  {
    "name": "FN 471 400037 Antop Hill Church, Near Shitaladevi Temple, Gtb Nagar, Sion,Navtarun Naik Nagar,Near Shitaladevi Temple, Gtb Nagar,Sion Congested Area",
    "lat": 19.0352815,
    "lng": 72.8437048
  },
  {
    "name": "FN 472 400037 Mahatma Gandhi Nagar,Sector 3, Cgs Colony, Near Kane Nagar School,Antop Hill, Wadala Congested Area",
    "lat": 19.0308084,
    "lng": 72.8622558
  },
  {
    "name": "FN 473 400037 Basant Mahal,Barakat Ali Road,Wadala",
    "lat": 19.0188666,
    "lng": 72.8629712
  },
  {
    "name": "FN 474 400037 Navhind Karauli Mandal,,Wadala Congested Area",
    "lat": 19.0257475,
    "lng": 72.8696944
  },
  {
    "name": "FN 475 400037 Barkat Ali Nagar,Dp Road,Wadala (E) Congested Area",
    "lat": 19.0185664,
    "lng": 72.8676096
  },
  {
    "name": "FN 476 400037 Kamraj Nagar,Kokari Agar, Sion Koliwada,Sion Congested Area",
    "lat": 19.0337354,
    "lng": 72.8703788
  },
  {
    "name": "FN 477 400037 Parn Kuti Housing Society,Gtb Nagar,Sion",
    "lat": 19.034207,
    "lng": 72.863168
  },
  {
    "name": "FN 478 400037 Ram Nagar Co Op Society,Wadala Cross Road,Wadala",
    "lat": 19.0160222,
    "lng": 72.8535851
  },
  {
    "name": "FN 479 400037 Kashusha Sangh No 1,Mahadev Nagar Opp Wadala Fish Market,Wadala Congested Area",
    "lat": 19.0175114,
    "lng": 72.8546951
  },
  {
    "name": "FN 480 400037 Bhau Saheb Nagar,Ambekar Marg,Near Temple,Wadala Congested Area",
    "lat": 19.0053073,
    "lng": 72.8456991
  },
  {
    "name": "FN 481 400037 Lahan Paigambari Chawl,Antop Hill Sampamnagar,Wadala E Congested Area",
    "lat": 19.0144995,
    "lng": 72.8618577
  },
  {
    "name": "FN 482 400037 Wadala Heights Chs,Llyods Estate, Antop Hill,Wadala",
    "lat": 19.0223438,
    "lng": 72.8685979
  },
  {
    "name": "FN 483 400037 Chikhalwadi,Near Masalewali Galli,Wadala Congested Area",
    "lat": 18.96679,
    "lng": 72.8144398
  },
  {
    "name": "FN 484 400037 Ganesh Nagar,Salt Pan Road,Near Sangam Nagar And Bhole Mandir,Wadala Congested Area",
    "lat": 19.023077,
    "lng": 72.8725591
  },
  {
    "name": "FN 485 400037 Din Bandhu Nagar,S P Road,Wadala East Congested Area",
    "lat": 19.0216818,
    "lng": 72.8684457
  },
  {
    "name": "FN 486 400037 Ganesh Nagar,Near Vidyalankar College,Wadala Congested Area",
    "lat": 19.0218052,
    "lng": 72.8677119
  },
  {
    "name": "FN 487 400037 Kokari Agar, Antop Hill,Wadala",
    "lat": 19.0347779,
    "lng": 72.8700096
  },
  {
    "name": "FN 488 400037 Shree Niketan,Ambedkar Road,Sardar Nagar, Antop Hill,Wadala",
    "lat": 19.0302319,
    "lng": 72.8577005
  },
  {
    "name": "FN 489 400037 Bpt Railway Line,Bangalipura Lalmati,Wadala Congested Area",
    "lat": 19.0257475,
    "lng": 72.8696944
  },
  {
    "name": "FN 490 400037 Jai Maharashtra Nagar,Salt Pan Road,Near Vidyalankar College,Wadala Congested Area",
    "lat": 19.0211016,
    "lng": 72.8709509
  },
  {
    "name": "FN 491 400037 Shivshankar Nagar,Salt Pan Road,Near Datta Mandir,Wadala Congested Area",
    "lat": 19.0224996,
    "lng": 72.8725469
  },
  {
    "name": "FN 492 400037 Ramamata Wadi,Wadala Police Stn,Wadala Congested Area",
    "lat": 19.0330297,
    "lng": 72.875057
  },
  {
    "name": "FN 493 400037 New Mbpt Colony,Nadkarni Park,Wadala East",
    "lat": 19.012747,
    "lng": 72.8613887
  },
  {
    "name": "FN 494 400037 Maratha Chawl Committee,Antop Hill,Wadala Congested Area",
    "lat": 19.0283439,
    "lng": 72.869804
  },
  {
    "name": "FN 495 400037 Sangram Nagar,Balli Kirana Store, Antop Hill,Wadala Congested Area",
    "lat": 19.0258666,
    "lng": 72.86475
  },
  {
    "name": "FN 496 400037 Panjabi Camp,Antop Hill Church, Gtb Nagar, Sion Koliwada,Sion East",
    "lat": 19.0357936,
    "lng": 72.8655789
  },
  {
    "name": "FN 497 400037 Jadeja Building,Sardar Nagar No 4, Near Ravli Hospital,Sion Koliwada,Sion East",
    "lat": 19.0354435,
    "lng": 72.867408
  },
  {
    "name": "FN 498 400037 Mhada Transit Camp,Sion Koliwada, Antop Hil,Wadala",
    "lat": 19.0550666,
    "lng": 72.8473015
  },
  {
    "name": "FN 499 400037 Kopri Agar,Antop Hill,Wadala Congested Area",
    "lat": 19.0283439,
    "lng": 72.869804
  },
  {
    "name": "FN 500 400037 Pokhri Nagar,Kamraj Nagar, Near Mariyam Mandir, Antop Hill,Wadala Congested Area",
    "lat": 19.0283439,
    "lng": 72.869804
  },
  {
    "name": "FN 501 400037 Naik Nagar,,Pakhari Nagar, Antop Hill, Near Mayur Raj,Wadala Congested Area",
    "lat": 19.0283439,
    "lng": 72.869804
  },
  {
    "name": "FN 502 400037 Oprt Office,Antop Hill,Wadala",
    "lat": 19.0283439,
    "lng": 72.869804
  },
  {
    "name": "FS 503 400012 Mamta Bldg,Jer Bai Wadia Road,Near Bhoiwada,Parel Congested Area",
    "lat": 19.0045997,
    "lng": 72.8493739
  },
  {
    "name": "FS 504 400012 Aadhar Blg, Shramik Niwas, Vikrant Sadan,Sane Guruji Marg,Gas Company Lane,Chinchpokli Congested Area",
    "lat": 18.9894347,
    "lng": 72.8333849
  },
  {
    "name": "FS 505 400012 Ug Pg Hostel Rooms & Nurses Quarters, Kem Hospital Campus,Dr. E Borges Road,Parel",
    "lat": 19.0014532,
    "lng": 72.8429332
  },
  {
    "name": "FS 506 400012 Transit Camp,Shankar Tanaji Ghadi Marg,Behind Suntower,Bhoiwada",
    "lat": 19.0048419,
    "lng": 72.8460091
  },
  {
    "name": "FS 507 400012 Pwd Chawl Godown,Road No.39,Annabhau Sathe Nagar,Bhoiwada",
    "lat": 19.0048419,
    "lng": 72.8460091
  },
  {
    "name": "FS 508 400012 Itc Grand Hotel,Off Dr. B.A. Road,Parel",
    "lat": 18.9981731,
    "lng": 72.8388143
  },
  {
    "name": "FS 509 400012 Javeri House,Dr. Batliwala Road,Parel",
    "lat": 19.0034095,
    "lng": 72.8401716
  },
  {
    "name": "FS 510 400012 Bhuvaneshwar Bldg,Dr. Walimbe Marg,Parel",
    "lat": 18.9996542,
    "lng": 72.8434867
  },
  {
    "name": "FS 511 400012 Yashwant Bldg.,Dr. S.S.Rao Rd.,Parel Congested Area",
    "lat": 18.9964078,
    "lng": 72.8403192
  },
  {
    "name": "FS 512 400012 Batatawala Mansion,Ganesh Gully,Lalbaug Congested Area",
    "lat": 18.9939787,
    "lng": 72.8368007
  },
  {
    "name": "FS 513 400012 Amrutvel Chs,Ganesh Galli,Lalbaug",
    "lat": 18.9936109,
    "lng": 72.8370649
  },
  {
    "name": "FS 514 400012 Habib Terrace,Dr Baba Saheb Ambedkar Marg,Lalbaug Congested Area",
    "lat": 18.9946214,
    "lng": 72.836859
  },
  {
    "name": "FS 515 400012 Best Quaters,V Shantaram Road,Gurudam Kripa Housing Society,Parel",
    "lat": 19.004856,
    "lng": 72.8382935
  },
  {
    "name": "FS 516 400012 Mehaboob Chawl,Sewree Cross Road,Sewree Congested Area",
    "lat": 19.003839,
    "lng": 72.8545641
  },
  {
    "name": "FS 517 400012 Bharat Nagar,Hindu Smashanbhumi Road,Bhoiwada Congested Area",
    "lat": 19.007195,
    "lng": 72.8504776
  },
  {
    "name": "FS 518 400012 Muthelia Regency,Hakoba Bus Stop,Lalbaug",
    "lat": 18.9908177,
    "lng": 72.8382547
  },
  {
    "name": "FS 519 400012 Iqbal Bldg., Maharashtra Guest House,Dr Baba Saheb Ambedkar Marg,Parel",
    "lat": 19.0068441,
    "lng": 72.8404186
  },
  {
    "name": "FS 520 400012 Bohari Chwal,N.L.Paralkar Marg,Parel Congested Area",
    "lat": 18.9997193,
    "lng": 72.8452476
  },
  {
    "name": "FS 521 400012 New Police Line,G D Ambekar Marg,Parel Congested Area",
    "lat": 19.0019282,
    "lng": 72.8468615
  },
  {
    "name": "FS 522 400012 Shipai Chal Society,Inside Kem Hosp Premises,Parel Congested Area",
    "lat": 19.0025142,
    "lng": 72.8420769
  },
  {
    "name": "FS 523 400012 Amey Chs,Sane Guruji Marg,Lalbaug,Parel",
    "lat": 18.9847131,
    "lng": 72.8299869
  },
  {
    "name": "FS 524 400012 Bhim Nagar,Bai Jer Bai Wadia Road,Bhoiwada,Parel Congested Area",
    "lat": 19.0045072,
    "lng": 72.8417739
  },
  {
    "name": "FS 525 400012 Shraddha Building,Jerbai Wadia Road,Parel",
    "lat": 19.0055323,
    "lng": 72.8412244
  },
  {
    "name": "FS 526 400012 Bhavna Apartments,Dr Vijay Kumar Walimbe Road,Parel",
    "lat": 18.9994335,
    "lng": 72.8448332
  },
  {
    "name": "FS 527 400012 Khoja Kasam Chawl,J Merwanji Street,,Parel Congested Area",
    "lat": 19.0027244,
    "lng": 72.8406483
  },
  {
    "name": "FS 528 400012 Ambekar Colony,,Parel",
    "lat": 18.9995407,
    "lng": 72.8397089
  },
  {
    "name": "FS 529 400012 Sukhakarta Co-Op Hsg Soc.,,Lalbaug,Parel",
    "lat": 18.9950657,
    "lng": 72.8333833
  },
  {
    "name": "FS 530 400012 Dharati Chs.,G.M. Navgare Marg,Parel",
    "lat": 18.9995407,
    "lng": 72.8397089
  },
  {
    "name": "FS 531 400012 Wagheshwari Nagar,Sakharam Lanjekar Marg,Near Durgamata Temple,Parel Congested Area",
    "lat": 19.0014507,
    "lng": 72.8478263
  },
  {
    "name": "FS 532 400012 Sahakar Darshan Bldg.,N.I. Paralekar Marg,Parel",
    "lat": 19.0000691,
    "lng": 72.8453341
  },
  {
    "name": "FS 533 400012 Kalptaru Bldg,S.S. Rao Marg,Lalbaug,Parel",
    "lat": 18.9950501,
    "lng": 72.8394643
  },
  {
    "name": "FS 534 400012 Shivlal Chawl (Slum),St. Xavier Street, Bhoiwada,Bhoiwada,Parel Congested Area",
    "lat": 19.0061297,
    "lng": 72.8445515
  },
  {
    "name": "FS 535 400014 New Transit Camp,Dada Saheb Phalke Road,Gautam Nagar,Dadar",
    "lat": 19.0135897,
    "lng": 72.8424627
  },
  {
    "name": "FS 536 400014 Abhishek Chs,Spring Mill,Nr. Naigaon Monorail Stn.,Dadar",
    "lat": 19.010989,
    "lng": 72.848404
  },
  {
    "name": "FS 537 400014 Gautam Nagar Bldg, Dr. Dadasaheb Falake Road,Dadar",
    "lat": 19.0135897,
    "lng": 72.8424627
  },
  {
    "name": "FS 538 400014 Ahmed Sailor Compd,Opp New Bdd Chawl,Naigaon,Dadar Congested Area",
    "lat": 19.0128729,
    "lng": 72.8464492
  },
  {
    "name": "FS 539 400014 New Bdd Chal No. 17,M.J. Phule Road,Naigaon,Dadar",
    "lat": 19.010279,
    "lng": 72.844909
  },
  {
    "name": "FS 540 400014 Old Bdd Chawl,Mj Phule Marg,Naigon,Dadar Congested Area",
    "lat": 19.0124187,
    "lng": 72.8463784
  },
  {
    "name": "FS 541 400014 Bdd Chawl,Naigaon,Dadar Congested Area",
    "lat": 19.0131836,
    "lng": 72.8472371
  },
  {
    "name": "FS 542 400014 Patel Blg.,Hindmata,Dadar Congested Area",
    "lat": 19.0102369,
    "lng": 72.8423166
  },
  {
    "name": "FS 543 400014 Kohinoor Mill Copmound Chawl,M.J. Phule Rd,Naigaon,Dadar Congested Area",
    "lat": 19.0122704,
    "lng": 72.8461639
  },
  {
    "name": "FS 544 400014 New Bdd Chawl,Naigaon,Dadar Congested Area",
    "lat": 19.0083112,
    "lng": 72.8444594
  },
  {
    "name": "FS 545 400014 Niagaon Poilice Head Quarters,Naigaon,Dadar Congested Area",
    "lat": 19.0116971,
    "lng": 72.8458707
  },
  {
    "name": "FS 546 400014 Kesar Baug Bldg.,B.J. Devrukhkar Marg,Naigaon,Dadar",
    "lat": 19.0094599,
    "lng": 72.8461254
  },
  {
    "name": "FS 547 400014 Shivneri Bldg.,Dadasaheb Phalke Marg,Dadar Congested Area",
    "lat": 19.0116153,
    "lng": 72.8421781
  },
  {
    "name": "FS 548 400014 Bhoiwada,Opp. Naigaon Maternity Hosp.,Dadar",
    "lat": 19.0106664,
    "lng": 72.8468911
  },
  {
    "name": "FS 549 400014 Ahmed Sailor Compound,Vijay Dwarekar Road,Naigaon, Near Lokseva Rd.,Dadar Congested Area",
    "lat": 19.0128729,
    "lng": 72.8464492
  },
  {
    "name": "FS 550 400015 Irani Chawl No 8,Sewree Cross Road,Opp Dr.Khatri Clinic,Sewree Congested Area",
    "lat": 19.0057765,
    "lng": 72.8547969
  },
  {
    "name": "FS 551 400015 Bahare Madina,Wadala,Near R A Kidwai Road Police Station,Sewree",
    "lat": 19.005129,
    "lng": 72.850127
  },
  {
    "name": "FS 552 400015 Gtb Hostel, G T B Hospital,Jer Bai Wadia Road,Sewree",
    "lat": 19.0049832,
    "lng": 72.8520824
  },
  {
    "name": "FS 553 400015 Hirji Baug Chs,Jer Bai Wadia Road,Sewree",
    "lat": 19.0056953,
    "lng": 72.8464128
  },
  {
    "name": "FS 554 400015 Dyaneshwar Nagar Vasahat,Jer Bai Wadia Rd,Sewree",
    "lat": 19.0056953,
    "lng": 72.8464128
  },
  {
    "name": "FS 555 400015 Ashok Gardens,Takorsey Jivraj Marg,Swan Mill Compound,Sewree",
    "lat": 18.9943882,
    "lng": 72.8486487
  },
  {
    "name": "FS 556 400015 Bhavya Apts,Acharya Donde Marg,Sewree",
    "lat": 18.997695,
    "lng": 72.8490067
  },
  {
    "name": "FS 557 400015 Pathan Masjid Compound,Sewree Cross Road,Sewree Congested Area",
    "lat": 19.0075453,
    "lng": 72.8545958
  },
  {
    "name": "FS 558 400015 Banubai Chawl No. 5,,Sewree Congested Area",
    "lat": 18.9960872,
    "lng": 72.8528356
  },
  {
    "name": "FS 559 400015 Tokarasi Baithi Chawl,Tj Rd,Gopal Baug,Sewree Congested Area",
    "lat": 18.9960872,
    "lng": 72.8528356
  },
  {
    "name": "FS 560 400015 Rupji Gandhi Chawl, Gaadi Adda,Near Hanuman Mandir,Sewree Congested Area",
    "lat": 18.99505,
    "lng": 72.853873
  },
  {
    "name": "FS 561 400015 Patra Chawl, Nakawachi Wadi,Takorsey Jivraj Marg,Sewree Congested Area",
    "lat": 18.9960872,
    "lng": 72.8528356
  },
  {
    "name": "FS 562 400015 Indira Railway Hutments,Haji Bunder Road,Sewree Congested Area",
    "lat": 18.988402,
    "lng": 72.8564455
  },
  {
    "name": "FS 563 400015 Global Hospital Nurse Quarters,Takorsey Jivraj Marg,Sewree",
    "lat": 19.0060101,
    "lng": 72.8522998
  },
  {
    "name": "FS 564 400015 Shahpunji Palanji Compound,Dr S.S.Rao Road,Sewree Congested Area",
    "lat": 18.9990762,
    "lng": 72.8416762
  },
  {
    "name": "FS 565 400015 Rupji Gandhi Chawl,Gaadi Adda,Near Hanuman Mandir,Sewree Congested Area",
    "lat": 18.99505,
    "lng": 72.853873
  },
  {
    "name": "FS 566 400015 Sena Nagar Vasahat,Acharya Donde Marg,Sewree Congested Area",
    "lat": 18.9984193,
    "lng": 72.850831
  },
  {
    "name": "FS 567 400015 Prabuddh Nagar,Jerbai Wadia Road,Opp. Mamata Bldg.,Sewree Congested Area",
    "lat": 19.0056953,
    "lng": 72.8464128
  },
  {
    "name": "FS 568 400015 Hira Seth Chaul,Takorsey Jivraj Marg,Nr. Gopalbaug,Sewree Congested Area",
    "lat": 18.9960872,
    "lng": 72.8528356
  },
  {
    "name": "FS 569 400015 Ganesh Baugh,Takorsey Jivraj Marg,Near Maruti Mandir,Sewree Congested Area",
    "lat": 18.9960872,
    "lng": 72.8528356
  },
  {
    "name": "FS 570 400015 Bayaa Bai Chawl,Sewri Koliwada, Nr Datta Mandir,Sewree Congested Area",
    "lat": 19.0000492,
    "lng": 72.8560815
  },
  {
    "name": "FS 571 400015 Ganesh Nagar Seva Sangh,Acharya Donde Marg,,Sewree Congested Area",
    "lat": 19.000835,
    "lng": 72.8456267
  },
  {
    "name": "FS 572 400015 Virchand Niwas,A D Marg,Sewree Congested Area",
    "lat": 18.9987317,
    "lng": 72.8502094
  },
  {
    "name": "FS 573 400015 Vitthal Vinayak Sadan,Tokarasi Jivraj Road,Sewree",
    "lat": 18.99449,
    "lng": 72.849292
  },
  {
    "name": "FS 574 400015 Baithi Chawl,,Takorsey Jivraj Marg,Sewree Congested Area",
    "lat": 18.9960872,
    "lng": 72.8528356
  },
  {
    "name": "FS 575 400015 Ashwamedh Chs,D.G. Mahajani Marg,,Sewree",
    "lat": 19.0048988,
    "lng": 72.8532565
  },
  {
    "name": "FS 576 400015 Maruti Keshav Kangutkar Chawl, Sewree Cross Rd.,Near Raza Tower,Sewree Congested Area",
    "lat": 19.0021249,
    "lng": 72.8542136
  },
  {
    "name": "FS 577 400015 Hira Seth Chawl,Takorsey Jivraj Marg,Golanji Hill,Sewree Congested Area",
    "lat": 19.0014725,
    "lng": 72.850267
  },
  {
    "name": "FS 578 400031 Rahat Nagar,Sewree Cross Road,Behind Dr.Gada'S Clinic,Wadala Congested Area",
    "lat": 19.0065153,
    "lng": 72.8545613
  },
  {
    "name": "FS 579 400031 Municipal Chawl,Sewree Cross Road,Near Railwy Gate No 6,Wadala Congested Area",
    "lat": 19.0065153,
    "lng": 72.8545613
  },
  {
    "name": "FS 580 400031 Shivshahi Prakalp, Mhada Building,Near Rak Police Chowkyy,Wadala",
    "lat": 19.0132891,
    "lng": 72.8548981
  },
  {
    "name": "FS 581 400031 Madhav Nagar, R.A. Kidwai Road, Opp. Hari Masjid,Wadala",
    "lat": 19.0160207,
    "lng": 72.8588041
  },
  {
    "name": "FS 582 400033 Bdlb Colony,Shrikant Hadkar Marg,Kalachowky,Kalachowky",
    "lat": 18.9879253,
    "lng": 72.8434242
  },
  {
    "name": "FS 583 400033 Vineet Nagar,,Kalachowky",
    "lat": 18.9901964,
    "lng": 72.8430551
  },
  {
    "name": "FS 584 400033 Abhudyay Nagar,,Kalachowky",
    "lat": 18.988045,
    "lng": 72.842657
  },
  {
    "name": "FS 585 400033 Parshuram Nagar,G D Ambekar Marg,Kalachowky Congested Area",
    "lat": 18.9929396,
    "lng": 72.8437734
  },
  {
    "name": "FS 586 400033 Jijamata Nagar,D Ambedkr Marg,Kalachowki Congested Area",
    "lat": 18.9894259,
    "lng": 72.8411621
  },
  {
    "name": "FS 587 400033 Sita Sadan, Dattaram Laad Marg,Klachowky Congested Area",
    "lat": 18.9885828,
    "lng": 72.837435
  },
  {
    "name": "FS 588 400033 Jijamata Nagar,Ambedkar Marg,Shubechha,Klachowky Congested Area",
    "lat": 18.9856333,
    "lng": 72.8441629
  },
  {
    "name": "FS 589 400033 Mangalmurti Chs, Dattaram Lad Marg,Kalachouki",
    "lat": 18.9882057,
    "lng": 72.8386525
  },
  {
    "name": "FS 590 400033 Vighnaharta Bldg.,G.D. Ambekar Marg,Kalachouki",
    "lat": 18.9890809,
    "lng": 72.8413443
  },
  {
    "name": "FS 591 400033 New Police Line,,Kalachouki Congested Area",
    "lat": 18.9901964,
    "lng": 72.8430551
  },
  {
    "name": "FS 592 400033 New Police Officer Quarters,,Kalachouki",
    "lat": 18.9901964,
    "lng": 72.8430551
  },
  {
    "name": "FS 593 400033 Ishwati Prasad Bldg.,Dattaram Lad Marg,Kalachowki",
    "lat": 18.9881898,
    "lng": 72.8389303
  },
  {
    "name": "FS 594 400033 Nuji Marwadi Chawl,G D Ambedkar Marg,Kalachowki Congested Area",
    "lat": "",
    "lng": ""
  },
  {
    "name": "FS 595 400033 Chawl Behind Bldg. 11A, Abhyday Nagar,,Kalachowki Congested Area",
    "lat": 18.9901964,
    "lng": 72.8430551
  },
  {
    "name": "GN 596 400014 Goutam Nagar,Dada Saheb Phalke,Dadar Congested Area",
    "lat": 19.0147962,
    "lng": 72.8454534
  },
  {
    "name": "GN 597 400016 Navin Mahim Police Vasahat,,Mahim",
    "lat": 19.0389455,
    "lng": 72.8420546
  },
  {
    "name": "GN 598 400016 Razzak Manzil,Lj Road,Mahim",
    "lat": 19.0406592,
    "lng": 72.8407851
  },
  {
    "name": "GN 599 400016 Noorani Bdlg,Cadel Rd,Mahim",
    "lat": 19.041281,
    "lng": 72.8383973
  },
  {
    "name": "GN 600 400016 Sagar Darshan, D Wing 604,Near Swami Vivekanand Garden,Mahim",
    "lat": 19.0462065,
    "lng": 72.8392818
  },
  {
    "name": "GN 601 400016 Mahim Killa Compound,Fort Rd,Near Mahim Police Stn,Mahim Congested Area",
    "lat": 19.0422001,
    "lng": 72.8391157
  },
  {
    "name": "GN 602 400016 Rose Blossom Society,Shitladevi Temple Rd,Near Ram Madir,Mahim",
    "lat": 19.0357413,
    "lng": 72.8407241
  },
  {
    "name": "GN 603 400016 Municipal Patra Marg,Hinduja Hospital Road,Near Hinduja Hospital,Mahim",
    "lat": 19.0335001,
    "lng": 72.838349
  },
  {
    "name": "GN 604 400016 Mahalaxmi Chs,Manmala Tank,Star City Cinema,Mahim",
    "lat": 19.0279193,
    "lng": 72.8434804
  },
  {
    "name": "GN 605 400016 Pension Chawl,4Th Road,Opp Mahim Police Stn,Mahim Congested Area",
    "lat": 19.0422001,
    "lng": 72.8391157
  },
  {
    "name": "GN 606 400016 Gurudutta Soc,Causeway Road,Ramgad,Mahim",
    "lat": 19.0389455,
    "lng": 72.8420546
  },
  {
    "name": "GN 607 400016 Indira Nagar Pipeline,Mahim West,Mahim",
    "lat": 19.0461138,
    "lng": 72.8395333
  },
  {
    "name": "GN 608 400016 Zopadpatty,Near Arfa Hotel,Azad Nagar Mahim Patak,Mahim Congested Area",
    "lat": 19.0389455,
    "lng": 72.8420546
  },
  {
    "name": "GN 609 400016 Naya Nagar,Opp Raheja Hosp,Mahim Congested Area",
    "lat": 19.0462839,
    "lng": 72.8426792
  },
  {
    "name": "GN 610 400016 Kashinath Building,Cadell Road,Mahim",
    "lat": 19.0409124,
    "lng": 72.8401483
  },
  {
    "name": "GN 611 400016 Makhdoomya Nagar Society,Causeway Road,Behind Mahim Bus Depo,Mahim West",
    "lat": 19.0389455,
    "lng": 72.8420546
  },
  {
    "name": "GN 612 400016 7 Carol Mansion,Shitbadevi Road,Mahim",
    "lat": 19.0351315,
    "lng": 72.8442358
  },
  {
    "name": "GN 613 400016 S.P. Kawaliwadi,L.J. Road,Mahim Congested Area",
    "lat": 19.0334783,
    "lng": 72.8422859
  },
  {
    "name": "GN 614 400016 Atmaram Building,Balamia Road,Mahim,West",
    "lat": 19.0398879,
    "lng": 72.8402695
  },
  {
    "name": "GN 615 400016 Fisherman Colony,Shiv Shakti Nagar,Opp Building No 10,Mahim Congested Area",
    "lat": 19.046729,
    "lng": 72.8408395
  },
  {
    "name": "GN 616 400016 Kolinagar Housing Society,Mahim Causeway Road,Behind Mahim Bus Stop,Mahim Congested Area",
    "lat": 19.0389455,
    "lng": 72.8420546
  },
  {
    "name": "GN 617 400016 ,Mahim East,Mahim Congested Area",
    "lat": 19.0386825,
    "lng": 72.8490338
  },
  {
    "name": "GN 618 400016 Janta Sevak Society,Main Road,Mahim West",
    "lat": 19.0389455,
    "lng": 72.8420546
  },
  {
    "name": "GN 619 400016 ,Mahim",
    "lat": 19.0389455,
    "lng": 72.8420546
  },
  {
    "name": "GN 620 400016 Sitla Devi Temple Road,Near Rang Udyan Mahim,Mahim Congested Area",
    "lat": 19.0363437,
    "lng": 72.8448057
  },
  {
    "name": "GN 621 400016 Pitamber Lane,Behind Paradise Theatre,Mahim",
    "lat": 19.0371941,
    "lng": 72.8425134
  },
  {
    "name": "GN 622 400016 S L Raheja Marg,Mahim",
    "lat": 19.0462839,
    "lng": 72.8426792
  },
  {
    "name": "GN 623 400016 ,Behind Paradise Cenema,Mahim Congested Area",
    "lat": 19.0371941,
    "lng": 72.8425134
  },
  {
    "name": "GN 624 400016 P T Road,Mahim",
    "lat": 19.0389455,
    "lng": 72.8420546
  },
  {
    "name": "GN 625 400016 ,Near Vivekanand Garden Chowk,Mahim Congested Area",
    "lat": 19.0432685,
    "lng": 72.8417696
  },
  {
    "name": "GN 626 400016 ,Mahim",
    "lat": 19.0389455,
    "lng": 72.8420546
  },
  {
    "name": "GN 627 400016 Causeway Road,Mahim",
    "lat": 19.0389455,
    "lng": 72.8420546
  },
  {
    "name": "GN 628 400016 ,Mahim",
    "lat": 19.0389455,
    "lng": 72.8420546
  },
  {
    "name": "GN 629 400016 Mahim Causeway Road,Near Swami Vivekanad,Mahim Congested Area",
    "lat": 19.0432232,
    "lng": 72.8424697
  },
  {
    "name": "GN 630 400016 S T Road,Mahim West Congested Area",
    "lat": 19.0389455,
    "lng": 72.8420546
  },
  {
    "name": "GN 631 400016 Central Railway Colony,Azad Nagar Matunga,Matunga",
    "lat": 19.0389455,
    "lng": 72.8420546
  },
  {
    "name": "GN 632 400016 Amirani Mansion,M M C Road,Opp. Tarzan Bar,Mahim West",
    "lat": 19.0396848,
    "lng": 72.8461677
  },
  {
    "name": "GN 633 400016 Solitair Building,,Mahim West",
    "lat": 19.0389455,
    "lng": 72.8420546
  },
  {
    "name": "GN 634 400016 Sumeet Sadan,,Mahim",
    "lat": 19.0367931,
    "lng": 72.8436942
  },
  {
    "name": "GN 635 400016 Woodworks,Causeway Road,Near Hero Honda Showroom,Mahim",
    "lat": 19.0429571,
    "lng": 72.8402219
  },
  {
    "name": "GN 636 400016 Waitriwadi,Mari Road,St. Micheal Church,Mahim West Congested Area",
    "lat": 19.0427807,
    "lng": 72.8407732
  },
  {
    "name": "GN 637 400016 Lungiwala Chawl,S Vs Marg,Mahim West Congested Area",
    "lat": 19.0336413,
    "lng": 72.8386709
  },
  {
    "name": "GN 638 400016 Ambika Bhuwan,Wadia Stree,Mahim West",
    "lat": 19.0389455,
    "lng": 72.8420546
  },
  {
    "name": "GN 639 400016 R R V Mansion Chs Ltd,L J Road,Mahim West",
    "lat": 19.0317192,
    "lng": 72.8408256
  },
  {
    "name": "GN 640 400017 Shakti Chawl, Mukund Nagar, Dambavi Company,Dharavi Congested Area",
    "lat": "",
    "lng": ""
  },
  {
    "name": "GN 641 400017 Moulana Azad Nagar,Jasmin Road,Dharavi",
    "lat": 19.0434327,
    "lng": 72.8584151
  },
  {
    "name": "GN 642 400017 Janta Society,Opp Abhudaya Bank,Dharavi Congested Area",
    "lat": 19.0436389,
    "lng": 72.8499579
  },
  {
    "name": "GN 643 400017 Sion Social Nagar,M.G Road,Near Mariamma Mandir,Abjuman Gausiya Line,Dharavi Congested Area",
    "lat": 19.0368613,
    "lng": 72.871647
  },
  {
    "name": "GN 644 400017 Muslim Nagar,60 Ft Road,Near Gusiya Masjid,Dharavi Congested Area",
    "lat": 19.0384132,
    "lng": 72.8531484
  },
  {
    "name": "GN 645 400017 Mukund Nagar,Near Ongc,Dharavi Congested Area",
    "lat": 19.0486206,
    "lng": 72.8576206
  },
  {
    "name": "GN 646 400017 Veer Lahuji Vasahat Rahiwasi Sangh,Near Taj Hotel,Dharavi Congested Area",
    "lat": 19.0455916,
    "lng": 72.8537063
  },
  {
    "name": "GN 647 400017 Muslim Nagar,Near Bismilla Hotel,Near 90 Feet Road,Dharavi Congested Area",
    "lat": 19.0467508,
    "lng": 72.8601312
  },
  {
    "name": "GN 648 400017 Ganesh Chawl,Near Hotel Priyanka,Next To Mukund Nagar,Dharavi",
    "lat": 19.0480303,
    "lng": 72.8585203
  },
  {
    "name": "GN 649 400017 Nityanand Society,Mukund Nagar,Sion Bandra Link Road,Dharavi Congested Area",
    "lat": 19.0485395,
    "lng": 72.8544518
  },
  {
    "name": "GN 650 400017 Sanjay Chawl Society,Behind Municipal School,Dharavi",
    "lat": 19.0428757,
    "lng": 72.8596033
  },
  {
    "name": "GN 651 400017 Som Complex,Shashtri Nagar Municipal School,Dharavi",
    "lat": 19.0463588,
    "lng": 72.85602
  },
  {
    "name": "GN 652 400017 Kasarwadi Municipal Chawl,Shivaji Park,Dadar West Congested Area",
    "lat": 19.0462117,
    "lng": 72.8617868
  },
  {
    "name": "GN 653 400017 Janata Chs$$Gn1807990210000$$Janata Chs,60 Feet Road,Shammi Nagar,Dharavi,Mumbai-400017$$G/N,,Dharavi Congested Area",
    "lat": 19.0418789,
    "lng": 72.8495729
  },
  {
    "name": "GN 654 400017 Naik Nagar Saibaba Gali,Lbs Marg,Dharavi Congested Area",
    "lat": 19.0542017,
    "lng": 72.868179
  },
  {
    "name": "GN 655 400017 Netaji Building, Kalyanwadi,,Dharavi",
    "lat": 19.0455916,
    "lng": 72.8537063
  },
  {
    "name": "GN 656 400017 Mahatma Gandhi Chawl Social Nagar,90 Feet Rd,Nuridha Masjid,Dharavi Congested Area",
    "lat": 19.045811,
    "lng": 72.861671
  },
  {
    "name": "GN 657 400017 Prakash Nagar,,Mahim W",
    "lat": 19.0329419,
    "lng": 72.8450377
  },
  {
    "name": "GN 658 400017 Kalyanwadi,,Dharavi Congested Area",
    "lat": 19.0455916,
    "lng": 72.8537063
  },
  {
    "name": "GN 659 400017 Kunchi Karve Nagar,60 Ft Road,Dharavi Congested Area",
    "lat": 19.0392073,
    "lng": 72.8519556
  },
  {
    "name": "GN 660 400017 Kumbharwada, Dekdji Masjid, Laxmi Chawl,,Dharavi Congested Area",
    "lat": 19.0404056,
    "lng": 72.8540754
  },
  {
    "name": "GN 661 400017 Shiv Shakti Nagar, New Municipal Chawl,Cross Rd,Dharavi Congested Area",
    "lat": 19.0462117,
    "lng": 72.8617868
  },
  {
    "name": "GN 662 400017 Punwala Chawl,Main Rd,Kalyanwadi,Dharavi Congested Area",
    "lat": 19.0391258,
    "lng": 72.8497496
  },
  {
    "name": "GN 663 400017 Akg Ngr,60 Feet Rd,Near Usmaniya Hotel,Dharavi Congested Area",
    "lat": 19.040483,
    "lng": 72.851117
  },
  {
    "name": "GN 664 400017 Shiv Shakti Nagar,Dhorwada,Santkakay Marg,Dharavi Congested Area",
    "lat": 19.0455916,
    "lng": 72.8537063
  },
  {
    "name": "GN 665 400017 Sanaullah Compound, Sion Mahim Link Rd,Opp To Dillar Hotel,Dharavi Congested Area",
    "lat": 19.045967,
    "lng": 72.843058
  },
  {
    "name": "GN 666 400017 Shahid Bhagat Singh Nagar Kumbharwada,,Dharavi Congested Area",
    "lat": "",
    "lng": ""
  },
  {
    "name": "GN 667 400017 Lokmanya Tilak Nagar,Dharavi Cross Road,Dharavi, Mumbai Congested Area",
    "lat": 19.0425948,
    "lng": 72.8533025
  },
  {
    "name": "GN 668 400017 Mukund Nagar, A-Ward,Dharavi Main Road,Dharavi Congested Area",
    "lat": 19.0446558,
    "lng": 72.852176
  },
  {
    "name": "GN 669 400017 Padma Gopal Vilas Chawl,,Dharavi Congested Area",
    "lat": 19.0385401,
    "lng": 72.8538595
  },
  {
    "name": "GN 670 400017 Basweshwar Ngr,Dharavi Cross Rd,Dharavi Congested Area",
    "lat": 19.0425948,
    "lng": 72.8533025
  },
  {
    "name": "GN 671 400017 Manzi Wadi Gopal Mistri Compd,Cross Rd,Dharavi Congested Area",
    "lat": 19.0455916,
    "lng": 72.8537063
  },
  {
    "name": "GN 672 400017 Ujala Chawl Committee,Gopinath Colony,Inda Qureshi Nagar,Dharavi Congested Area",
    "lat": 19.0453239,
    "lng": 72.8571943
  },
  {
    "name": "GN 673 400017 Abbu Bakar Chawl,Bagicha Compound,Dharavi Congested Area",
    "lat": 19.0443514,
    "lng": 72.8519402
  },
  {
    "name": "GN 674 400017 Samadhan Chs,Dhorwada,Dharavi",
    "lat": 21.2976289,
    "lng": 79.7820394
  },
  {
    "name": "GN 675 400017 Bhimjimamji Chawl,Kapad Bazar, Congested Area",
    "lat": 19.0455916,
    "lng": 72.8537063
  },
  {
    "name": "GN 676 400017 Sankraman Shibir,Transit Camp,Dharavi Congested Area",
    "lat": 19.0418807,
    "lng": 72.857825
  },
  {
    "name": "GN 677 400017 Municipality School,Near Dharavai Police Chowki,Dharavi Congested Area",
    "lat": 19.0467736,
    "lng": 72.8519883
  },
  {
    "name": "GN 678 400017 United Residency,Sant Rohidas Marg,Kalakilla,Dharavi",
    "lat": 19.0478061,
    "lng": 72.8597617
  },
  {
    "name": "GN 679 400017 Indira Nagar,90 Feet Rd,Dharavi Congested Area",
    "lat": 19.0447854,
    "lng": 72.8585484
  },
  {
    "name": "GN 680 400017 Narsingh Chawl,Dharavi Cross Rd,Dharavi Congested Area",
    "lat": 19.0425948,
    "lng": 72.8533025
  },
  {
    "name": "GN 681 400017 Madina Nagar,Kutti Wadi, 60 Ft Rd,Dharavi Congested Area",
    "lat": 19.0410725,
    "lng": 72.8504077
  },
  {
    "name": "GN 682 400017 Ajmeri Chawl,Tekda Masjid,Dharavi Congested Area",
    "lat": 19.043521,
    "lng": 72.8508209
  },
  {
    "name": "GN 683 400017 V K Wadi, Z Patti,T Junction,Dharavi Congested Area",
    "lat": 19.0476725,
    "lng": 72.852701
  },
  {
    "name": "GN 684 400017 Mahinm Patak Azad Nagar,Z Patti,Dharavi Congested Area",
    "lat": 19.0455916,
    "lng": 72.8537063
  },
  {
    "name": "GN 685 400017 Manju Wadi,Kakkaya Marg,Ganesh /Mandir Marg,Dharavi Congested Area",
    "lat": 19.0422198,
    "lng": 72.8527491
  },
  {
    "name": "GN 686 400017 Cozy Shelter,Cross Rd,Dharavi Congested Area",
    "lat": 19.0427614,
    "lng": 72.8522172
  },
  {
    "name": "GN 687 400017 Kumbhar Wada,Sant Gora Kumbhar Marg,Near 11 Heights Soc,Dharavi",
    "lat": 19.0376949,
    "lng": 72.8552384
  },
  {
    "name": "GN 688 400017 Satekarya Chawl,Mukund Nagar,Holi Maidan,Dharavi Congested Area",
    "lat": 19.0468834,
    "lng": 72.8551942
  },
  {
    "name": "GN 689 400017 Meena Tai Soc,Kalyanwadi,Dharavi,Dharavi Congested Area",
    "lat": 19.0455916,
    "lng": 72.8537063
  },
  {
    "name": "GN 690 400017 Phule Chawl,90 Ft Rd,Dharavi Congested Area",
    "lat": 19.0430343,
    "lng": 72.8570919
  },
  {
    "name": "GN 691 400017 Chamda Bazar,Dhravi Main Road,Dharavi Congested Area",
    "lat": 19.0445293,
    "lng": 72.852254
  },
  {
    "name": "GN 692 400017 Sai Baba Nagar,90 Ft Rd,Near Hussainiya Masjid,Dharavi Congested Area",
    "lat": 19.043219,
    "lng": 72.8584863
  },
  {
    "name": "GN 693 400017 Gangadhar Chawl,Behind Sion Railway Quarters,Sion,Dharavi Congested Area",
    "lat": 19.0465102,
    "lng": 72.8632615
  },
  {
    "name": "GN 694 400017 Azad Nagar,Mahim Phatak,Dharavi Congested Area",
    "lat": 19.0432024,
    "lng": 72.8488774
  },
  {
    "name": "GN 695 400017 Green Palace Gajanan House,Near Shastri Nagar Rd,Dharavi",
    "lat": 19.0455916,
    "lng": 72.8537063
  },
  {
    "name": "GN 696 400017 Janta Nagar, M M Bdlg,Laxmi Baug,Shivar Guest House,Dharavi",
    "lat": 19.046123,
    "lng": 72.8622804
  },
  {
    "name": "GN 697 400017 Gopinath Colony,Khambadevi Road,Near Church,Dharavi Congested Area",
    "lat": 19.0460447,
    "lng": 72.8587653
  },
  {
    "name": "GN 698 400017 Banwari Compound,Sion Mahim Link Rd,Kemkar Chowk,Dharavi Congested Area",
    "lat": 19.045967,
    "lng": 72.843058
  },
  {
    "name": "GN 699 400017 Koliwada,Sant Kakkaya Marg,Koliwada,Dharavi Congested Area",
    "lat": 19.0441167,
    "lng": 72.8544509
  },
  {
    "name": "GN 700 400017 Uday Bdlg,60 Ft Rd,Dharavi",
    "lat": 19.0410725,
    "lng": 72.8504077
  },
  {
    "name": "GN 701 400017 Pradise Residency,Dharavi Cross Road,Dharavi",
    "lat": 19.0425948,
    "lng": 72.8533025
  },
  {
    "name": "GN 702 400017 Dharavi Police Station,90 Feet Road,Dharavi",
    "lat": 19.0431287,
    "lng": 72.8573624
  },
  {
    "name": "GN 703 400017 Shiv Shakti Nagar,Dharavi Cross Road,Dharavi Congested Area",
    "lat": 19.0425948,
    "lng": 72.8533025
  },
  {
    "name": "GN 704 400017 Palakar Chawl,Charawi Cross Road,Dharavi Congested Area",
    "lat": 19.0425948,
    "lng": 72.8533025
  },
  {
    "name": "GN 705 400017 Kamla Nehru Nagar,90 Feet Road,Opp. Kamraj School,Dharavi",
    "lat": 19.0430343,
    "lng": 72.8570919
  },
  {
    "name": "GN 706 400017 Bhartiya Chawl,Dhorwada Road,M P Nagar,Dharavi Congested Area",
    "lat": 19.0456311,
    "lng": 72.8566745
  },
  {
    "name": "GN 707 400017 Magal Wadi,Dharavi Road,Dharavi Congested Area",
    "lat": 19.051833,
    "lng": 72.8610851
  },
  {
    "name": "GN 708 400017 Satabdi Tower, Pmgp Colony,Loop Raod,Shatabdi Tower,Dharavi",
    "lat": 19.0504077,
    "lng": 72.8625472
  },
  {
    "name": "GN 709 400017 Shatabdi Nagar, E Galli,Loop Road,Dharavi Congested Area",
    "lat": 19.0427358,
    "lng": 72.8586983
  },
  {
    "name": "GN 710 400017 Abu Bakhar Chawl,Dharavi Main Road,Chamda Bazar,Dharavi Congested Area",
    "lat": 19.044861,
    "lng": 72.8528517
  },
  {
    "name": "GN 711 400017 Social Nagar,Machchi Galli,Zpatti,90 Ft Road,Near Usmani Masjid,Dharavi Congested Area",
    "lat": 19.0447854,
    "lng": 72.8585484
  },
  {
    "name": "GN 712 400017 New Bharat Janata Chs,Indira Nagar,60 Ft Road,Dharavi",
    "lat": 19.0455916,
    "lng": 72.8537063
  },
  {
    "name": "GN 713 400017 Vijay Nagar,Transit Camp,M G Road,Tata Power House,Dharavi Congested Area",
    "lat": 19.0455916,
    "lng": 72.8537063
  },