markers=[
    {
        "name": "A 1 400001 Gt Hospital Quarters,Fort",
        "lat": "18.9439797",
        "lng": "72.83146509999999"
    },
    {
        "name": "A 2 400001 M.R.A. Police Quarters,M.R.A. Road,Fort",
        "lat": "18.945937899999997",
        "lng": "72.8352403"
    },
    {
        "name": "A 3 400001 M.R.A. Bmc Colony,M.R.A. Road,Fort",
        "lat": "18.934518899999997",
        "lng": "72.8371021"
    },
    {
        "name": "A 4 400005 Sunder Nagari,Azad Nagari, Darya Nagar,Lala Nigam Road, Near Colaba Market,Sunder Nagar,Colaba",
        "lat": "18.9197182",
        "lng": "72.8298531"
    },
    {
        "name": "A 5 400005 Machchimar Nagar,Capt. Prakash Pethe Marg,Colaba",
        "lat": "18.918123",
        "lng": "72.82476"
    },
    {
        "name": "A 6 400005 Ganeshmurti Nagar Part No.1,2,3,Captain Prakash Pethe Marg,Ganeshmurthi Nagar,Colaba",
        "lat": "18.9180166",
        "lng": "72.8251581"
    },
    {
        "name": "A 6 400005 Ganeshmurti Nagar Part No.1,2,3,Captain Prakash Pethe Marg,Ganeshmurthi Nagar,Colaba",
        "lat": "18.9180166",
        "lng": "72.8251581"
    },
    {
        "name": "A 8 400005 Ambedkar Nagar,Capt. Prakash Pethe Marg,Colaba",
        "lat": "18.91205",
        "lng": "72.81731239999998"
    },
    {
        "name": "A 9 400020 Bell Heaven Building Servant Quarters,Near Bombay Hospital,New Marine Lines",
        "lat": "18.939753399999997",
        "lng": "72.8284255"
    },
    {
        "name": "B 10 400003 Parsi Chawl,Nagdevi Street,Chawl - 1,Crawford Market",
        "lat": "18.947373100000004",
        "lng": "72.8337761"
    },
    {
        "name": "B 11 400003 Hutment,Poona Street,Hut - 2,Chinchbunder",
        "lat": "18.955498300000002",
        "lng": "72.8400939"
    },
    {
        "name": "B 12 400009 Masjid Chawl,Sardar Vallabhbhai Patel Road,Chawl - 3,Dongri",
        "lat": "18.9583842",
        "lng": "72.837807"
    },
    {
        "name": "B 13 400009 Chinchbunder Bit Chawl No.1,Dr. Meisheri Road,Chawl - 4,Dongri",
        "lat": "18.961196700000002",
        "lng": "72.83896360000001"
    },
    {
        "name": "B 14 400009 Hutment,Pimpleshwar Mahadev Mandir,Hut - 3,Dana Bunder",
        "lat": "18.9582963",
        "lng": "72.83894099999998"
    },
    {
        "name": "C 15 400002 3 Chawls In Chimna Butcher Street (Fitwala Bldg,Sayyed Manzil,Jamnadas Bldg),Chimna Butcher Street",
        "lat": "18.959982800000002",
        "lng": "72.82943399999998"
    },
    {
        "name": "C 16 400002 Panchali House,Sadguru Baba Kadam Lane,Dr. M.B Welkar Street,Chira Bazar",
        "lat": "18.9479789",
        "lng": "72.82725040000001"
    },
    {
        "name": "C 17 400002 1St Floor, Ajanta Guest House Building,Dadi Sheth Agyari Lane,Kalbadevi",
        "lat": "18.9496789",
        "lng": "72.8264147"
    },
    {
        "name": "C 18 400002 Jadhavji Kara Co-Op. Hsg. Scty,Jss Road,Chira Bazar",
        "lat": "18.9476205",
        "lng": "72.82639559999998"
    },
    {
        "name": "C 19 400003 4 Buildings In 3Rd Kumbharwada Area,3Rd Kumbharwada",
        "lat": "18.9597997",
        "lng": "72.827361"
    },
    {
        "name": "C 20 400003 Madan House,Dr M B Velkar Street,Chira Bazar",
        "lat": "18.9475518",
        "lng": "72.82769069999998"
    },
    {
        "name": "C 21 400003 3 Chawl In 4Th Kumbharwada Area,4Th Kumbharwada",
        "lat": "18.9590289",
        "lng": "72.82677109999999"
    },
    {
        "name": "C 22 400003 Rangwala Bldg,Ahmedi Bldg, Bori House (3 Chawls In Islampura Area),Islampura Street,Cp Tank",
        "lat": "18.957780399999997",
        "lng": "72.8267965"
    },
    {
        "name": "C 23 400003 Panchayatwadi,Bhuleshwar",
        "lat": "18.9531926",
        "lng": "72.8353005"
    },
    {
        "name": "C 24 400003 5 Chawls In 2Nd Kumbharwada Area,2Nd Kumbharwada",
        "lat": "18.9600648",
        "lng": "72.82772729999999"
    },
    {
        "name": "C 25 400003 Dr Bldg,5Th Kumbharwada,Kumbharwada",
        "lat": "18.9585763",
        "lng": "72.826388"
    },
    {
        "name": "C 26 400003 Manimahal Bldg,C.P.Tank,C P Tank",
        "lat": "18.955842",
        "lng": "72.8274239"
    },
    {
        "name": "C 27 400003 Tayyabi Bldg,2Nd Kumbharwada,Kumbharwada",
        "lat": "18.9600648",
        "lng": "72.82772729999999"
    },
    {
        "name": "C 28 400003 Dwarkadas Mansion,Bapu Khote Street,Pydonie",
        "lat": "18.955336",
        "lng": "72.83005930000002"
    },
    {
        "name": "C 28 400003 Dwarkadas Mansion,Bapu Khote Street,Pydonie",
        "lat": "18.955336",
        "lng": "72.83005930000002"
    },
    {
        "name": "C 30 400003 Subhadra Bldg,1St Sp Marg,Chira Bazar",
        "lat": "18.948085199999998",
        "lng": "72.82752370000001"
    },
    {
        "name": "C 31 400003 Kanchwala Bldg1St Floor,Usman Brigadier Marg, Eraskin Road,Null Bazar",
        "lat": "18.9578557",
        "lng": "72.82957669999998"
    },
    {
        "name": "C 32 400003 3Rd Floor, Jai Hind Estate,Dr.A.M.Road,Bhuleshwar",
        "lat": "18.9525781",
        "lng": "72.82740720000001"
    },
    {
        "name": "C 33 400003 4Th Floor,Ali Umer Street,Ghoghari Mohalla",
        "lat": "18.956167899999997",
        "lng": "72.8309579"
    },
    {
        "name": "C 34 400003 Chav Chap Maulana Road,Girgaon",
        "lat": "18.9531926",
        "lng": "72.8353005"
    },
    {
        "name": "C 35 400003 Shop,Spn Road,Null Bazar",
        "lat": "18.9578557",
        "lng": "72.82957669999998"
    },
    {
        "name": "C 36 400003 2Nd Floor, Patrawala Bldg,Ghoghari Mohalla",
        "lat": "18.956167899999997",
        "lng": "72.8309579"
    },
    {
        "name": "C 37 400003 Baniyan Street",
        "lat": "18.9546387",
        "lng": "72.8311181"
    },
    {
        "name": "C 38 400003 4Th Floor Kacchi House,C.P.Tank",
        "lat": "18.955842",
        "lng": "72.8274239"
    },
    {
        "name": "C 39 400003 4Th Floor,Atmaram Merchant Road,Bhuleshwar",
        "lat": "18.9522132",
        "lng": "72.8275364"
    },
    {
        "name": "C 40 400003 Gardi Bldg,Bhendi Bazar Junction",
        "lat": "18.9567568",
        "lng": "72.8312385"
    },
    {
        "name": "C 41 400003 3Rd Floor, Hemrajwadi B,Jss Road,Thakurdwar",
        "lat": "18.951438800000002",
        "lng": "72.8230269"
    },
    {
        "name": "D 42 400004 Bldg No 4,Rr Marg,Girgaon",
        "lat": "18.954063",
        "lng": "72.81875590000001"
    },
    {
        "name": "D 43 400004 Vinayak Vibhuti,Lamington Road,Nr Dream Land Cinema,Grant Road (E)",
        "lat": "18.959898499999998",
        "lng": "72.8191202"
    },
    {
        "name": "D 44 400004 Bldg No 33/H,Mugbhat Cross Lane,Girgaon",
        "lat": "18.953294500000002",
        "lng": "72.8232912"
    },
    {
        "name": "D 45 400004 Bldg No 9 / Bedekar Sadan 74, Swami Samarth Nagar,Tatya Gharpure Path,Girgaon",
        "lat": "18.9540961",
        "lng": "72.82243129999998"
    },
    {
        "name": "D 46 400004 Badshah Bldg,Pb Marg,Girgaon",
        "lat": "18.954171399999996",
        "lng": "72.82600500000001"
    },
    {
        "name": "D 47 400004 Heramb Bldg,Jss Road,Borbhat Lane,Girgaon",
        "lat": "18.953294399999997",
        "lng": "72.8211252"
    },
    {
        "name": "D 48 400004 6Th Alana Chawl,Bombanji Petit Road,Opp Parsi Hospital,Cumballa Hill",
        "lat": "18.968795899999996",
        "lng": "72.80584929999998"
    },
    {
        "name": "D 49 400004 44/62 Lad Niwas,Cp Tank,Girgaon",
        "lat": "18.955842",
        "lng": "72.8274239"
    },
    {
        "name": "D 50 400004 21/23 Laxmi Niwas,2Nd Parsi Wada,Girgaon",
        "lat": "18.9572268",
        "lng": "72.82469999999998"
    },
    {
        "name": "D 51 400004 Khanderao Bldg,Vp Road,Khetwadi,Girgaon",
        "lat": "18.9564277",
        "lng": "72.8223671"
    },
    {
        "name": "D 52 400004 Twasta Kashal Chawl,Cp Tank Road,Nr Narayanwadi,Girgaon",
        "lat": "18.955026",
        "lng": "72.8236451"
    },
    {
        "name": "D 53 400006 Sagar Nagar,Walkeshwar,Walkeshwar",
        "lat": "18.950754",
        "lng": "72.80206379999998"
    },
    {
        "name": "D 54 400006 Darya Sagar Zopadapatti,Bd Road,Mahalakshmi",
        "lat": "18.9540855",
        "lng": "72.80044769999998"
    },
    {
        "name": "D 55 400006 Prem Nagar Zopadapatti,Dr B.I. Road,Malabar Hill Road",
        "lat": "18.9540855",
        "lng": "72.80044769999998"
    },
    {
        "name": "D 56 400006 Ramkund Nagar / Ramnath Ghat /Chhatre Chawl,Walkeshwar Road Banganga Road,Bangana,Walkeshwar",
        "lat": "18.9513341",
        "lng": "72.80281490000002"
    },
    {
        "name": "D 58 400007 Dattatray Bldg,Tukaram Javji Road,Grant Road (W)",
        "lat": "18.9661532",
        "lng": "72.81498859999998"
    },
    {
        "name": "D 59 400007 Rippon Bldg,Balaram Street,Grant Road",
        "lat": "18.9631687",
        "lng": "72.8199267"
    },
    {
        "name": "D 60 400007 Sir Jj Bldg,Parsee Chikalwadi,Grant Road",
        "lat": "18.966500500000002",
        "lng": "72.81422479999998"
    },
    {
        "name": "D 61 400008 68G, Mangli Kandhuri Chawl,Shankarseth Chawl, Manchar Manzil,Rs Nimkar Margjairaj Bhai Lane,Mumbai",
        "lat": "18.965753",
        "lng": "72.8234066"
    },
    {
        "name": "D 62 400008 Batata Chawl,Pb Marg,Grant Road",
        "lat": "18.9630543",
        "lng": "72.82157939999998"
    },
    {
        "name": "D 63 400008 318, Lokhandwala / Dhor Chawl,Arab Galli,Nr Fauziya Hospital, Jayraj Galli,Arab Lane,Mumbai",
        "lat": "18.9639007",
        "lng": "72.8239703"
    },
    {
        "name": "D 65 400008 Rpf Cement Chawl Barrack / Habib Manzil,Grant Road,Grant Road",
        "lat": "18.9493655",
        "lng": "72.8377744"
    },
    {
        "name": "D 66 400008 Bit Chawl No 16/15/15,Belasis Road,Mumbai Central",
        "lat": "18.967384",
        "lng": "72.82168320000001"
    },
    {
        "name": "D 67 400008 150, Muncipal Chawl,Opp Bilal Masjid,Shuklaji Street,Mumbai",
        "lat": "19.0167027",
        "lng": "72.85295570000001"
    },
    {
        "name": "D 68 400008 Navjug Niwas,Lamington Road,Opp Minera Cinema,Mumbai",
        "lat": "18.964620800000002",
        "lng": "72.81828279999998"
    },
    {
        "name": "D 69 400008 Mishra Mansion, Haji Bhai Bldg,Bapty Road,Mumbai",
        "lat": "18.949616600000002",
        "lng": "72.83486740000001"
    },
    {
        "name": "D 70 400008 23/24, Ganjawala Bldg,Above Bharat Cafe,Pb Marg,Mumbai",
        "lat": "19.0856655",
        "lng": "72.907399"
    },
    {
        "name": "D 71 400026 Dharbhanga Mansion,12Th Carimachael Road,Pedder Road",
        "lat": "18.9714548",
        "lng": "72.80951019999998"
    },
    {
        "name": "D 72 400026 Ramdas Bhansali Chawl,Bhulabhai Desai Road,Bhulabhai Desai Road",
        "lat": "18.976938",
        "lng": "72.8081868"
    },
    {
        "name": "D 73 400034 Dmd,Dmg, Dmh,Dmb,Dmu, Transit Camp,Tulsiwadi Zopadpatti,New Afroz Road,Tardeo",
        "lat": "18.9747163",
        "lng": "72.81399640000001"
    },
    {
        "name": "D 74 400034 Bldg No 7/4-A/3/1 - Tardeo Police Camp,Police Line,Tardeo",
        "lat": "18.9693937",
        "lng": "72.81298120000001"
    },
    {
        "name": "D 75 400034 Bldg No 1, Rehmatbhai Bldg,Sane Guruji Marg,Tardeo",
        "lat": "18.974894600000002",
        "lng": "72.8186693"
    },
    {
        "name": "D 76 400036 Cawasji Bhedwar (Dhobighat ) Chawl,Forjett Street,Grant Road (W)",
        "lat": "18.9649331",
        "lng": "72.8116622"
    },
    {
        "name": "D 77 400036 Shimla Nagar Zopadapatti,Nepeansea Road,Nepeansea Road",
        "lat": "18.956751",
        "lng": "72.799441"
    },
    {
        "name": "D 77 400036 Shimla Nagar Zopadapatti,Nepeansea Road,Nepeansea Road",
        "lat": "18.956751",
        "lng": "72.799441"
    },
    {
        "name": "E 80 400008 Bit Chawl No.2 &3,Wadi Bunder,Love Lane,Jm Rathod Marg,Mazgaon,Byculla",
        "lat": "18.967759899999997",
        "lng": "72.83696720000002"
    },
    {
        "name": "E 80 400008 Bit Chawl No.2 &3,Wadi Bunder,Love Lane,Jm Rathod Marg,Mazgaon,Byculla",
        "lat": "18.967759899999997",
        "lng": "72.83696720000002"
    },
    {
        "name": "E 83 400010 Bit Chawl,St. Merry Road,Bit Chawl,Mazgaon",
        "lat": "18.972643100000003",
        "lng": "72.83641290000001"
    },
    {
        "name": "E 84 400010 Sanjay Gandhi Nagar,J J Marg,Railway Compound,Mazgaon",
        "lat": "18.962979999999998",
        "lng": "72.8323312"
    },
    {
        "name": "E 86 400011 Bit Chawl,Kikabai Chawl,Mg Marg,Rb Chandorkar Marg,Bit Chawl,Agripada",
        "lat": "18.9764401",
        "lng": "72.825638"
    },
    {
        "name": "E 87 400011 Lambi Cement Chawl,Bit Talwadi Chawl,Bj Marg, Saint Merry Road,Kamathipura,Byculla",
        "lat": "18.976609600000003",
        "lng": "72.82958990000002"
    },
    {
        "name": "E 88 400011 Hawabai Chawl,Pansare Chawl,Pani Kahte Chawl 564,Vasudev Vinayak Chawl,N. M. Joshi Marg,Arthur Road Naka,Chinchpokli",
        "lat": "18.9865695",
        "lng": "72.8318074"
    },
    {
        "name": "E 89 400011 Vithal Sadan Maruti Gully,N.M Joshi Marg,Byculla",
        "lat": "18.988597",
        "lng": "72.83493949999998"
    },
    {
        "name": "E 90 400011 56J Rasuljiva Compound,Modern Mill Zopdi,Kk Road 7Th Rasta, Sane Guruji Marg,Jacob Circle,Byculla",
        "lat": "18.9813245",
        "lng": "72.8270806"
    },
    {
        "name": "E 91 400012 Shivshakti Building,Telli Gully,Chinchpokli,Chinchpokli",
        "lat": "18.988049899999996",
        "lng": "72.83440039999998"
    },
    {
        "name": "E 92 400027 Ram Nagar, Nasmi House,Dr. Ba Road,6Th Chamber Lane,Byculla,Byculla",
        "lat": "18.980700100000004",
        "lng": "72.8344314"
    },
    {
        "name": "E 93 400027 New Irani Chawl,Shinde Chawl,Abdul Rauf Manzil,Desai Chawl,R.B. Marg,Kapreshwar Mandir,Byculla",
        "lat": "19.0113133",
        "lng": "72.8323891"
    },
    {
        "name": "E 94 400027 Khan Building,Warden Chawl,Haji Allana Compound,S S Marg,Mustafa Bazar,Byculla",
        "lat": "18.9793266",
        "lng": "72.83825470000002"
    },
    {
        "name": "E 95 400033 Sanas Patra Shed,Dr. B. A. Road,Kalachowky,Kalachowky",
        "lat": "18.988488500000003",
        "lng": "72.8357065"
    },
    {
        "name": "E 96 400033 Kandi Karkhana,Abhinandan Nivas No.4,R B Marg,Ghodapdeo,Ghodapdeo",
        "lat": "19.076279",
        "lng": "72.907023"
    },
    {
        "name": "FN 97 400022 Mahatma Gandhi Slum,Mahatma Gandhi Slum,Sion Chunabhatti",
        "lat": "",
        "lng": ""
    },
    {
        "name": "FN 98 400022 Panchashil,Panchashil,Sion",
        "lat": "19.0425604",
        "lng": "72.86380890000001"
    },
    {
        "name": "FN 99 400022 Punjabi Colony,Punjabi Colony,Gtb Nagar,Sion",
        "lat": "19.0333745",
        "lng": "72.86463069999998"
    },
    {
        "name": "FN 100 400022 Sanjay Gandhi Nagar,Sanjay Gandhi Nagar,Sion",
        "lat": "19.0425604",
        "lng": "72.86380890000001"
    },
    {
        "name": "FN 101 400022 Santoshi Mata Nagar,Santoshi Mata Nagar,Sion",
        "lat": "19.0425604",
        "lng": "72.86380890000001"
    },
    {
        "name": "FN 102 400022 Sunder Kamla Nagar,Sunder Kamla Nagar,Sion",
        "lat": "19.033241500000003",
        "lng": "72.8564566"
    },
    {
        "name": "FN 103 400031 Wadala Village,Wadala Village,Wadala West",
        "lat": "19.022164899999996",
        "lng": "72.86021149999998"
    },
    {
        "name": "FN 104 400037 Acharya Atre Nagar,Acharya Atre Nagar,Antop Hill Wadala",
        "lat": "19.023888",
        "lng": "72.8638647"
    },
    {
        "name": "FN 105 400037 Agrawal Wadi,Agrawal Wadi,Antop Hill Wadala",
        "lat": "19.0283439",
        "lng": "72.869804"
    },
    {
        "name": "FN 106 400037 Bhaiyyasaheb Nagar,Salt Pan Road,Bhaiyyasaheb Nagar,Wadala East",
        "lat": "19.023077",
        "lng": "72.87255910000002"
    },
    {
        "name": "FN 107 400037 Bhartiya Kamla Nagar,Bhartiya Kamla Nagar,Antop Hill Wadala",
        "lat": "19.0251415",
        "lng": "72.8744401"
    },
    {
        "name": "FN 108 400037 Bpt Gate No 4,Bpt Gate No 4,Wadala East",
        "lat": "19.0099438",
        "lng": "72.8635467"
    },
    {
        "name": "FN 109 400037 Indira Nagar,Indira Nagar,Sion Koliwada",
        "lat": "19.036448899999996",
        "lng": "72.86414570000001"
    },
    {
        "name": "FN 110 400037 Kismat Nagar, Lalmitti,Kismat Nagar,Antop Hill Wadala",
        "lat": "19.0283439",
        "lng": "72.869804"
    },
    {
        "name": "FN 111 400037 Kokri Agar,Kokri Agar,Antop Hill Wadala",
        "lat": "19.0304733",
        "lng": "72.86458499999998"
    },
    {
        "name": "FN 112 400037 Korba Mithagar,Korba Mithagar,Wadala East",
        "lat": "19.014692800000002",
        "lng": "72.864408"
    },
    {
        "name": "FN 113 400037 Madona Colony,Madona Colony,Antop Hill Wadala",
        "lat": "19.0283439",
        "lng": "72.869804"
    },
    {
        "name": "FN 114 400037 Mahatma Gandhi Nagar,Mahatma Gandhi Nagar,Antop Hill Wadala",
        "lat": "19.0283439",
        "lng": "72.869804"
    },
    {
        "name": "FN 115 400037 Mhada Building Chawl,Mhada Building Chawl,Sion Koliwada",
        "lat": "19.040139899999996",
        "lng": "72.8685558"
    },
    {
        "name": "FN 116 400037 Sangam Nagar,Sangam Nagar,Antop Hill Wadala",
        "lat": "19.02158",
        "lng": "72.86948670000001"
    },
    {
        "name": "FN 117 400037 Sardar Nagar,Sardar Nagar,Sion Koliwada",
        "lat": "19.0354435",
        "lng": "72.867408"
    },
    {
        "name": "FN 118 400037 Shanti Nagar,Shanti Nagar,Antop Hill Wadala",
        "lat": "19.020828899999998",
        "lng": "72.8736828"
    },
    {
        "name": "FS 119 400012 Bharat Nagar,Hindu Smashanbhumi Road,Bharat Nagar,Bhoiwada",
        "lat": "19.0048419",
        "lng": "72.84600909999999"
    },
    {
        "name": "FS 120 400012 Bhim Nagar,Bai Jer Bai Wadia Road,Bhim Nagar,Bhoiwada",
        "lat": "19.005674600000003",
        "lng": "72.8465198"
    },
    {
        "name": "FS 123 400012 Khoja Kasam Chawl,J Merwanji Street,Khoja Kasam Chawl,Parel",
        "lat": "19.002724399999998",
        "lng": "72.8406483"
    },
    {
        "name": "FS 124 400012 Kem Hostel,Ernest Borges Road,Kem Hostel,Parel",
        "lat": "19.0018425",
        "lng": "72.84297579999998"
    },
    {
        "name": "FS 125 400012 Sp Compound,S S Rao Road,Sp Compound,Parel",
        "lat": "18.9970393",
        "lng": "72.8400635"
    },
    {
        "name": "FS 126 400012 Bohri Chawl,G D Ambekar Marg,Bohri Chawl,Parel",
        "lat": "19.001928200000002",
        "lng": "72.8468615"
    },
    {
        "name": "FS 127 400012 Laxmi Cottage,Dr. B A Road,Laxmi Cottage,Parel",
        "lat": "19.0025582",
        "lng": "72.83827769999998"
    },
    {
        "name": "FS 128 400012 Ramdoot Chawl,Sane Guruji Marg,Ramdoot Chawl,Chinchpokli",
        "lat": "18.9883712",
        "lng": "72.8332622"
    },
    {
        "name": "FS 129 400012 Vikrant Sadan,Sane Guruji Marg,Vikrant Sadan,Chinchpokli",
        "lat": "18.989434699999997",
        "lng": "72.8333849"
    },
    {
        "name": "FS 130 400012 Best Quarters,Rajkamal Lane,Best Quarters,Parel",
        "lat": "18.9944475",
        "lng": "72.8416189"
    },
    {
        "name": "FS 131 400014 Transit Camp,Bhoiwada,Shankar Tanaji Ghadi Marg,Transit Camp,Bhoiwada,Bhoiwada",
        "lat": "19.0048419",
        "lng": "72.84600909999999"
    },
    {
        "name": "FS 132 400014 Spring Mill,Gd Ambekar Marg,Spring Mill,Dadar",
        "lat": "19.0082376",
        "lng": "72.847504"
    },
    {
        "name": "FS 133 400014 Vayangankar Chawl,S S Wagh Road,Vayangankar Chawl,Dadar",
        "lat": "19.0112867",
        "lng": "72.84645669999998"
    },
    {
        "name": "FS 134 400014 Kohinoor Mill Chawl,M.J. Phule Road,Kohinoor Mill Chawl,Dadar",
        "lat": "19.012872899999998",
        "lng": "72.84644920000001"
    },
    {
        "name": "FS 135 400014 Bdd Chawl,Naigaon Cross Road,Bdd Chawl,Dadar",
        "lat": "19.0131836",
        "lng": "72.84723709999999"
    },
    {
        "name": "FS 136 400014 Naigaon Police Quarters,Naigaon Cross Road,Naigaon Police Quarters,Dadar",
        "lat": "19.0082363",
        "lng": "72.8467897"
    },
    {
        "name": "FS 137 400014 Dulaba Prasad Chawl,S M Jadhav Marg,Dulaba Prasad Chawl,Dadar",
        "lat": "19.01145",
        "lng": "72.84474240000002"
    },
    {
        "name": "FS 138 400014 Ahmed Sellor Compound,B J Devrukhkar Road,Ahmed Sellor Compound,Dadar",
        "lat": "19.0097592",
        "lng": "72.8454102"
    },
    {
        "name": "FS 139 400014 Gautam Nagar,Dadasaheb Phalke Road,Gautam Nagar,Dadar",
        "lat": "19.0135897",
        "lng": "72.8424627"
    },
    {
        "name": "FS 140 400014 Maharashtra Guest House,Dr. B A Road,Maharashtra Guest House,Dadar",
        "lat": "19.006844100000002",
        "lng": "72.84041859999998"
    },
    {
        "name": "FS 141 400015 Prabudhnagar Slum,Jerbai Wadia Road,Prabudhnagar Slum,Sewree",
        "lat": "19.0056953",
        "lng": "72.8464128"
    },
    {
        "name": "FS 142 400015 Sewree Koliwada,Sewree Fort Road,Sewree Koliwada,Sewree",
        "lat": "18.999191800000002",
        "lng": "72.86001739999998"
    },
    {
        "name": "FS 143 400015 Krantinagar Chawl,T J Road,Sewree",
        "lat": "18.994829199999998",
        "lng": "72.84877449999998"
    },
    {
        "name": "FS 144 400015 Sena Nagar,Acharya Donde Marg,Sena Nagar,Sewree",
        "lat": "18.9984193",
        "lng": "72.850831"
    },
    {
        "name": "FS 145 400015 Gopal Baug Slum,T J Road,Gopal Baug Slum,Sewree",
        "lat": "18.994829199999998",
        "lng": "72.84877449999998"
    },
    {
        "name": "FS 146 400015 Ganesh Baug Slum,T J Road,Ganesh Baug Slum,Sewree",
        "lat": "18.994829199999998",
        "lng": "72.84877449999998"
    },
    {
        "name": "FS 147 400015 A M Jetha Chawl,",
        "lat": "18.9960872",
        "lng": "72.85283559999999"
    },
    {
        "name": "FS 148 400015 Gadi Adda,Eastern Freeway,Gadi Adda,Sewree",
        "lat": "18.99505",
        "lng": "72.853873"
    },
    {
        "name": "FS 149 400015 Indira Nagar,Haji Bunder Road,Indira Nagar,Sewree",
        "lat": "12.9783692",
        "lng": "77.64083559999999"
    },
    {
        "name": "FS 150 400015 T J Road Baithi Chawl,T J Road,T J Road Baithi Chawl,Sewree",
        "lat": "18.994829199999998",
        "lng": "72.84877449999998"
    },
    {
        "name": "FS 151 400033 Sewree Cross Road Slum,Sewree Cross Road,Sewree Cross Road Slum,Sewree",
        "lat": "19.0044847",
        "lng": "72.85466109999999"
    },
    {
        "name": "FS 152 400033 Jijamata Nagar And Parshuram Nagar,G D Ambekar Marg,Jijamata Nagar And Parshuram Nagar,Kalachowky",
        "lat": "18.9901964",
        "lng": "72.8430551"
    },
    {
        "name": "GN 154 400017 Kumbharwada, Suthar Chawl, Laxmi Chawl, Shahid Bhagat Shigh Nagar,Gangadhar Chawl, Shubhash Nagar, Valmiki Nagar,90 Feet Road, Kumbharwada,Dharavi",
        "lat": "18.9498237",
        "lng": "72.8330318"
    },
    {
        "name": "GN 156 400017 Transist Camp, Rajiv Gandhi, Vijay Nagar, Dharavi Police Station, Dhobi Ghat, Social Nagar,90 Feet Road,Dharavi Transist Camp,Dharavi",
        "lat": "19.043128699999997",
        "lng": "72.85736240000001"
    },
    {
        "name": "GN 157 400017 Rajiv Gandhi Nagar, Pila Bunglow, Rajiv Gandhi Sports Complex,Rajiv Gandhi Nagar,Dharavi",
        "lat": "19.0491892",
        "lng": "72.85739939999998"
    },
    {
        "name": "GN 158 400017 Matunga Labour Camp, Kamla Nehru Nagar,Matunga Labour Camp,Dharavi",
        "lat": "19.0370086",
        "lng": "72.8519172"
    },
    {
        "name": "GN 159 400017 Azad Nagar, New Kamla Nagar, Old Kamla Nagar, Lala Compound,60 Feet Road & Jasmin Mill Road,Jasmin Mill Road,Dharavi",
        "lat": "19.0455916",
        "lng": "72.8537063"
    },
    {
        "name": "GN 162 400017 Shastri Nagar,Indira Qureshi Nagar,Ganesh Chawl, Ujala Chawl, Laxmi Chawl,Shashtri Nagar,Dharavi  ",
        "lat": "19.0404056",
        "lng": "72.85407540000001"
    },
    {
        "name": "GN 163 400028 Kasarwadi Municipal Chawl,Kasarwadi,Dadar West",
        "lat": "19.0242247",
        "lng": "72.8428563"
    },
    {
        "name": "GS 164 400011 Satrasta Dhobhighat,Dr. E. Moses Road,Mahalaxmi",
        "lat": "18.982245499999998",
        "lng": "72.82551459999998"
    },
    {
        "name": "GS 165 400011 New Modern Mill Zopadpatti,K.K. Marg,New Sirine Lane,Mahalaxmi",
        "lat": "18.9804573",
        "lng": "72.82520149999998"
    },
    {
        "name": "GS 166 400013 Bdd N.M Joshi Marg,J.R Boricha Marg,Lower Parel",
        "lat": "18.988248499999997",
        "lng": "72.82735229999999"
    },
    {
        "name": "GS 167 400013 Kamgar Nagar,N.M. Joshi Marg,Lower Parel",
        "lat": "18.9920227",
        "lng": "72.8314767"
    },
    {
        "name": "GS 168 400018 Jijamata Nagar, Anand Nagar & Mata Ramabai Ambedkar Nagar,Dr. E. Moses Road,Jijamata Nagar,Worli",
        "lat": "18.9925124",
        "lng": "72.81831340000001"
    },
    {
        "name": "GS 169 400018 Worli Bdd Chawl,G.M Bhosale Marg,Worli",
        "lat": "19.002599399999998",
        "lng": "72.81953589999998"
    },
    {
        "name": "GS 170 400018 V.P Nagar,Dr.Annie Besant Road,Worli",
        "lat": "18.999681600000002",
        "lng": "72.81693489999998"
    },
    {
        "name": "GS 171 400018 Siddharath Nagar,Dr. Annie Besant Road,Worli",
        "lat": "18.999681600000002",
        "lng": "72.81693489999998"
    },
    {
        "name": "GS 172 400018 Prem Nagar,B.G Kher Marg,Worli",
        "lat": "18.996281",
        "lng": "72.8155171"
    },
    {
        "name": "GS 173 400018 Mariamma Nagar,Dr. Annie Besant Road,Worli",
        "lat": "18.999215600000003",
        "lng": "72.81719770000001"
    },
    {
        "name": "GS 174 400018 Motillal Nehru Nagar, Markandeshwar Nagar & Madraswadi,Dr. A. B Road,Madraswadi,Worli",
        "lat": "18.9916965",
        "lng": "72.8135125"
    },
    {
        "name": "GS 175 400018 Bharat Nagar,Dainik Shivner Marg,Lady Ratan Complex,Worli",
        "lat": "18.9931325",
        "lng": "72.8222459"
    },
    {
        "name": "GS 176 400018 Mahatma Phule Nagar,A.G Khan,Worli",
        "lat": "19.2050443",
        "lng": "72.95612340000001"
    },
    {
        "name": "GS 177 400030 Worli Koliwada, And Janata Colony,Golphadevi Road & Hatiskar Marg,Worli Koliwada,Worli",
        "lat": "19.0174653",
        "lng": "72.82015990000001"
    },
    {
        "name": "HE 178 400051 Amrut Nagar, Government Colony, Razak Chawl,Bhinde Shop, Murlidhar Chawl, Shanti Bhavan Chs,Amrut Nagar,Kherwadi,Bandra (E)",
        "lat": "19.0586788",
        "lng": "72.84437679999998"
    },
    {
        "name": "HE 179 400051 Seva Sangh, Shyam Sundar Chawl,Sidhartha Nagar, Vijay Nagar,Bandra (E)",
        "lat": "19.05961",
        "lng": "72.8552983"
    },
    {
        "name": "HE 181 400051 Basera Society, Pathar Nagar, Islampura,Hardeva Chadaliya,Bharat Nagar, Valmiki Nagar,Bandra (E)",
        "lat": "19.1304152",
        "lng": "72.8347146"
    },
    {
        "name": "HE 182 400051 Jai Ma Sharada Rahivasi Sevak,Dnyaneshwar Nagar,Bandra (E)",
        "lat": "19.0678032",
        "lng": "72.8507249"
    },
    {
        "name": "HE 183 400055 Gajanan Rahivasi Sangh,Mahakali Shivshankar,Sai Kreeda Mandal,Kamlakar Patil Chwal,Agripada,Santacruz (E)",
        "lat": "19.0803885",
        "lng": "72.8468571"
    },
    {
        "name": "HE 184 400055 Mosambi Tabela,Murgaon Chawl, Lasun Vali Church,Milind Nagar,Shubrmaniyam Nagar, Anushakti Chawl,Gaondevi- D'Mello Compound,Santacruz (E)",
        "lat": "25.154020000000003",
        "lng": "85.1667305"
    },
    {
        "name": "HE 186 400055 Doctor Chawl,Adarsh Lane,Dawari Nagar,Santacruz (E)",
        "lat": "19.067148899999996",
        "lng": "72.84249240000001"
    },
    {
        "name": "HE 189 400055 Dayaram Chawl, Jai Bharat Chawl,Jayhind Nagar, Deepakwadi,Santacruz (E)",
        "lat": "19.0803885",
        "lng": "72.8468571"
    },
    {
        "name": "HE 190 400055 Mk Patel Nagar, Yunus Miyan Chawl,Navpada,Santacruz (E)",
        "lat": "19.0744735",
        "lng": "72.8457651"
    },
    {
        "name": "HE 191 400055 Parvez Chawl, Ghadiyal Chawl, Shri Ram Tailor Chawl,Shastri Nagar, Kunchikurve Nagar,Santacruz (E)",
        "lat": "",
        "lng": ""
    },
    {
        "name": "HW 192 400050 Slaughter House Compound,Maharashtra Road,Slaughter House Compound,Bandra (West)",
        "lat": "19.0524819",
        "lng": "72.83981030000002"
    },
    {
        "name": "HW 193 400050 Madamwadi Chawl,Madhavrao Sawant Road,Madamwadi Chawl,Bandra (West)",
        "lat": "18.9944193",
        "lng": "72.85000140000001"
    },
    {
        "name": "HW 194 400050 Nargis Dutt Nagar,K C Marg,Nargis Dutt Nagar,Bandra (West)",
        "lat": "19.051638",
        "lng": "72.8314355"
    },
    {
        "name": "HW 195 400050 Rajiv Nagar,Bazar Road,Rajiv Nagar,Bandra (West)",
        "lat": "19.0543697",
        "lng": "72.83368829999998"
    },
    {
        "name": "HW 196 400050 Area Lal Mitti,Rangsharda Road,Opp Rang Sharda Hotel,Bandra (West)",
        "lat": "19.050951100000002",
        "lng": "72.8324495"
    },
    {
        "name": "HW 197 400050 Marwadi Chawl,Bazar Road,Marwadi Chawl,Bandra (West)",
        "lat": "19.0543697",
        "lng": "72.83368829999998"
    },
    {
        "name": "HW 198 400050 Gonsalves Wadi,Bazar Road,Gonsalves Wadi,Bandra (West)",
        "lat": "19.0543697",
        "lng": "72.83368829999998"
    },
    {
        "name": "HW 199 400050 Shripat Singh Chawl,Kadeshwari Mandir Road,Shripat Singh Chawl,Bandra (West)",
        "lat": "19.0453719",
        "lng": "72.8245353"
    },
    {
        "name": "HW 200 400050 Behind Navpada Masjid,Bandra (West)",
        "lat": "19.0556616",
        "lng": "72.83672349999998"
    },
    {
        "name": "HW 201 400050 Pandit Din Dayal Chawl,St John Baptist Road,Pandit Din Dayal Chawl,Bandra (West)",
        "lat": "19.048779",
        "lng": "72.82607840000001"
    },
    {
        "name": "HW 202 400050 Mahikbhia Chawl,Kadeshwari Mandir Marg Bandra W,Mahikbhia Chawl,Bandra (West)",
        "lat": "19.0453719",
        "lng": "72.8245353"
    },
    {
        "name": "HW 203 400050 Jadhav Chawl,Sr. Peter Dias Road,Jadhav Chawl,Bandra (West)",
        "lat": "19.049877600000002",
        "lng": "72.82394509999999"
    },
    {
        "name": "HW 204 400050 Thakarsi Amarsai Chawal,Bazar Road,Thakarsi Amarsai Chawal,Bandra (West)",
        "lat": "19.0543697",
        "lng": "72.83368829999998"
    },
    {
        "name": "HW 205 400052 Khar Danda,Ram Mandir Road,Khar Danda,Khar (West)",
        "lat": "19.0764955",
        "lng": "72.82352150000001"
    },
    {
        "name": "HW 206 400052 Janabai Ghadge Chawl,Dr Ambedkar Road,Janabai Ghadge Chawl,Khar (W)",
        "lat": "19.0682431",
        "lng": "72.83003269999998"
    },
    {
        "name": "HW 207 400052 Kakubhayya Chawl,Dr. B.R. Ambedkar Road,Kakubhayya Chawl,Khar (W)",
        "lat": "19.0682431",
        "lng": "72.83003269999998"
    },
    {
        "name": "HW 208 400052 Mohite Chawl,Dr Ambedkar Road,Mohite Chawl,Khar (W)",
        "lat": "19.071707999999997",
        "lng": "72.8341038"
    },
    {
        "name": "HW 209 400052 Gamre Chawl,Dr Ambedkar Road,Gamre Chawl,Khar (W)",
        "lat": "19.0682431",
        "lng": "72.83003269999998"
    },
    {
        "name": "HW 210 400052 Marchande Chawl,Dr Ambedkar Road,Marchande Chawl,Khar (W)",
        "lat": "19.0682431",
        "lng": "72.83003269999998"
    },
    {
        "name": "HW 211 400054 Gazdharbandh,S B Patil Marg,Gazdharbandh,Santacruz (West)",
        "lat": "19.0806538",
        "lng": "72.82997390000001"
    },
    {
        "name": "HW 212 400054 Piraji Shinde Chawl,Sv Road,Piraji Shinde Chawl,Santacruz (West)",
        "lat": "19.1386339",
        "lng": "72.84513790000001"
    },
    {
        "name": "HW 213 400054 Murugan Chawl,15Th Road,Murugan Chawl,Santacruz (West)",
        "lat": "19.0754765",
        "lng": "72.8318455"
    },
    {
        "name": "HW 214 400054 Fatima Chawl,S V Road,Fatima Chawl,Santacruz (West)",
        "lat": "19.0819649",
        "lng": "72.837991"
    },
    {
        "name": "KE 215 400047 Mograpada,Mograpada,Natwar Nagar, Jogeshwari East",
        "lat": "19.1262049",
        "lng": "72.84933240000001"
    },
    {
        "name": "KE 216 400047 Marol Pipeline,The Great Indira Nagar,Andheri East",
        "lat": "19.1089052",
        "lng": "72.8715181"
    },
    {
        "name": "KE 217 400047 Marol Pipeline,Lelewadi,Andheri East",
        "lat": "",
        "lng": ""
    },
    {
        "name": "KE 218 400047 Marol Pipeline,Sai Nagar,Andheri East",
        "lat": "19.1084918",
        "lng": "72.8698064"
    },
    {
        "name": "KE 219 400057 Mahatma Kabir Nagar,Sahar Road,Kabir Nagar,Chakala, Vile Parle East",
        "lat": "19.1053426",
        "lng": "72.8607379"
    },
    {
        "name": "KE 220 400057 Shastri Nagar,Vile Parle East",
        "lat": "19.096567899999997",
        "lng": "72.8488903"
    },
    {
        "name": "KE 221 400057 Ambedkar Nagar,Vile Parle East",
        "lat": "19.100737699999996",
        "lng": "72.84849520000002"
    },
    {
        "name": "KE 222 400057 Samrat Ashok Nagar,Vile Parle East",
        "lat": "19.100737699999996",
        "lng": "72.84849520000002"
    },
    {
        "name": "KE 223 400057 Ambewadi,Vile Parle East",
        "lat": "19.100737699999996",
        "lng": "72.84849520000002"
    },
    {
        "name": "KE 224 400059 Hanuman Nagar, Pump House,Hanuman Nagar, Pump House,Andheri East",
        "lat": "19.1257175",
        "lng": "72.856655"
    },
    {
        "name": "KE 225 400059 Janta Seva Sangh,",
        "lat": "19.111864100000002",
        "lng": "72.87902820000001"
    },
    {
        "name": "KE 226 400059 Sariput Nagar,Andheri East",
        "lat": "19.1310676",
        "lng": "72.87654069999998"
    },
    {
        "name": "KE 227 400059 Sai Darshan, Utkarsh Chs,Midc Central Road,Sunder Nagar,Andheri East",
        "lat": "19.1232273",
        "lng": "72.87143449999998"
    },
    {
        "name": "KE 228 400069 Ambewadi,R K Singh Marg,Ambewadi,Andheri East",
        "lat": "19.127336800000002",
        "lng": "72.8517517"
    },
    {
        "name": "KE 229 400099 Parsiwada+Kajuwadi,Parsiwada+Kajuwadi,Chakala, Andheri East",
        "lat": "19.1108496",
        "lng": "72.85782499999998"
    },
    {
        "name": "KE 230 400099 Bamanwada,Bamanwada,Andheri East",
        "lat": "19.1043743",
        "lng": "72.85929490000001"
    },
    {
        "name": "KE 231 400099 Sahargaon,Shanti Nagar,Andheri East",
        "lat": "19.100782199999998",
        "lng": "72.8650205"
    },
    {
        "name": "KE 232 400099 Sahargaon,Nehru Nagar,Andheri East",
        "lat": "19.0998118",
        "lng": "72.8657757"
    },
    {
        "name": "KW 233 400049 Ganesh Gully,Vm Road,Nehru Nagar,Andheri W",
        "lat": "19.1028289",
        "lng": "72.83529779999998"
    },
    {
        "name": "KW 234 400049 Juhu Koliwada,Juhu Tara Road,Juhu Koliwada,Santacruz West",
        "lat": "19.0855572",
        "lng": "72.8299339"
    },
    {
        "name": "KW 235 400053 Sawant Chawl,Off J.P Road,Dhake Colony,Azad Nagar",
        "lat": "19.1277413",
        "lng": "72.8330106"
    },
    {
        "name": "KW 236 400058 Mehtab Baba Chawl,Dhangar Wadi,Gilbert Hill,Andheri West",
        "lat": "19.1205717",
        "lng": "72.8401933"
    },
    {
        "name": "KW 237 400058 Bhima Rathod Chawl,Cama Road,Gaondevi Dongri,Andheri West",
        "lat": "19.1199401",
        "lng": "72.8431406"
    },
    {
        "name": "KW 238 400058 Junaid Nagar,C D Barfiwala Road,Junaid Nagar,Andheri West",
        "lat": "19.116138600000003",
        "lng": "72.83857220000002"
    },
    {
        "name": "KW 239 400058 Ashok Cottage,Juhu Lane,Juhu Galli,Andheri West",
        "lat": "19.117243",
        "lng": "72.83965479999998"
    },
    {
        "name": "KW 240 400061 Ramdev Naik Chawl,Yari Road,Versova Village,Andheri West",
        "lat": "19.138787",
        "lng": "72.809786"
    },
    {
        "name": "KW 241 400061 Sagar Kutir Seva Sangh,J . P Road,Sagar Kutir,Andheri W",
        "lat": "19.1281027",
        "lng": "72.81447259999999"
    },
    {
        "name": "KW 242 400102 Bmc Colony Sector 2,New Link Road,Anand Nagar,Jogeshwari West",
        "lat": "19.149192000000003",
        "lng": "72.83586600000001"
    },
    {
        "name": "KW 243 400102 Kismat Nagar,New Link Road,Behraum Baug,Jogeshwari West",
        "lat": "19.1898861",
        "lng": "72.8354552"
    },
    {
        "name": "KW 244 400102 Ram Janak Singh Chawl,Gulshan Nagar,Jogeshwari W",
        "lat": "19.147843100000003",
        "lng": "72.83929839999998"
    },
    {
        "name": "KW 245 400102 Ram Dulhar Chawl,Sahakar Road,Yadav Nagar,Jogeshwari West",
        "lat": "19.1356147",
        "lng": "72.8463055"
    },
    {
        "name": "L 246 400022 Siwadashi Mill Chaal,Swadeshi Mill Road,Swadeshi Mill,Chunabhatti,Mumbai",
        "lat": "19.0594051",
        "lng": "72.87305390000002"
    },
    {
        "name": "L 247 400022 Sawant Chal,Swadeshi Mill Road,Swadeshi Mill,Chunabhatti,Mumbai",
        "lat": "",
        "lng": ""
    },
    {
        "name": "L 248 400022 Kalakunj So.,Swadeshi Mill Road,Panchsheel Ngr,Chunabhatti,Mumbai 22",
        "lat": "19.0553136",
        "lng": "72.8706876"
    },
    {
        "name": "L 249 400022 Sawanth Chwal,Swadeshi Mill Road,Mohan Nagar,Chunabhatti",
        "lat": "19.055589899999998",
        "lng": "72.87267039999998"
    },
    {
        "name": "L 250 400022 Rangari Chwal No-7,Swadeshi Mill Road,Kasaiwada,Chunabhatti,Mumbai",
        "lat": "19.0549916",
        "lng": "72.87202669999998"
    },
    {
        "name": "L 251 400022 Keashwani Chawl,Vn Purav Marg,Hanuman Galli,Ambika Estate,Chunabhatti",
        "lat": "19.0528579",
        "lng": "72.87420420000001"
    },
    {
        "name": "L 252 400022 Dhanubai Bhagwat Chawl,Cemetry Nagar,Panchsheel Ngr,Chunabhatti",
        "lat": "19.0552577",
        "lng": "72.87573239999998"
    },
    {
        "name": "L 253 400024 Nehru Nagar,Opp.Jagruti Nagar,Kurla E",
        "lat": "19.065750899999998",
        "lng": "72.8821935"
    },
    {
        "name": "L 254 400024 Dadamiya Usmaan Chawl,Ashok Samrat Road,Near Jamaat Khana, Qureshinagar,Kurla East Mumbai",
        "lat": "19.0583641",
        "lng": "72.880028"
    },
    {
        "name": "L 255 400024 Qureshinagar,Ashok Samrat Road,Behind Vivek School,Kurla East, Mumbai",
        "lat": "19.0591435",
        "lng": "72.8772638"
    },
    {
        "name": "L 256 400024 Alidada Estate,S G Barve Marg,Near Aatachakki, Dhobighat,Kurla East Mumbai",
        "lat": "19.064484399999998",
        "lng": "72.88108390000001"
    },
    {
        "name": "L 257 400024 Yakub Chawl, Alidada Estate,L.B.S Road,Behind Kurla Bus Depo,Kurla East Mumbai",
        "lat": "19.064484399999998",
        "lng": "72.88108390000001"
    },
    {
        "name": "L 258 400024 Gafur Chawl,Kasaiwada,Quareshi Nagar,Kurla Mumbai",
        "lat": "19.0601599",
        "lng": "72.87628620000001"
    },
    {
        "name": "L 259 400024 Laxmichand Marwadi Chawl,Swadeshi Mill Road,Chunabhatti,Chafe Galli,Chunabhatti",
        "lat": "19.055589899999998",
        "lng": "72.87267039999998"
    },
    {
        "name": "L 260 400024 Building No.93,Nehru Nagar,Kurla E",
        "lat": "19.0605597",
        "lng": "72.88071149999998"
    },
    {
        "name": "L 261 400024 Nanibai Chawl,Chaffe Gali,Chunabhatti",
        "lat": "19.0610917",
        "lng": "72.8791602"
    },
    {
        "name": "L 262 400024 Parvati Gaikar Chawl,Chunabhatti",
        "lat": "19.0610917",
        "lng": "72.8791602"
    },
    {
        "name": "L 263 400024 Priyadarshni,Chunabhatti,Chunabhatti",
        "lat": "19.052577",
        "lng": "72.879201"
    },
    {
        "name": "L 264 400024 Swadeshi Mill Chawl,Buddha Vihar,Milind Nagar,Chunabhatti",
        "lat": "19.0594051",
        "lng": "72.87305390000002"
    },
    {
        "name": "L 265 400070 Bismillah Chawl,Halav Pool,Kurla West",
        "lat": "19.0753896",
        "lng": "72.8831579"
    },
    {
        "name": "L 266 400070 Gurudatta Navjivan Society,L.B.S Road,Near Sheetal Talav,Kurla West",
        "lat": "19.072376300000002",
        "lng": "72.87568940000001"
    },
    {
        "name": "L 267 400070 Bhagubai Chawl,Kale Marg,Kurla Mumbai",
        "lat": "19.1074439",
        "lng": "72.83787219999998"
    },
    {
        "name": "L 268 400070 Wadia Estate,L.B.S.Marg,Bail Bazar,Kurla West",
        "lat": "19.084183499999998",
        "lng": "72.879631"
    },
    {
        "name": "L 269 400070 Wadia Estate,L.B.S.Marg,Near Abhyudaya Bank,Kurla West",
        "lat": "19.084183499999998",
        "lng": "72.879631"
    },
    {
        "name": "L 270 400070 Laxmi Bai Chawl,Pipe Road,Near Hanuman Mandir, Buddha Colony,Kurla West, Mumbai-70",
        "lat": "19.0702448",
        "lng": "72.88037229999998"
    },
    {
        "name": "L 271 400070 Apna Nagar,Belgrami Road,Infront Of Gol Bldg, Mahajanwadi, Amarnagar,Kurla West Mumbai",
        "lat": "19.067382100000003",
        "lng": "72.87507990000002"
    },
    {
        "name": "L 272 400070 Samta Nagar,Gaibanshah Dargah,Gulbarga Shah Dargah,Opp-Salman Bakery,Narayan Nagar,Kurla West Mumbai",
        "lat": "19.0893569",
        "lng": "72.8912572"
    },
    {
        "name": "L 273 400070 Damodar Pandey Chawl,New Mill Road,Opp. Pandey Store,Kurla West Mumbai",
        "lat": "19.0669936",
        "lng": "72.8777702"
    },
    {
        "name": "L 274 400070 Gandhi Nagar,Pipe Line,Kajupada",
        "lat": "19.085373899999997",
        "lng": "72.88363919999998"
    },
    {
        "name": "L 275 400070 Nanshi Munshi Chawl Rahivashi Vikas Sangh,New Mill Road,Rahivashi Sangh,Kurla (West)",
        "lat": "19.069879699999998",
        "lng": "72.8778016"
    },
    {
        "name": "L 276 400070 Fitwala Compound,Pipe Road,Opp. Ahlehadis Masjid,Kurla West",
        "lat": "19.068422100000003",
        "lng": "72.8799437"
    },
    {
        "name": "L 277 400070 Ananad Bhawan Chawl,Near Bmc School,Bail Bazar",
        "lat": "19.0837132",
        "lng": "72.8821935"
    },
    {
        "name": "L 278 400070 Asha Bai Chawl,Sg Barve Marg,Buddha Colony,Kurla West",
        "lat": "19.069943300000002",
        "lng": "72.8791162"
    },
    {
        "name": "L 279 400070 Takiya Ward,Saweshwar Mandir Marg,Patange Road,Kurla West",
        "lat": "19.064275199999997",
        "lng": "72.87596190000001"
    },
    {
        "name": "L 280 400070 Valappa Chawl,Kurla Andheri Road,Jari Mari,Kurla West",
        "lat": "19.0910029",
        "lng": "72.8823589"
    },
    {
        "name": "L 281 400070 Mariambai Chawl,Kale Marg,Bail Bazar,Kurla West",
        "lat": "19.0853902",
        "lng": "72.8833563"
    },
    {
        "name": "L 282 400070 Aminabi Chwal, Takshshila Nagar,Near Buddhvihar, Qureshinagar,Kurla East, Mumbai.",
        "lat": "19.0627827",
        "lng": "72.87825620000001"
    },
    {
        "name": "L 283 400070 Near Bacchu Garage,Kurla Andheri Road,Safed Pool,Ashok Nagar",
        "lat": "19.096647100000002",
        "lng": "72.885696"
    },
    {
        "name": "L 284 400070 Sunderbaug, Sanjay Nagar,L.B.S Marg,Near Oxford School,Kurla W",
        "lat": "19.0879758",
        "lng": "72.8878397"
    },
    {
        "name": "L 285 400070 Hanuman Galli, Battiwala Chawl,S.M Road,Takiya Ward,Kurla W",
        "lat": "19.0315426",
        "lng": "72.8709697"
    },
    {
        "name": "L 286 400070 Sahajivan Society,Kurla Andheri Road,Near Shingrewadi Vachnalaya,Kurla W",
        "lat": "19.085458600000003",
        "lng": "72.88082320000001"
    },
    {
        "name": "L 287 400070 Shashtri Nagar,Pipeline Road.,Landmark:Near Lukman Paanwala,Kurla W",
        "lat": "19.0747693",
        "lng": "72.88140510000002"
    },
    {
        "name": "L 288 400070 Morarji Terrace, Near Chhadwa Nagar,Match Factory Lane,B/3,Kurla W",
        "lat": "19.0669608",
        "lng": "72.87588199999999"
    },
    {
        "name": "L 289 400070 Durga Bhavan, Krishna Nagar,90 Feet Road,Near Dubey House, Safed Pool, Pipeline, Saki Naka,Kurla W",
        "lat": "19.099857999999998",
        "lng": "72.888013"
    },
    {
        "name": "L 290 400070 Nanibai Abdul Ajeeb Chawl,Navpada,Kurla West",
        "lat": "19.084021300000003",
        "lng": "72.8892082"
    },
    {
        "name": "L 291 400070 Sitaram Ghamela Chawl,Gafur Khan Estate,Kurla W",
        "lat": "19.0736701",
        "lng": "72.8764176"
    },
    {
        "name": "L 292 400070 Awadh Kunj Society,Vighnaharta House,Lbs",
        "lat": "40.7955935",
        "lng": "-73.9707039"
    },
    {
        "name": "L 293 400070 Gali No.16,Milind Nagar,Kurla W",
        "lat": "19.0741059",
        "lng": "72.8804183"
    },
    {
        "name": "L 294 400070 House No.252,Christian Village,Kurla W",
        "lat": "19.082174399999996",
        "lng": "72.8839052"
    },
    {
        "name": "L 295 400070 Indira Nagar,Kurla W",
        "lat": "19.0741059",
        "lng": "72.8804183"
    },
    {
        "name": "L 296 400070 Shahid Jitesh Chs,Buddha Colony,Kurla W",
        "lat": "19.0703723",
        "lng": "72.87979370000001"
    },
    {
        "name": "L 297 400070 Chawl No.11,Patelwadi,Kurla W",
        "lat": "19.0741059",
        "lng": "72.8804183"
    },
    {
        "name": "L 298 400070 Guddapa Chawl,Halav Pul,Jai Shankar Chowk,Kurla W",
        "lat": "19.075928100000002",
        "lng": "72.880354"
    },
    {
        "name": "L 299 400070 Sambhaji Chawl,Textile Corporation,Kurla W",
        "lat": "19.0741059",
        "lng": "72.8804183"
    },
    {
        "name": "L 300 400070 Dipu Thorat Chawl,Sonapur Lane,Bailbazar,In Front Of City Hospital",
        "lat": "19.0813122",
        "lng": "72.8830906"
    },
    {
        "name": "L 301 400070 S Chawl,Navpada,Varsha Nagar,Kurla W",
        "lat": "19.0741059",
        "lng": "72.8804183"
    },
    {
        "name": "L 302 400070 Marwadi Chawl,Moreshwar Patankar Marg,Pipe Road,Behind Kurla Nursing Home,Kurla W",
        "lat": "19.0706782",
        "lng": "72.88065139999998"
    },
    {
        "name": "L 303 400070 Halav Pul,Behind Ramu Kirana Shop,Jai Shankar Chowk,Kurla W",
        "lat": "19.075928100000002",
        "lng": "72.880354"
    },
    {
        "name": "L 304 400070 Hirakumar Chawl,Cst Road,Kurla W",
        "lat": "19.0759155",
        "lng": "72.8772516"
    },
    {
        "name": "L 305 400070 Sanagam Chs,Lbs Road,Kajupada,Kurla W",
        "lat": "19.0850199",
        "lng": "72.8865646"
    },
    {
        "name": "L 306 400070 Din Mohammad Chawl,New Mill Road,Sambhaji Chowk,Kurla W",
        "lat": "19.069879699999998",
        "lng": "72.8778016"
    },
    {
        "name": "L 307 400070 Hiraman Gaikwad Chawl,Pipe Road,Buddha Colony,Kurla W",
        "lat": "19.0702448",
        "lng": "72.88037229999998"
    },
    {
        "name": "L 308 400070 Badhridham,90 Feet Road,Lbs Nagar",
        "lat": "19.096181299999998",
        "lng": "72.88774670000001"
    },
    {
        "name": "L 309 400070 Ambedkar Nagar,Ambedkar Nagar,Kurla W",
        "lat": "19.0729788",
        "lng": "72.87887070000001"
    },
    {
        "name": "L 310 400070 Vadhari Chawl,Near Amar Nagar Health Post",
        "lat": "19.0741059",
        "lng": "72.8804183"
    },
    {
        "name": "L 311 400070 Krishna Chawl,Takiya Wad,Near Ram Mandir,Kurla W",
        "lat": "19.0616965",
        "lng": "72.87264189999998"
    },
    {
        "name": "L 312 400070 Usman Gani Chawl,Takiya Wad,Kurla W",
        "lat": "19.0741059",
        "lng": "72.8804183"
    },
    {
        "name": "L 313 400070 Gauri Shankar Mandir,Masrani Lane,Halav Pul,Kurla W",
        "lat": "19.0750187",
        "lng": "72.88449969999998"
    },
    {
        "name": "L 314 400070 Kamlabai Chawl,Masrani Lane,Halav Pul,Kurla W",
        "lat": "19.074727499999998",
        "lng": "72.88401359999999"
    },
    {
        "name": "L 315 400070 Lawreance Chawl,Christian Village,Kurla W",
        "lat": "19.082174399999996",
        "lng": "72.8839052"
    },
    {
        "name": "L 316 400070 Chawl No.1,N M Road,Ramdas Chowk",
        "lat": "34.5199402",
        "lng": "-105.87009009999998"
    },
    {
        "name": "L 317 400070 Hanuman Tekdi,Sambhaji Chowk",
        "lat": "19.0741059",
        "lng": "72.8804183"
    },
    {
        "name": "L 318 400070 Shri Krishna Soc.,Sunderbaug,Opp.Nana Nani Park,Kamani",
        "lat": "19.0274495",
        "lng": "72.8396856"
    },
    {
        "name": "L 319 400070 Samshuddin Chawl,G K Estate,Opp.Kanakiya Zillion,Kurla W",
        "lat": "19.075457500000002",
        "lng": "72.8764346"
    },
    {
        "name": "L 320 400070 Buddha Master Compound,Beside Nasheman Hotel,Opp.Orchid International Hotel",
        "lat": "19.0741059",
        "lng": "72.8804183"
    },
    {
        "name": "L 321 400070 Buddha Master Compound,Beside Nasheman Hotel,Opp.Orchid International Hotel",
        "lat": "19.0741059",
        "lng": "72.8804183"
    },
    {
        "name": "L 322 400072 Gulzar Mohammad Hotel,Subhash Nagar,Kurla Andheri Road,Mathuradas,Sakinaka, Kurla West",
        "lat": "19.110747699999997",
        "lng": "72.8682232"
    },
    {
        "name": "L 323 400072 Dasharath Chawl, Sunderbag,Sunder Baug Lane,Near Santoshi Mata Mandir,Kurla West",
        "lat": "19.0875785",
        "lng": "72.88741170000002"
    },
    {
        "name": "L 324 400072 Radharaman Housing Society, Netaji Nagar,90 Feet Road,Sakinaka,Kurla West",
        "lat": "19.0984015",
        "lng": "72.8878393"
    },
    {
        "name": "L 325 400072 Paras Chawl, Yadav Nagar,Khairani Road,Sakinaka,Kurla West",
        "lat": "19.1057546",
        "lng": "72.8943074"
    },
    {
        "name": "L 326 400072 Imran Chawl,Andheri Ghatkopar Link Road,Ashapura Estate,Sakinaka",
        "lat": "19.0911796",
        "lng": "72.9061435"
    },
    {
        "name": "L 327 400072 Ravikiran Society,Magan Nathuram Road,Bailbazar,Sakinaka",
        "lat": "19.0855085",
        "lng": "72.88154240000001"
    },
    {
        "name": "L 328 400072 Qureshi Chawl, Sanjaynagar,Lbs Road,Opposite Ashrafiya Masjid, Baba Chouk,Kamani Kurla West",
        "lat": "19.128406",
        "lng": "72.9252541"
    },
    {
        "name": "L 329 400072 Sayyed Mohammad Chawl,Andheri Kurla Road,Sakinaka,Kurla",
        "lat": "19.085458600000003",
        "lng": "72.88082320000001"
    },
    {
        "name": "L 330 400072 Panchasheel Chawl,Sunder Baugh Lane,Kamani,Kurla West Mumbai 72",
        "lat": "19.086501000000002",
        "lng": "72.888839"
    },
    {
        "name": "L 331 400072 Zohra Estate,Kajupada Road,Next To Prajapati Hall, Kajupada,Kurla West",
        "lat": "19.0928411",
        "lng": "72.8848823"
    },
    {
        "name": "L 332 400072 Krishnai Society,Chandivali,Mhada Colony,Powai",
        "lat": "",
        "lng": ""
    },
    {
        "name": "L 333 400072 Vijay Society,Chamdivali,Sangharsh Nagar,Powai",
        "lat": "19.1083965",
        "lng": "72.90260289999998"
    },
    {
        "name": "L 334 400072 Taranhar Chawl,Kurla Andheri Road,New Shanti Nagar, Safed Pool,Sakinaka",
        "lat": "19.1111038",
        "lng": "72.8707227"
    },
    {
        "name": "L 335 400072 Jaimuddin Chawl,Pipe Road,Buddha Vihar, Buddha Colony,Kurla West",
        "lat": "19.073766",
        "lng": "72.8803687"
    },
    {
        "name": "L 336 400072 Kunti Devi Chawl,Pipe Road,Vb Nagar,Kurla (West)",
        "lat": "19.0702448",
        "lng": "72.88037229999998"
    },
    {
        "name": "L 337 400072 Guru Datta Nagar,Pipe Road,V.B.Nagar,Kurla West",
        "lat": "19.0702448",
        "lng": "72.88037229999998"
    },
    {
        "name": "L 338 400072 Sanjay Nagar,Kamani,Sunder Baugh, Near Chand Tara Hotel,Kurla West Mumbai 72",
        "lat": "19.088853399999998",
        "lng": "72.8893441"
    },
    {
        "name": "L 339 400072 L. G Chawl,Sunder Baug Lane,Near Nav Jivan Mitra Mandal,Kamani Kurla West Mumbai 72",
        "lat": "19.0874395",
        "lng": "72.8873808"
    },
    {
        "name": "L 340 400072 Near Ganesh Maidan,Kajupada Pipe Line Road,Near Ganesh Maidan,Kurla West 72",
        "lat": "19.0875987",
        "lng": "72.8841276"
    },
    {
        "name": "L 341 400072 Jainuddin Chawl,Cst Road,Buddha Colony, Near Hanuman Mandir,Kurla West",
        "lat": "19.0750249",
        "lng": "72.8724283"
    },
    {
        "name": "L 342 400072 Uday Society,90 Feet Road,Lbs Nagar,Sakinaka",
        "lat": "19.0969448",
        "lng": "72.8876853"
    },
    {
        "name": "L 343 400072 Ashok Nagar,Pipeline Road,Safed Pul Near Bachu Garage,Sakinaka",
        "lat": "19.096647100000002",
        "lng": "72.885696"
    },
    {
        "name": "L 344 400072 Ganesh Society,90 Feet Road,Tilak Nagar,Sakinaka",
        "lat": "19.098422",
        "lng": "72.8895946"
    },
    {
        "name": "L 345 400072 Jay Ambe Society,Sunderbag Lane,Kamani,Kurla West",
        "lat": "19.086501000000002",
        "lng": "72.888839"
    },
    {
        "name": "L 346 400072 Indira Nagar,Lbs Marg,90 Feet Road,Kurla West, Mumbai",
        "lat": "19.092426800000002",
        "lng": "72.8858398"
    },
    {
        "name": "L 347 400072 Gurunanak Chawl, Gurudwara,Lbs Marg,Behind Phonix Marketcity, Near Milk Dairy,Gurunanak Bus Stop,Kurla West Mumbai.",
        "lat": "19.086389999999998",
        "lng": "72.88896679999999"
    },
    {
        "name": "L 348 400072 Ramlal Jadhav Chawl,Gafoor Khan Estate,Kurla West, Mumbai",
        "lat": "19.049877600000002",
        "lng": "72.82394509999999"
    },
    {
        "name": "L 349 400072 Rajiv Nagar, Mohili Village,Pipeline Road,Noorani Masjid Khadi No.3 Near Jafer Compound,Sakinaka",
        "lat": "19.0989452",
        "lng": "72.8925055"
    },
    {
        "name": "L 350 400072 Ram Niwas Chawl,Pipeline Road,Mohilli Village, Near Chhajed Hospital,Sakinaka",
        "lat": "19.102360100000002",
        "lng": "72.8914798"
    },
    {
        "name": "L 351 400072 Tilak Nagar, Asalfa,90 Feet Road,Saki Naka,Kurla West",
        "lat": "19.0984015",
        "lng": "72.8878393"
    },
    {
        "name": "L 352 400072 Daksh Smruti,90 Feet Road,Setiya Nagar,Kurla West",
        "lat": "19.0984015",
        "lng": "72.8878393"
    },
    {
        "name": "L 353 400072 Al-Cuba Appartments,Near Navpada Market, Amarnagar,Kurla West Mumbai",
        "lat": "19.0766413",
        "lng": "72.883335"
    },
    {
        "name": "L 354 400072 Ashok Nagar, Safed Pul,Kurla Andheri Road,Pipeline,Kurla",
        "lat": "19.098813600000003",
        "lng": "72.8835084"
    },
    {
        "name": "L 355 400072 Siddharth Chwal,Kajupada Pipe Line,Kurla West",
        "lat": "19.0875987",
        "lng": "72.8841276"
    },
    {
        "name": "L 356 400072 Kamrun Bai Chawl,Kajupada Pipe Line,Kurla",
        "lat": "19.0935543",
        "lng": "72.88538630000001"
    },
    {
        "name": "L 357 400072 Baban Yadav Chawl,Sunder Baugh Lane,Kurla West",
        "lat": "19.1018031",
        "lng": "72.89035249999998"
    },
    {
        "name": "L 358 400072 Sainath Society, Tilak Nagar,Opposite Mahalaxmi Jewellers,Saki Naka Mumbai",
        "lat": "19.095975199999998",
        "lng": "72.88887009999998"
    },
    {
        "name": "L 359 400072 Jhograj Chawl,Kurla Andheri Road,Jarimari,Kurla West",
        "lat": "19.0910029",
        "lng": "72.8823589"
    },
    {
        "name": "L 360 400072 Mate Chawl,Opp Patel Apts,Kurla Andheri Road,Jarimari,Kurla West",
        "lat": "19.1081288",
        "lng": "72.87947740000001"
    },
    {
        "name": "L 361 400072 Yadav Nagar Tinu Chawl,Khairani Road,Near Goddawn,Sakinaka",
        "lat": "19.1057546",
        "lng": "72.8943074"
    },
    {
        "name": "L 362 400072 Chinna Poshanna Chawl,Kurla Andheri Road,Near Datt Mandir,Safed Pool,Kurla West",
        "lat": "19.084460399999998",
        "lng": "72.8807218"
    },
    {
        "name": "L 363 400072 Ekta Chawl,Kurla Anderi Road,Shashtrinagar,Bail Bazar, Kurla",
        "lat": "19.1225277",
        "lng": "72.8898653"
    },
    {
        "name": "L 364 400072 Shivneri Mahila Mandal Chawl,Bmk Compound,Near Datta Mandir, Kranti Nagar,Kurla(W)",
        "lat": "19.085771100000002",
        "lng": "72.8773938"
    },
    {
        "name": "L 365 400072 Pawali Chawl,Kurla Andheri Road,Sandeshnagar,Sakinaka",
        "lat": "19.0872948",
        "lng": "72.8812324"
    },
    {
        "name": "L 366 400072 Vrundavan Society, Saki Naka,90 Feet Road,Mahatma Phule Nagar,Sakinaka",
        "lat": "19.097221899999997",
        "lng": "72.88907019999998"
    },
    {
        "name": "L 367 400072 Gurudatta Chawl,Pipeline Road,Kajupada,Kurla W",
        "lat": "19.0875987",
        "lng": "72.8841276"
    },
    {
        "name": "L 368 400072 Shanti Smriti Chs,Sakivihar Road,L&T Gate No.7 Powai",
        "lat": "19.119118399999998",
        "lng": "72.89035299999998"
    },
    {
        "name": "L 369 400072 Rajunagar Chawl,Sakinaka,Near Hanuman Mandir,Sakinaka",
        "lat": "19.0961829",
        "lng": "72.88774219999998"
    },
    {
        "name": "L 370 400072 Superstar Niwas,Pipeline,Kajupada,Kurla W",
        "lat": "19.0875987",
        "lng": "72.8841276"
    },
    {
        "name": "L 371 400072 Ashirwad Housing Society,Link Road,Sakinaka,Kurla W",
        "lat": "19.061211",
        "lng": "72.8823464"
    },
    {
        "name": "L 372 400072 Sai Darshan,Tilak Nagar,Sakinaka,Kurla W",
        "lat": "19.101595800000002",
        "lng": "72.88937790000001"
    },
    {
        "name": "L 373 400072 Dongre Chawl,Pipeline,Mohili Village,Kurla W",
        "lat": "19.0989452",
        "lng": "72.8925055"
    },
    {
        "name": "L 374 400072 Jai Bajrang Bali General Store,Bhim Nagar,Laxmi Narayan Mandir Road,Mohili Village,Near Anjali Medical,Ghatkopar W",
        "lat": "19.0989452",
        "lng": "72.8925055"
    },
    {
        "name": "L 375 400072 Mhada Colony,Chandiwali,Sakinaka",
        "lat": "19.111241500000002",
        "lng": "72.896687"
    },
    {
        "name": "L 376 400072 Uday Nagar Rahivasi Society,Sakinaka,Kurla W",
        "lat": "19.0961829",
        "lng": "72.88774219999998"
    },
    {
        "name": "L 377 400072 Sai Krupa Society,Sawarkar Nagar,Sakinaka,Kurla W",
        "lat": "19.097938600000003",
        "lng": "72.89195190000001"
    },
    {
        "name": "L 378 400072 Murgan Clinic,Ravi Chawl,Pipeline,Kajupada,Kurla W",
        "lat": "19.0935543",
        "lng": "72.88538630000001"
    },
    {
        "name": "L 379 400072 Satyakrupa Chawl,Pipeline,Kajupada,Near Shivaji Vidyalaya,Kurla W",
        "lat": "19.091899100000003",
        "lng": "72.88559129999999"
    },
    {
        "name": "L 380 400072 Ashoknagar,Sunderbaug,Near Bhaji Market",
        "lat": "19.0879758",
        "lng": "72.8878397"
    },
    {
        "name": "L 381 400072 John D Souza Chawl,Sakinaka,Shri Nagar, Behind Chandivali Kamani Oil Mill",
        "lat": "19.0775751",
        "lng": "72.86498929999998"
    },
    {
        "name": "L 382 400072 Milan Sadan Chawl,Khairani Road,Sakinaka,Near St.Anthony Church",
        "lat": "19.1061187",
        "lng": "72.893658"
    },
    {
        "name": "L 383 400072 Ekta Society,Prem Nagar,Near L & T Company Old Mhada Colony,Powai",
        "lat": "19.1018031",
        "lng": "72.89035249999998"
    },
    {
        "name": "L 384 400072 Sai Krishna Society,Kajupada Pipeline,Near Gavdevi Mandir,Kurla W",
        "lat": "19.0935543",
        "lng": "72.88538630000001"
    },
    {
        "name": "L 385 400072 Veer Savar Nagar,Pedrawadi,Sakinaka,Kurla W",
        "lat": "19.0961829",
        "lng": "72.88774219999998"
    },
    {
        "name": "L 386 400072 Vighnaharta Society,90 Feet Road,Lbs Nagar,Sakinaka",
        "lat": "19.096181299999998",
        "lng": "72.88774670000001"
    },
    {
        "name": "L 387 400072 Samata Compound,Safed Pul,Near Shiv Mandir,Sakinaka",
        "lat": "19.098573100000003",
        "lng": "72.88500520000001"
    },
    {
        "name": "L 388 400072 Sitaram Chawl,Safed Pul,Tanaji Nagar,Kurla W",
        "lat": "19.1111038",
        "lng": "72.8707227"
    },
    {
        "name": "L 389 400072 Baramati Chawl,Kurla Andheri Road,Jarimari,Shivaji Nagar,Near Hindustan Bank,Kurla W",
        "lat": "19.094027899999997",
        "lng": "72.88324349999998"
    },
    {
        "name": "L 390 400072 Muneer Hasan Chawl,Kurla Andheri Road,Jarimari,Kurla W",
        "lat": "19.0910029",
        "lng": "72.8823589"
    },
    {
        "name": "L 391 400072 Shree Saibaba Society,Parerawadi,Ganesh Nagar,Sakinaka",
        "lat": "19.0961829",
        "lng": "72.88774219999998"
    },
    {
        "name": "L 392 400072 Bowdkar Chawl,Kurla Andheri Road,Jarimari,Shivaji Nagar,Kurla W",
        "lat": "19.0910029",
        "lng": "72.8823589"
    },
    {
        "name": "L 393 400072 Navina Chawl,Khairani Road,Yadav Nagar,Sakinaka,Kurla W",
        "lat": "19.1057546",
        "lng": "72.8943074"
    },
    {
        "name": "L 394 400072 Madina Chawl,Khairani Road,Shree Nagar,Sakinaka",
        "lat": "19.099450100000002",
        "lng": "72.8979379"
    },
    {
        "name": "L 395 400072 Shree Saibaba Society,Parerawadi,Ganesh Nagar,Sakinaka",
        "lat": "19.0961829",
        "lng": "72.88774219999998"
    },
    {
        "name": "L 396 400072 Hussan Chawl,Tunga Gaon,Near Dayanand Chawl",
        "lat": "19.119241",
        "lng": "72.89130109999998"
    },
    {
        "name": "L 397 400072 Uday Nagar Rahivasi Society,Sakinaka,Opp.State Bank Of India",
        "lat": "19.119163",
        "lng": "72.8907936"
    },
    {
        "name": "L 398 400072 Sangharsh Nagar,Chandivali,Andheri E",
        "lat": "",
        "lng": ""
    },
    {
        "name": "L 399 400072 Arunuday Chawl,Tunga Village,Opp.Valmiki Mandir,Chaityawadi,Powai",
        "lat": "19.119241",
        "lng": "72.89130109999998"
    },
    {
        "name": "L 400 400072 Tata Nagar,Tunga Village",
        "lat": "19.1172158",
        "lng": "72.89068490000001"
    },
    {
        "name": "L 401 400072 Ram Rahim Compund,Kurla Andheri Road,Shanti Nagar",
        "lat": "19.094027899999997",
        "lng": "72.88324349999998"
    },
    {
        "name": "L 402 400072 L.G. Chawl No.12,Sunderbaug, Kamani",
        "lat": "19.087318",
        "lng": "72.887344"
    },
    {
        "name": "L 402 400072 L.G. Chawl No.12,Sunderbaug, Kamani",
        "lat": "19.087318",
        "lng": "72.887344"
    },
    {
        "name": "L 404 400072 Shivprabha Building,Mohili Village,Shankar Nagar",
        "lat": "19.0989452",
        "lng": "72.8925055"
    },
    {
        "name": "L 405 400072 Kohinoor Society,Mohili Village,Milind Nagar,Sakinaka",
        "lat": "19.128568100000003",
        "lng": "72.88895790000001"
    },
    {
        "name": "L 406 400072 Sonabai Chawl,Kurla Andheri Road,Jarimari,Near Ration Shop,Kurla W",
        "lat": "19.0960928",
        "lng": "72.8881328"
    },
    {
        "name": "L 407 400072 Shri Krishna Chs,Satyanagar,Sakinaka",
        "lat": "19.1000128",
        "lng": "72.8873622"
    },
    {
        "name": "L 408 400072 Gupta Chawl,Bharat Nagar,Near Ramesh General Store,Chandivali,Near Shiv Dhattani Complex",
        "lat": "19.1018031",
        "lng": "72.89035249999998"
    },
    {
        "name": "L 409 400072 Sai Krupa Society,Savarkar Nagar,Savarkar Nagar",
        "lat": "19.1018031",
        "lng": "72.89035249999998"
    },
    {
        "name": "L 410 400072 Kailaspuram,Pipeline,Sakinaka,Behind Vishwas Hotel",
        "lat": "19.102916",
        "lng": "72.8871936"
    },
    {
        "name": "L 411 400072 Usman Sheth Chawl,Khairani Road,Sakinaka,Near Durga Mandir,Opp.St.Anthony Church",
        "lat": "19.1061187",
        "lng": "72.893658"
    },
    {
        "name": "L 412 400072 Muranjan Wadi,Jvlr,Near Ruchi Hotel",
        "lat": "19.1195443",
        "lng": "72.890321"
    },
    {
        "name": "L 413 400072 Mankinbai Chawl,Sunderbaug,Near Rajeshwari Mitra Mandal",
        "lat": "19.0879758",
        "lng": "72.8878397"
    },
    {
        "name": "L 414 400072 Shramparihar Society,Asalfa Village,Ghatkopar W",
        "lat": "19.1014096",
        "lng": "72.89620740000001"
    },
    {
        "name": "L 415 400072 Ghameliwala Chawl,Near Shanti Toliet,Ramdas Chowk",
        "lat": "19.1018031",
        "lng": "72.89035249999998"
    },
    {
        "name": "L 416 400084 Swami Chawl,Asalfa Village,Asalfa, Subhash Nagar,Ghatkopar West Mumbai",
        "lat": "19.137127300000003",
        "lng": "72.8544903"
    },
    {
        "name": "L 417 400084 Hasan Manjil Chawl,Asalfa Village,Asalpha Village,Ghatkopar West",
        "lat": "19.0975711",
        "lng": "72.90323699999998"
    },
    {
        "name": "L 418 400084 Sai Nath Chawl,Ashok Nagar Hill No- 3,Nss Road,Near Home Guard,Ghatkpoar West",
        "lat": "19.0975711",
        "lng": "72.90323699999998"
    },
    {
        "name": "L 419 400084 Sai Krupa Society,Asalfa,Savarkar Nagar,Kurla W",
        "lat": "19.0975711",
        "lng": "72.90323699999998"
    },
    {
        "name": "L 420 400084 Krupavati Kirana Store,Nss Road,Asalfa Village,Near Sundrerbaug Maidan, Ghatkopar W",
        "lat": "19.0927814",
        "lng": "72.89388000000001"
    },
    {
        "name": "L 421 400084 Sharma Chawl,Pipeline,Asalfa Village,Ghatkopar",
        "lat": "19.070509899999998",
        "lng": "72.8443417"
    },
    {
        "name": "L 422 400084 Govind Nagar Chawl,Asalfa Village,Opp.Himalaya Society,Kurla W",
        "lat": "19.0941191",
        "lng": "72.892832"
    },
    {
        "name": "L 423 400084 Roshan Grain Store,Asalfa Village,Ghatkopar W",
        "lat": "19.090919",
        "lng": "72.903707"
    },
    {
        "name": "L 424 400084 Sindhudurg Society,Asalfa Village,Ghatkopar W",
        "lat": "19.0975711",
        "lng": "72.90323699999998"
    },
    {
        "name": "L 425 400084 Gajanan Patil Chawl,Nariseva Sadan Road,Asalfa Village,Ghatkopar W",
        "lat": "19.0975711",
        "lng": "72.90323699999998"
    },
    {
        "name": "L 426 400084 Sai Baba Society,Nariseva Sadan Road,Asalfa Village,Ghatkopar W",
        "lat": "19.0975711",
        "lng": "72.90323699999998"
    },
    {
        "name": "L 427 400084 Sai Baba Society,Asalfa Village,Shivaji Nagar,Ghatkopar W",
        "lat": "19.0956186",
        "lng": "72.89475959999999"
    },
    {
        "name": "L 428 400084 Hawabai Chawl,Asalfa Village,Subhash Nagar,Ghatkopar W",
        "lat": "19.0992353",
        "lng": "72.8980686"
    },
    {
        "name": "L 429 400084 Behind Gokuldham Society,Asalfa Village,Ghatkopar W",
        "lat": "19.0975711",
        "lng": "72.90323699999998"
    },
    {
        "name": "L 430 400084 Sainath Chawl,Asalfa Village,Sunderbaug,Ghatkopar W",
        "lat": "19.0879758",
        "lng": "72.8878397"
    },
    {
        "name": "L 431 400084 Pagare Chawl,Nss Road,Asalfa Village,Ghatkopar W",
        "lat": "19.0927814",
        "lng": "72.89388000000001"
    },
    {
        "name": "L 432 400084 Rohini Chawl Committee,Ambedkar Nagar,Asalfa Village,Ghatkopar W",
        "lat": "19.007344",
        "lng": "72.84122109999998"
    },
    {
        "name": "L 433 400084 Saalik Singh Chawl,Pipeline Road,Asalfa Village,Ghatkopar W",
        "lat": "19.0989081",
        "lng": "72.89358179999998"
    },
    {
        "name": "L 434 400084 Hemant Society,Nss Road,Asalfa Village,Ghatkopar W",
        "lat": "19.0927814",
        "lng": "72.89388000000001"
    },
    {
        "name": "L 435 400084 Rohini Chawl Committee,Para Kadam Marg,Ambedkar Nagar,Ghatkopar W",
        "lat": "19.0927977",
        "lng": "72.90351919999998"
    },
    {
        "name": "L 436 400084 Bhise Chawl,Asalfa Village,Ghatkopar W",
        "lat": "19.0975711",
        "lng": "72.90323699999998"
    },
    {
        "name": "L 437 400084 Bhise Chawl,Asalfa Village,Sane Guruji Nagar,Ghatkopar W",
        "lat": "19.092339499999998",
        "lng": "72.89799350000001"
    },
    {
        "name": "L 438 400086 Jaibhunissa Compound, Rajiv Nagar,Andheri Ghatkopar Link Road,Near Asalfa Metro Station,Ghatkopar",
        "lat": "19.0963497",
        "lng": "72.89487919999998"
    },
    {
        "name": "L 439 400086 Sharma Shikshan Sanstha, Netaji Nagar,Andheri Ghatkopar Link Road,Khadi No 3,Ghatkopar",
        "lat": "19.088649",
        "lng": "72.917441"
    },
    {
        "name": "L 440 400086 Panchshil Chawl No-1,Ambedkar Nagar,Andheri Ghatkopar Link Road,Asalfa Village,Ghatkopar West",
        "lat": "19.0932025",
        "lng": "72.9007833"
    },
    {
        "name": "L 441 400086 Kamalkunj Chs,Andheri Ghatkopar Link Road,Asalfa Village,Ghatkopar",
        "lat": "19.0932025",
        "lng": "72.9007833"
    },
    {
        "name": "L 442 400086 Govind Nagar, Parerawadi Comp,Andheri Ghatkopar Link Road,Himalaya Society,Ghatkpoar West",
        "lat": "19.0911796",
        "lng": "72.9061435"
    },
    {
        "name": "L 443 400086 Jai Maharashtra Chawl,Sane Guruji Nagar,N.S.S Road,Asalfa Village,Ghatkpoar West",
        "lat": "19.089996799999998",
        "lng": "72.89446640000001"
    },
    {
        "name": "L 444 400086 Shiv Shakti Chawl,Asalfa Village,Ashok Nagar,Ghatkopar",
        "lat": "19.1014096",
        "lng": "72.89620740000001"
    },
    {
        "name": "L 445 400086 Jay Durga Chawl,Asalfa Village,Ashok Nagar,Ghatkopar",
        "lat": "19.1014096",
        "lng": "72.89620740000001"
    },
    {
        "name": "L 446 400086 Ashok Nagar, Hill No 3,Lbs Marg,Near Dr Gaur Clinic, Aata Chakki, Near Home Gaurd,Ghatkopar East, Mumbai",
        "lat": "19.093997",
        "lng": "72.9126567"
    },
    {
        "name": "L 447 400086 Gurunanak Nagar,Lbs Marg,Asalfa Village,Ghatkopar W",
        "lat": "19.0853127",
        "lng": "72.89346549999998"
    },
    {
        "name": "L 448 400086 Near Parekh Apartment,Nss Road,Asalfa Village,Ghatkopar W",
        "lat": "19.093597600000003",
        "lng": "72.8938546"
    },
    {
        "name": "L 449 400086 Kamgaar Chawl,Narayan Nagar,Ghatkopar",
        "lat": "",
        "lng": ""
    },
    {
        "name": "L 450 400086 Narsing Pandey Chawl,Subhash Nagar,Narsing Pandey Chawl,Asalfa Village, Ghatkopar",
        "lat": "19.0893148",
        "lng": "72.9078057"
    },
    {
        "name": "ME 451 400043 New Gautam Nagar,Pheriphery Road,Gautam Nagar,Govandi",
        "lat": "19.0604386",
        "lng": "72.91667840000001"
    },
    {
        "name": "ME 452 400043 Bhimjyot Chawl,Bansode Marg,Nimonibaug,Govandi",
        "lat": "19.0002712",
        "lng": "72.82025469999998"
    },
    {
        "name": "ME 453 400043 Noorani Masjid,Ghatkpoar Mankhurd Link Road,Devnar",
        "lat": "19.0447048",
        "lng": "72.9102511"
    },
    {
        "name": "ME 454 400043 Transit Camp,Mt Kadam Marg,New Bhimnagar,Devnar",
        "lat": "19.0447048",
        "lng": "72.9102511"
    },
    {
        "name": "ME 455 400043 Kamalabai,Near Hakkani Masjid,Near Hanuman Mandir,Baiganwadi",
        "lat": "19.0638532",
        "lng": "72.9267837"
    },
    {
        "name": "ME 456 400043 Indira Nagar,Padma Nagar,Rd No 14,15,Baiganwadi",
        "lat": "19.063018399999997",
        "lng": "72.92997009999998"
    },
    {
        "name": "ME 457 400043 Mohamadiya Masjid,Dumping Road,Kamla Raman Nagar,Shivaji Nagar",
        "lat": "19.1836742",
        "lng": "72.95345929999998"
    },
    {
        "name": "ME 458 400043 New Depot Nirankari Nallah Sanjay Nagar,Shivaji Nagar",
        "lat": "19.063261999999998",
        "lng": "72.9258389"
    },
    {
        "name": "ME 459 400043 Bismillah Masjid,Rafique Nagar Nallah,Rafique Nagar,Shivaji Nagar",
        "lat": "19.0701861",
        "lng": "72.9213255"
    },
    {
        "name": "ME 460 400043 Rd No 5,4,Shivaji Nagar,Near Vikas School,Shivaji Nagar",
        "lat": "19.062380800000003",
        "lng": "72.92238069999998"
    },
    {
        "name": "ME 461 400043 Garib Nawaz Masjid,Rd No 5,6,Shivaji Nagar,Shivaji Nagar",
        "lat": "19.0641325",
        "lng": "72.92406190000001"
    },
    {
        "name": "ME 462 400043 Raman Mama Nagar,Rikhshaw Stand,Bajirao Prabhu Despande Marg,Baiganwadi",
        "lat": "19.0611272",
        "lng": "72.92421170000001"
    },
    {
        "name": "ME 463 400043 Janmangal,Rd No 9,8,Sai Baba Mandir,Baiganwadi",
        "lat": "19.0615165",
        "lng": "72.9289946"
    },
    {
        "name": "ME 464 400043 Ramdev Morya Marg,Baji Prabhu Despande Rd,Shivaji Nagar,Shivaji Nagar",
        "lat": "19.0641325",
        "lng": "72.92406190000001"
    },
    {
        "name": "ME 465 400043 Near Valimiki Temle,Ambedkar Nagar Service Rd,Valmiki Rahivashi Sang,Mankhurd",
        "lat": "19.0512616",
        "lng": "72.93683990000001"
    },
    {
        "name": "ME 466 400043 Near Saibaba Mandir,Lok Shahir Annabhau Sathe Nagar,Sathe Nagar,Mankhurd",
        "lat": "19.056268600000003",
        "lng": "72.9304302"
    },
    {
        "name": "ME 467 400043 Chawl No 9 16 10 6,P Y Thorat Marg,Nimonibaug,Govandi",
        "lat": "19.060140899999997",
        "lng": "72.9074437"
    },
    {
        "name": "ME 468 400043 Bhimjyot Chawl,Bansode Marg,Nimonibaug,Govandi",
        "lat": "19.0002712",
        "lng": "72.82025469999998"
    },
    {
        "name": "ME 469 400043 Gajanan Colony,Ahilya Bai Holkar Marg,Gajanan Colony,Lotus Colony",
        "lat": "19.0658405",
        "lng": "72.9200599"
    },
    {
        "name": "ME 470 400043 E1,Hm,Hq,E2 Line,S V Hamid Marg,B Sec,Cheetacamp",
        "lat": "19.063261999999998",
        "lng": "72.9258389"
    },
    {
        "name": "ME 471 400043 Jyotirling Chawl,Maharashtra Nagar Road,Shiv Prerna,Mankhurd",
        "lat": "19.0512616",
        "lng": "72.93683990000001"
    },
    {
        "name": "ME 472 400043 Maharshtra Nagar,Shivaji Maidan,Maharashtra Nagar,Mankhurd",
        "lat": "19.0491806",
        "lng": "72.937823"
    },
    {
        "name": "ME 473 400043 Deonar Municipal Colony,Sakarm Patil Marg,Municipal Colony,Deonar",
        "lat": "19.05495",
        "lng": "72.923346"
    },
    {
        "name": "ME 474 400071 Shah And Anchor College,Mahavir Education Ground,Chembur",
        "lat": "19.0482157",
        "lng": "72.91165809999998"
    },
    {
        "name": "ME 475 400074 Near Maruti Mandir,Vashi Naka,Vashi Naka,Chembur",
        "lat": "19.033087",
        "lng": "72.896332"
    },
    {
        "name": "ME 476 400074 Near Model High School,Vashi Naka,Vashi Naka,Chembur",
        "lat": "19.036367499999997",
        "lng": "72.90522779999998"
    },
    {
        "name": "ME 477 400074 Near Saibaba Mandir,Sai Dhamb Marg,Sharadwadi,Chembur",
        "lat": "19.04289",
        "lng": "72.90460959999999"
    },
    {
        "name": "ME 478 400074 Ashish Talav,Gavanpada,Vishnu Nagar,Chembur",
        "lat": "19.023912799999998",
        "lng": "72.9069286"
    },
    {
        "name": "ME 479 400074 Bhimtekdi,Mahul Raod,Bharat Nagar,Chembur",
        "lat": "19.0306514",
        "lng": "72.89698790000001"
    },
    {
        "name": "ME 479 400074 Bhimtekdi,Mahul Raod,Bharat Nagar,Chembur",
        "lat": "19.0306514",
        "lng": "72.89698790000001"
    },
    {
        "name": "ME 481 400074 Slum St,J Plot Mahada,Old Bharat Nagar,Chembur",
        "lat": "19.055066600000004",
        "lng": "72.8473015"
    },
    {
        "name": "ME 482 400074 Opp Shagun Hall,Shriram Nagar,Shriram Nagar,Chembur",
        "lat": "19.0462852",
        "lng": "72.89718289999998"
    },
    {
        "name": "ME 483 400074 Bharat Kunj,Shahtri Nagar,Shashtri Nagar,Chembur",
        "lat": "19.0320186",
        "lng": "72.89769940000001"
    },
    {
        "name": "ME 484 400074 Aurangabad Chawl,Buddha Vihar,Rahul Nagar,Chembur",
        "lat": "19.0612677",
        "lng": "72.9082923"
    },
    {
        "name": "ME 485 400074 Lince C,Vashi Naka,Shivaji Nagar,Chembur",
        "lat": "19.033087",
        "lng": "72.896332"
    },
    {
        "name": "ME 486 400074 Ayodyanagar,Aziz Baug Road,Azad Nagar,Chembur",
        "lat": "19.037259",
        "lng": "72.894909"
    },
    {
        "name": "ME 487 400074 B Near Model High School,Rcf Colony,Sahyadri Nagar,Chembur",
        "lat": "19.036367499999997",
        "lng": "72.90522779999998"
    },
    {
        "name": "ME 488 400088 D Line,Mangrooves,C Sector,Mankhurd",
        "lat": "19.0482616",
        "lng": "72.9288426"
    },
    {
        "name": "ME 489 400088 E,E1,D1,F,B Line,Market Road,D Sector Cheetacamp,Mankhurd",
        "lat": "19.0361246",
        "lng": "72.9486403"
    },
    {
        "name": "ME 490 400088 K1,K2 Line,Balaji Mandir Road,G Sector Cheetacamp,Mankhurd",
        "lat": "19.0384683",
        "lng": "72.9469878"
    },
    {
        "name": "ME 491 400088 L Line,Shiv Mandir Road,J Sector Cheetacamp,Mankhurd",
        "lat": "19.0361246",
        "lng": "72.9486403"
    },
    {
        "name": "ME 492 400088 F Line,School Road,K Sector Cheetacamp,Mankhurd",
        "lat": "19.0361246",
        "lng": "72.9486403"
    },
    {
        "name": "ME 493 400088 Borbadevi Mandir,N G Acharya Marg,Govandi,Govandi",
        "lat": "19.0540122",
        "lng": "72.91253449999998"
    },
    {
        "name": "ME 494 400088 St Round Deonar Village,Rd No 4,Deonar Village,Mankhurd",
        "lat": "",
        "lng": ""
    },
    {
        "name": "ME 495 400088 Near Padua High School,Church Road,Mankhurd Goan,Mankhurd",
        "lat": "19.046318300000003",
        "lng": "72.92894759999999"
    },
    {
        "name": "ME 496 400088 Samrat Ashok Nagar,Shiv Mandir Marg,Samrat Ashok Nagar,Mankhurd",
        "lat": "19.054477",
        "lng": "72.9128813"
    },
    {
        "name": "ME 497 400088 Valmiki Madir,Sion Panvel Road,Mankhurd Stn,Mankhurd",
        "lat": "19.042694",
        "lng": "72.930852"
    },
    {
        "name": "ME 498 400088 Mankhurd Railway Stn Road,Phule Nagar,Mankhurd",
        "lat": "19.0484029",
        "lng": "72.9323881"
    },
    {
        "name": "ME 499 400088 K 1 Line,Mgr Road,E Sec,Cheetacamp",
        "lat": "19.0379774",
        "lng": "72.9476826"
    },
    {
        "name": "ME 500 400088 D Line,Near Start Hotel,A Sec,Cheetacamp",
        "lat": "19.0361246",
        "lng": "72.9486403"
    },
    {
        "name": "ME 501 400088 Navnath Seva Sangh,Cheetacamp Rd,Navnath Seva Sangh,Mankhurd",
        "lat": "19.0361246",
        "lng": "72.9486403"
    },
    {
        "name": "ME 502 400701 Dinquarry Road,Panajarapol,Panjarapol,Chembur",
        "lat": "19.126480100000002",
        "lng": "73.0110096"
    },
    {
        "name": "MW 504 400071 Vatsalatai Nagar,Kurla Signal,Nr. Kurla Signal,Chembur",
        "lat": "19.0521122",
        "lng": "72.90066800000001"
    },
    {
        "name": "MW 505 400071 Subhedar Ambedkar,Lal Dongar, Near Bmc School, Dr. Ambedkar Chawl, Samarth Nagar,Near Sion Trombay Road,Suman Nagar, Lal Dongar,Chembur",
        "lat": "19.053855300000002",
        "lng": "72.88672749999998"
    },
    {
        "name": "MW 506 400071 Shramjivi Nagar, Saibaba Nagar, Adarsh Nagar, Shell Colony, Yashomati, Shell Colony,Shell Colony, Service Road,Thakker Bhappa Colony,Chembur",
        "lat": "19.0643878",
        "lng": "72.89376879999999"
    },
    {
        "name": "MW 507 400071 Siddharth Colony,Kn Gaikwad Marg,Near Chemburnaka,Chembur",
        "lat": "19.058149",
        "lng": "72.8921957"
    },
    {
        "name": "MW 510 400071 Galli No. 2, Yeshu Nagar,Shree Krishna Mitra Mandal,Chembur",
        "lat": "19.05961",
        "lng": "72.891239"
    },
    {
        "name": "MW 511 400071 Transit Camp,Opp Kamal Hotel,Chembur",
        "lat": "19.063497899999998",
        "lng": "72.89769720000001"
    },
    {
        "name": "MW 512 400071 Nepali Galli, Shivshakti Nagar,Collector Colony,Chembur",
        "lat": "19.0443772",
        "lng": "72.88976199999998"
    },
    {
        "name": "MW 513 400071 Shramjivi Nagar,Opp Vitthal Rukhmini Road,Ghatla Village,Chembur",
        "lat": "19.0499186",
        "lng": "72.9084053"
    },
    {
        "name": "MW 514 400071 Panchsheel Nagar,Tilak Nagar Road No. 3,Near Jai Ambe Kirana Stores,Chembur",
        "lat": "19.066924399999998",
        "lng": "72.89162619999998"
    },
    {
        "name": "MW 515 400071 Jai Ambe Ngr., Behind Raga Building,Eastern Express Highway,Opp Postal Colony,Chembur",
        "lat": "19.061197500000002",
        "lng": "72.8931661"
    },
    {
        "name": "MW 516 400071 Pandey Chawl,Near Old Hanuman Mandir,Chembur",
        "lat": "19.0521122",
        "lng": "72.90066800000001"
    },
    {
        "name": "MW 517 400071 Rajeshwari Aman Chawl,Near Laxmi Street Shell Colony,Chembur",
        "lat": "19.065761",
        "lng": "72.89363840000001"
    },
    {
        "name": "MW 518 400071 Chawl No. 3, Lal Wadi, Near Bharat Tirth Soc.,S T Road,Maitry Park,Chembur",
        "lat": "19.050196",
        "lng": "72.904848"
    },
    {
        "name": "MW 522 400089 Pestom Sagar,Road No.4,Near Sawaswati Dugdhalay, Opp. Krishna Pan Bidi Shop,Chembur",
        "lat": "19.069919600000002",
        "lng": "72.904573"
    },
    {
        "name": "N 523 400075 Slum,Rajaram Bane Marg,Laxmi Nagar, Ganesh Nagar, Ghatkopar (E)",
        "lat": "19.09308",
        "lng": "72.918626"
    },
    {
        "name": "N 524 400077 ,Kamraj Nagar & Ramabai Nagar, Ghatkopar (E)",
        "lat": "19.0717552",
        "lng": "72.91135849999998"
    },
    {
        "name": "N 525 400077 ,Kamraj Nagar, Ghatkopar (E)",
        "lat": "19.0717552",
        "lng": "72.91135849999998"
    },
    {
        "name": "N 526 400079 Slum,Vikhroli Park Site, Varsha Nagar, Vikhroli (W)",
        "lat": "19.1041891",
        "lng": "72.9161575"
    },
    {
        "name": "N 527 400079 Slum,Varsha Nagar Road, Vikhroli (W)",
        "lat": "19.1095439",
        "lng": "72.91578840000001"
    },
    {
        "name": "N 528 400084 Slum,Bhim Nagar Road,Bhim Nagar, Kathodipada, Dayasagar, Ghatkopar (W)",
        "lat": "19.0959197",
        "lng": "72.90551690000001"
    },
    {
        "name": "N 529 400086 ,Nityanand Nagar, Gautam Nagar, Ghatkopar (W)",
        "lat": "19.0951711",
        "lng": "72.91578840000001"
    },
    {
        "name": "N 530 400086 ,Kirol Gaon, Vidyavuhar (W)",
        "lat": "19.0815251",
        "lng": "72.89696099999998"
    },
    {
        "name": "N 531 400086 Chota Bhim Nagar,Lbs Road,Opp. Bikaner,Ghatkopar W",
        "lat": "19.0897147",
        "lng": "72.90805909999999"
    },
    {
        "name": "N 532 400086 ,Barve Nagar, Ramji Nagar, Bhatwadi, Ghatkopar (W)",
        "lat": "19.1021367",
        "lng": "72.9021295"
    },
    {
        "name": "N 533 400086 Slum,Azad Nagar, Chirag Nagar, Parshiwadi, Ghatkopar (W)",
        "lat": "19.091584899999997",
        "lng": "72.89696099999998"
    },
    {
        "name": "PN 534 400063 Jai Bhim Nagar,Dindoshi,Goregaon East",
        "lat": "19.1762177",
        "lng": "72.8616978"
    },
    {
        "name": "PN 535 400063 Santosh Nagar,Dindoshi,Goregaon East",
        "lat": "19.168963",
        "lng": "72.875588"
    },
    {
        "name": "PN 536 400064 Mota Pada,Near Mittal College,Malad West",
        "lat": "",
        "lng": ""
    },
    {
        "name": "PN 537 400064 Valnai Colony,Near Link Road,Malad West",
        "lat": "19.1960964",
        "lng": "72.83972929999999"
    },
    {
        "name": "PN 538 400064 Kanchpada No 1,Ramchandra Lane,Malad West",
        "lat": "19.189181",
        "lng": "72.83390469999998"
    },
    {
        "name": "PN 539 400064 Somwar Bazar,Malad West",
        "lat": "19.181544100000004",
        "lng": "72.8419473"
    },
    {
        "name": "PN 540 400064 Bhadran Nagar,S V Road,Malad West",
        "lat": "19.195574",
        "lng": "72.847288"
    },
    {
        "name": "PN 541 400095 Old Collector Compound,Malvani,Malad West",
        "lat": "19.1900865",
        "lng": "72.8223757"
    },
    {
        "name": "PN 542 400095 Azmi Nagar,Malwani Gate No 7,Malad West",
        "lat": "19.184622100000002",
        "lng": "72.82048990000001"
    },
    {
        "name": "PN 543 400095 New Collector Compound,Malvani,Malad West",
        "lat": "19.185451500000003",
        "lng": "72.8227449"
    },
    {
        "name": "PN 544 400095 Perreira Wadi,Malad West",
        "lat": "19.188802300000003",
        "lng": "72.8197043"
    },
    {
        "name": "PN 545 400095 Aksa Village,Madh Marve Road,Malad West",
        "lat": "19.176599",
        "lng": "72.797626"
    },
    {
        "name": "PN 546 400095 Manori Village,Panchghar,Malad West",
        "lat": "19.2200647",
        "lng": "72.7835719"
    },
    {
        "name": "PN 547 400095 Malwani Church,Near Shriram Mandir,Malad West",
        "lat": "19.177565100000002",
        "lng": "72.80676799999998"
    },
    {
        "name": "PN 548 400095 Bmc Colony Gate No 5,Malwani,Malad West",
        "lat": "19.184629",
        "lng": "72.82046500000001"
    },
    {
        "name": "PN 549 400095 Daruwala Compound,S V Road,Malad West",
        "lat": "19.1908604",
        "lng": "72.84684990000001"
    },
    {
        "name": "PN 550 400095 Ambujwadi,Malad West",
        "lat": "19.1752701",
        "lng": "72.8082252"
    },
    {
        "name": "PN 551 400097 Makrani Pada,Rani Sati Marg,Malad East",
        "lat": "19.1799743",
        "lng": "72.85938349999998"
    },
    {
        "name": "PN 552 400097 Hanuman Nagar,Kurar,Malad East",
        "lat": "19.1948348",
        "lng": "72.86761240000001"
    },
    {
        "name": "PN 553 400097 Kranti Nagar,Kurar,Malad East",
        "lat": "19.1904917",
        "lng": "72.86394190000001"
    },
    {
        "name": "PN 554 400097 Indira Nagar,Rani Sati Marg,Malad East",
        "lat": "19.178444600000002",
        "lng": "72.8665406"
    },
    {
        "name": "PN 555 400097 Pathanwadi,Malad East",
        "lat": "",
        "lng": ""
    },
    {
        "name": "PN 556 400097 Ambewadi,Daftari Road,Malad East",
        "lat": "19.1885575",
        "lng": "72.85351179999998"
    },
    {
        "name": "PN 557 400097 Kokni Pada - Shivaji Nagar,Kurar,Malad East",
        "lat": "19.18988",
        "lng": "72.86520970000001"
    },
    {
        "name": "PN 558 400097 Tanaji Nagar,Dhobighat Kurar,Malad East",
        "lat": "19.189687799999998",
        "lng": "72.862585"
    },
    {
        "name": "PN 559 400097 Bacchani Nagar,Malad East",
        "lat": "19.187129000000002",
        "lng": "72.85524040000001"
    },
    {
        "name": "PN 560 400101 Gokul Nagar,Kandivali East",
        "lat": "19.193137300000004",
        "lng": "72.8729633"
    },
    {
        "name": "PN 561 400101 Apppa Pada,Kandivali East",
        "lat": "19.2004765",
        "lng": "72.8736892"
    },
    {
        "name": "PS 562 400062 Premnagar,Vishwkarma Road,Premnagar,Goregaon West",
        "lat": "19.1718491",
        "lng": "72.83825470000002"
    },
    {
        "name": "PS 563 400064 Teen Dongri,Yashwant Nagar Road,Teen Dongri,Goregaon West",
        "lat": "19.1667782",
        "lng": "72.841578"
    },
    {
        "name": "PS 564 400065 Unit No. 22,Aarey Milk Colony,Unit No 22,Goregaon East",
        "lat": "19.1555762",
        "lng": "72.8849595"
    },
    {
        "name": "PS 565 400065 Janjira Colony, Opposite St.Pius College,Aarey Road,Goregaon East",
        "lat": "19.1662504",
        "lng": "72.85586479999999"
    },
    {
        "name": "PS 565 400065 Janjira Colony, Opposite St.Pius College,Aarey Road,Goregaon East",
        "lat": "19.1662504",
        "lng": "72.85586479999999"
    },
    {
        "name": "PS 567 400104 Bhagat Singh Nagar No. 1,Link Rd,Bhagatsingh Nagar No 1,Goregaon West",
        "lat": "19.1573572",
        "lng": "72.83439240000001"
    },
    {
        "name": "PS 568 400104 Bhagat Singh Nagar No. 2, Tambe Gully,Link Rd,Bhagat Singh Nagar No 2,Goregaon West",
        "lat": "19.1592645",
        "lng": "72.83516569999998"
    },
    {
        "name": "PS 569 400104 Laxmi Nagar,Link Rd,Laxminagar,Goregaon West",
        "lat": "19.1594674",
        "lng": "72.8355775"
    },
    {
        "name": "RC 570 400066 Raidongri,Raidongri,Weh,Borivali East",
        "lat": "19.230400699999997",
        "lng": "72.86342059999998"
    },
    {
        "name": "RC 571 400066 Kajupada,Rikshaw Stand Road,Ganesh Cowk,Borivali East",
        "lat": "19.235977600000002",
        "lng": "72.87000959999999"
    },
    {
        "name": "RC 572 400066 Jai Jawan,Fci Godown Rd,Nr Masjid,Borivali East",
        "lat": "19.2196027",
        "lng": "72.8596575"
    },
    {
        "name": "RC 573 400066 Dadasaheb Chawl,Dattapada Rd,Rupwate Nagar,Borivali East",
        "lat": "19.221263",
        "lng": "72.86185090000001"
    },
    {
        "name": "RC 574 400066 Kulup Wadi,Kulup Wadi,Kulup Wadi,Borivali East",
        "lat": "19.229516",
        "lng": "72.86470200000002"
    },
    {
        "name": "RC 575 400066 Daulat Nagar,S V Road,Neharu Nagar,Borivali East",
        "lat": "19.235855800000003",
        "lng": "72.8575517"
    },
    {
        "name": "RC 576 400066 Sukurwadi,Sukurwadi,Bus Depot Sukurwadi,Borivali East",
        "lat": "19.2316687",
        "lng": "72.8600965"
    },
    {
        "name": "RC 577 400092 Patil House,Eksar Rd,Talepakhadi,Borivali West",
        "lat": "19.237691",
        "lng": "72.845651"
    },
    {
        "name": "RC 578 400092 Ratnabai Chwal,Borsapada Road,Op. Borsapada Ho,Borivali West",
        "lat": "19.2219716",
        "lng": "72.8303808"
    },
    {
        "name": "RC 579 400092 Ek Dongri Chwal,Eksar Road,Gandhi Nagar,Borivali West",
        "lat": "19.2342853",
        "lng": "72.8461007"
    },
    {
        "name": "RN 580 400068 Valmiki Chawl And Nearby Chawl,Dn Dubey Rd,Ambawadi,Dahisar East",
        "lat": "19.2411308",
        "lng": "72.8600404"
    },
    {
        "name": "RN 581 400068 Padwal And Ramchandra Gurav Chawl,Babu Pednekar Road,Ketkipada,Dahisar East",
        "lat": "19.2588973",
        "lng": "72.87665539999998"
    },
    {
        "name": "RN 582 400068 Sainath Chawl,Shiv Tekdi,Dahisar East",
        "lat": "19.1881052",
        "lng": "72.86564779999998"
    },
    {
        "name": "RN 583 400068 Shiv Shankar Chawl And Durgabai Dixit Chawl,Shiv Vallabh Road,Hanuman Tekdi,Dahisar East",
        "lat": "19.237931399999997",
        "lng": "72.87029319999998"
    },
    {
        "name": "RN 584 400068 Jai Ganesh Rahivasi Sangh And Jai Bhavani,S.N. Dubey Road,Kokanipada,Dahisar East",
        "lat": "19.2488505",
        "lng": "72.8682853"
    },
    {
        "name": "RN 585 400068 Khan Compound,S.N. Dubey Road,Rawalpada,Dahisar East",
        "lat": "19.249504100000003",
        "lng": "72.8676031"
    },
    {
        "name": "RN 586 400068 Vishwakarma Chawl,Shanti Nagar Dongri,Dahisar East",
        "lat": "19.2483486",
        "lng": "72.864102"
    },
    {
        "name": "RN 587 400068 Topiwala Chawl,Santosh Nagar,Dahisar East",
        "lat": "19.2574665",
        "lng": "72.8650191"
    },
    {
        "name": "RN 588 400068 Sadguru Chawl,Ketakipada,Dahisar East",
        "lat": "19.2588973",
        "lng": "72.87665539999998"
    },
    {
        "name": "RN 589 400068 Sai Ganesh Krupa Society,S.N.Dubey Road,Ghartanpada Road No.2,Dahisar East",
        "lat": "19.2487389",
        "lng": "72.86836600000001"
    },
    {
        "name": "RN 590 400068 Shankar Tumbade,S.N.Dubey Road,Kokanipada,Dahisar East",
        "lat": "19.2488505",
        "lng": "72.8682853"
    },
    {
        "name": "RN 591 400068 Balkawde Compound,Kajupada,Dahisar East",
        "lat": "19.235977600000002",
        "lng": "72.87000959999999"
    },
    {
        "name": "RN 592 400068 Mulla Hawaldar Chawl,Kokanipada,Dahisar East",
        "lat": "19.2453366",
        "lng": "72.8720403"
    },
    {
        "name": "RN 593 400068 Babli Pada,C S Road No-3,Behind Ganpati Mandir,Dahisar East",
        "lat": "19.254471",
        "lng": "72.86397099999998"
    },
    {
        "name": "RN 594 400068 Nasir Ali Chawl,Rajesh Compound,Dahisar East",
        "lat": "19.2574665",
        "lng": "72.8650191"
    },
    {
        "name": "RN 595 400068 Damodar Barfe Chawl, Gharatan Pada No-2,Service Road,Nr Raj Nagar, Ghartan Pada No-2,Dahisar East",
        "lat": "19.251713199999998",
        "lng": "72.86822409999998"
    },
    {
        "name": "RN 596 400068 Dada Pandey & Sham Rati Yadav Chawl,Opp Awadh Vidyalay,Ketaki Pada Dharkhadi,Dahisar East",
        "lat": "19.2590954",
        "lng": "72.8338234"
    },
    {
        "name": "RN 597 400068 Vishnu Naik Chawl,Ovaripada,Dahisar East",
        "lat": "19.2435704",
        "lng": "72.8629943"
    },
    {
        "name": "RN 598 400103 Dahisar Gavthan,R.P. Road, Shivsena Shakha,Dahisar West",
        "lat": "19.2450152",
        "lng": "72.84540919999998"
    },
    {
        "name": "RN 599 400103 Ganapat Patil Nagar,New Link Road,I C Colony,Dahisar West",
        "lat": "19.2503262",
        "lng": "72.8459693"
    },
    {
        "name": "RN 600 400103 Parash Villa,Maskarans Vadi,Dahisar West",
        "lat": "19.2450152",
        "lng": "72.84540919999998"
    },
    {
        "name": "RN 601 400103 Shivaji Nagar Slum,L.M. Road,Shivaji Nagar,Dahisar West",
        "lat": "19.2459077",
        "lng": "72.8540084"
    },
    {
        "name": "RN 602 400103 Om Sai Welfare Society,Rto Road,Kandarpada,Dahisar West",
        "lat": "19.249486100000002",
        "lng": "72.8561313"
    },
    {
        "name": "RS 603 400067 Laljipada / Gandhi Nagar,Kandivali West",
        "lat": "19.1799743",
        "lng": "72.85938349999998"
    },
    {
        "name": "RS 604 400067 Laljipada / Sanjay Nagar,Kandivali West",
        "lat": "19.1799743",
        "lng": "72.85938349999998"
    },
    {
        "name": "RS 605 400067 Laljipada / Ekta Nagar,Kandivali West",
        "lat": "19.2019509",
        "lng": "72.8295085"
    },
    {
        "name": "RS 606 400067 Laljipada,Kandivali West",
        "lat": "19.1799743",
        "lng": "72.85938349999998"
    },
    {
        "name": "RS 607 400067 Abhilakh Nagar / Iraniwadi Road No.4,Kandivali West",
        "lat": "19.201605100000002",
        "lng": "72.83620119999998"
    },
    {
        "name": "RS 608 400067 Abhilakh Nagar,Kandivali West",
        "lat": "",
        "lng": ""
    },
    {
        "name": "RS 609 400067 Ragada Pada, Irani Wadi Road No 4,Kandivali West",
        "lat": "19.201605100000002",
        "lng": "72.83620119999998"
    },
    {
        "name": "RS 610 400067 Sai Nagar Kandivali West,Kandivali West",
        "lat": "19.1799743",
        "lng": "72.85938349999998"
    },
    {
        "name": "RS 611 400067 Khan Gulli, Kd Comnpound, 90Ft D.P Rd South Boundary,Kandivali West",
        "lat": "19.203529100000004",
        "lng": "72.8313733"
    },
    {
        "name": "RS 612 400101 Gautam Nagar, Lahugadh, Ramgadh,Kandivali East",
        "lat": "19.196859699999997",
        "lng": "72.88182429999998"
    },
    {
        "name": "RS 613 400101 Bhim Nagar, 12 Nal, Satara Camp, Gandhi Nagar, Nalanda Budhvihar,Kandivali East",
        "lat": "28.6661232",
        "lng": "77.27401090000001"
    },
    {
        "name": "RS 614 400101 Mahindra Compound, Damu Nagar,Kandivali East",
        "lat": "19.200989800000002",
        "lng": "72.87979250000001"
    },
    {
        "name": "RS 615 400101 Panchayat Samitee,Kandivali East",
        "lat": "19.2004765",
        "lng": "72.8736892"
    },
    {
        "name": "RS 616 400101 Laxmi Nagar, Barkiya Rama Compound And Azadwadi,Kandivali East",
        "lat": "12.6642584",
        "lng": "7.535555500000001"
    },
    {
        "name": "RS 617 400101 Sigh Estate (Part), Azadwadi,Kandivali East",
        "lat": "19.2044846",
        "lng": "72.87636119999998"
    },
    {
        "name": "RS 618 400101 Sigh Estate,Kandivali East",
        "lat": "19.2039884",
        "lng": "72.8737017"
    },
    {
        "name": "RS 619 400101 Narshipada / Janupada,Kandivali East",
        "lat": "19.2109517",
        "lng": "72.87887070000001"
    },
    {
        "name": "RS 620 400101 Narshipada / Durga Mata Mandir,Kandivali East",
        "lat": "19.1908923",
        "lng": "72.874123"
    },
    {
        "name": "RS 621 400101 Hanuman Nagar / Balaji Inds Estate.,Kandivali East",
        "lat": "19.199034899999997",
        "lng": "72.86847449999998"
    },
    {
        "name": "RS 622 400101 Hanuman Nagar /Pal School,Kandivali East",
        "lat": "19.1979706",
        "lng": "72.8661642"
    },
    {
        "name": "RS 623 400101 Hanuman Nagar / Lokmanya Chawl,Kandivali East",
        "lat": "19.201102",
        "lng": "72.86366899999999"
    },
    {
        "name": "RS 624 400101 Ambedkar Nagar, Poisar,Kandivali East",
        "lat": "19.215591800000002",
        "lng": "72.85228640000001"
    },
    {
        "name": "RS 625 400101 Donkey Compound, Indira Chowk, Poisar,Kandivali East",
        "lat": "19.213028",
        "lng": "72.8561253"
    },
    {
        "name": "RS 626 400101 Shivaji Maidan, Poisar,Kandivali East",
        "lat": "19.215591800000002",
        "lng": "72.85228640000001"
    },
    {
        "name": "RS 627 400101 Adarsh Nagar, Poisar,Kandivali East",
        "lat": "19.1799743",
        "lng": "72.85938349999998"
    },
    {
        "name": "RS 628 400101 Ram Nagar, Poisar,Kandivali East",
        "lat": "19.1799743",
        "lng": "72.85938349999998"
    },
    {
        "name": "RS 629 400101 Bhajiwadi, Poisar,Kandivali East",
        "lat": "19.2097813",
        "lng": "72.8572712"
    },
    {
        "name": "RS 630 400101 Janata Nagar, Poisar,Kandivali East",
        "lat": "19.1799743",
        "lng": "72.85938349999998"
    },
    {
        "name": "RS 631 400101 Apna Nagar, Poisar,Kandivali East",
        "lat": "19.2030302",
        "lng": "72.85431729999998"
    },
    {
        "name": "RS 632 400101 Chikalwadi, Poisar,Kandivali East",
        "lat": "19.215591800000002",
        "lng": "72.85228640000001"
    },
    {
        "name": "RS 633 400101 Pandey Compound, Thakur Village,Kandivali East",
        "lat": "19.2134776",
        "lng": "72.87803989999998"
    },
    {
        "name": "RS 634 400101 Bandongri,Kandivali East",
        "lat": "19.190427800000002",
        "lng": "72.85967120000001"
    },